2026-07-05 11:09:12,890 - INFO - Logging initialized to /home/dali/Documents/ReMow-Rover-Tests/Repeat/Logs/readRecordedRun-2026-07-05_11-09-12.log
2026-07-05 11:09:12,891 - INFO - RoboClaw opened successfully on /dev/serial/by-id/usb-Basicmicro_Inc._USB_Roboclaw_2x15A-if00
2026-07-05 11:09:13,192 - INFO - Encoders reset to zero
2026-07-05 11:09:13,192 - INFO - Starting readRecordedRun with combination: 55
2026-07-05 11:09:13,193 - INFO - Selected most recent recording: 55_20260510-134004_GPSData.csv
2026-07-05 11:09:13,201 - INFO - GREEN_LED initialized on GPIO 17
2026-07-05 11:09:13,203 - INFO - ENU origin from first waypoint: 37.9008713333, -97.66418
2026-07-05 11:09:13,258 - INFO - goto_positions: M1=1100, M2=1100 [Startup - ensuring neutral position]
2026-07-05 11:09:13,258 - INFO - Actuators initialized to neutral (1100)
2026-07-05 11:09:13,258 - INFO - === STATE MACHINE INITIALIZED ===
2026-07-05 11:09:13,258 - INFO - Start waypoint: East=0.000m, North=0.000m, Heading=1.8°
2026-07-05 11:09:13,258 - INFO - Initial state: NAVIGATING_TO_START
2026-07-05 11:09:13,258 - INFO - Navigation timeout: 300.0s
2026-07-05 11:09:13,258 - INFO - === WAITING FOR GPS RTK FIX ===
2026-07-05 11:09:13,258 - INFO - Need: relPosValid=1, carrSoln=2, relPosHeadingValid=1 (timeout: 60.0s)
2026-07-05 11:09:13,293 - INFO - GPS status: relPosValid=1, carrSoln=2, headingValid=1 (0.0s)
2026-07-05 11:09:13,293 - INFO - === GPS RTK FIXED — ready to navigate (0.0s) ===
2026-07-05 11:09:13,293 - INFO - <UBX(RXM-RTCM, version=2, crcFailed=0, msgUsed=2, subType=0, refStation=0, msgType=4072)>
2026-07-05 11:09:13,293 - INFO - Using persisted heading from driving to work area: 49.77° (captured at 2026-07-05 11:08:20)
2026-07-05 11:09:13,436 - INFO - <UBX(RXM-RTCM, version=2, crcFailed=0, msgUsed=2, subType=0, refStation=0, msgType=1074)>
2026-07-05 11:09:13,437 - INFO - <UBX(RXM-RTCM, version=2, crcFailed=0, msgUsed=2, subType=0, refStation=0, msgType=1084)>
2026-07-05 11:09:13,440 - INFO - <UBX(RXM-RTCM, version=2, crcFailed=0, msgUsed=2, subType=0, refStation=0, msgType=1094)>
2026-07-05 11:09:13,444 - INFO - <UBX(RXM-RTCM, version=2, crcFailed=0, msgUsed=2, subType=0, refStation=0, msgType=1124)>
2026-07-05 11:09:13,444 - INFO - <UBX(RXM-RTCM, version=2, crcFailed=0, msgUsed=2, subType=0, refStation=0, msgType=1230)>
2026-07-05 11:09:13,481 - INFO - <UBX(NAV-PVT, iTOW=16:09:13.400000, year=2026, month=7, day=5, hour=16, min=9, second=13, validDate=1, validTime=1, fullyResolved=1, validMag=0, tAcc=22, nano=400171901, fixType=3, gnssFixOk=1, diffSoln=1, psmState=0, headVehValid=0, carrSoln=2, confirmedAvai=1, confirmedDate=1, confirmedTime=1, numSV=31, lon=-97.6641973, lat=37.9008391, height=409209, hMSL=435462, hAcc=791, vAcc=1158, velN=0, velE=1, velD=5, gSpeed=1, headMot=0.0, sAcc=72, headAcc=180.0, pDOP=0.97, invalidLlh=0, lastCorrectionAge=1, reserved0=860630572, headVeh=0.0, magDec=0.0, magAcc=0.0)>
2026-07-05 11:09:13,481 - INFO - <NMEA(GNRMC, time=16:09:13.400000, status=A, lat=37.900839, NS=N, lon=-97.6641973333, EW=W, spd=0.002, cog=, date=2026-07-05, mv=, mvEW=, posMode=R, navStatus=V)>
2026-07-05 11:09:13,482 - INFO - <NMEA(GNVTG, cogt=, cogtUnit=T, cogm=, cogmUnit=M, sogn=0.002, sognUnit=N, sogk=0.004, sogkUnit=K, posMode=D)>
2026-07-05 11:09:13,482 - INFO - <NMEA(GNGGA, time=16:09:13.400000, lat=37.900839, NS=N, lon=-97.6641973333, EW=W, quality=4, numSV=12, HDOP=0.52, alt=435.5, altUnit=M, sep=-26.3, sepUnit=M, diffAge=0.2, diffStation=0)>
2026-07-05 11:09:13,483 - INFO - <NMEA(GNGSA, opMode=M, navMode=3, svid_01=11, svid_02=15, svid_03=18, svid_04=21, svid_05=29, svid_06=5, svid_07=20, svid_08=25, svid_09=26, svid_10=23, svid_11=, svid_12=, PDOP=0.97, HDOP=0.52, VDOP=0.82, systemId=1)>
2026-07-05 11:09:13,483 - INFO - <NMEA(GNGSA, opMode=M, navMode=3, svid_01=81, svid_02=66, svid_03=79, svid_04=65, svid_05=88, svid_06=87, svid_07=72, svid_08=, svid_09=, svid_10=, svid_11=, svid_12=, PDOP=0.97, HDOP=0.52, VDOP=0.82, systemId=2)>
2026-07-05 11:09:13,484 - INFO - <NMEA(GNGSA, opMode=M, navMode=3, svid_01=12, svid_02=28, svid_03=33, svid_04=29, svid_05=16, svid_06=10, svid_07=, svid_08=, svid_09=, svid_10=, svid_11=, svid_12=, PDOP=0.97, HDOP=0.52, VDOP=0.82, systemId=3)>
2026-07-05 11:09:13,484 - INFO - <NMEA(GNGSA, opMode=M, navMode=3, svid_01=13, svid_02=14, svid_03=21, svid_04=28, svid_05=33, svid_06=34, svid_07=38, svid_08=42, svid_09=, svid_10=, svid_11=, svid_12=, PDOP=0.97, HDOP=0.52, VDOP=0.82, systemId=4)>
2026-07-05 11:09:13,485 - INFO - <NMEA(GNGSA, opMode=M, navMode=3, svid_01=, svid_02=, svid_03=, svid_04=, svid_05=, svid_06=, svid_07=, svid_08=, svid_09=, svid_10=, svid_11=, svid_12=, PDOP=0.97, HDOP=0.52, VDOP=0.82, systemId=5)>
2026-07-05 11:09:13,485 - INFO - <NMEA(GPGSV, numMsg=3, msgNum=1, numSV=12, svid_01=5, elv_01=64.0, az_01=37, cno_01=45, svid_02=11, elv_02=15.0, az_02=86, cno_02=23, svid_03=15, elv_03=40.0, az_03=163, cno_03=40, svid_04=18, elv_04=34.0, az_04=295, cno_04=42, signalID=1)>
2026-07-05 11:09:13,486 - INFO - <NMEA(GPGSV, numMsg=3, msgNum=2, numSV=12, svid_01=20, elv_01=45.0, az_01=118, cno_01=41, svid_02=21, elv_02=29.0, az_02=47, cno_02=45, svid_03=23, elv_03=17.0, az_03=233, cno_03=27, svid_04=25, elv_04=20.0, az_04=218, cno_04=39, signalID=1)>
2026-07-05 11:09:13,486 - INFO - <NMEA(GPGSV, numMsg=3, msgNum=3, numSV=12, svid_01=26, elv_01=10.0, az_01=309, cno_01=27, svid_02=29, elv_02=77.0, az_02=292, cno_02=48, svid_03=46, elv_03=35.0, az_03=225, cno_03=41, svid_04=48, elv_04=38.0, az_04=220, cno_04=40, signalID=1)>
2026-07-05 11:09:13,487 - INFO - <NMEA(GPGSV, numMsg=3, msgNum=1, numSV=10, svid_01=5, elv_01=64.0, az_01=37, cno_01=41, svid_02=11, elv_02=15.0, az_02=86, cno_02=36, svid_03=15, elv_03=40.0, az_03=163, cno_03=29, svid_04=18, elv_04=34.0, az_04=295, cno_04=42, signalID=6)>
2026-07-05 11:09:13,487 - INFO - <NMEA(GPGSV, numMsg=3, msgNum=2, numSV=10, svid_01=20, elv_01=45.0, az_01=118, cno_01=39, svid_02=21, elv_02=29.0, az_02=47, cno_02=43, svid_03=23, elv_03=17.0, az_03=233, cno_03=21, svid_04=25, elv_04=20.0, az_04=218, cno_04=19, signalID=6)>
2026-07-05 11:09:13,488 - INFO - <NMEA(GPGSV, numMsg=3, msgNum=3, numSV=10, svid_01=26, elv_01=10.0, az_01=309, cno_01=24, svid_02=29, elv_02=77.0, az_02=292, cno_02=44, signalID=6)>
2026-07-05 11:09:13,488 - INFO - <NMEA(GPGSV, numMsg=1, msgNum=1, numSV=2, svid_01=12, elv_01=5.0, az_01=187, cno_01=, svid_02=13, elv_02=1.0, az_02=188, cno_02=, signalID=0)>
2026-07-05 11:09:13,489 - INFO - <NMEA(GLGSV, numMsg=3, msgNum=1, numSV=9, svid_01=65, elv_01=68.0, az_01=97, cno_01=45, svid_02=66, elv_02=35.0, az_02=177, cno_02=32, svid_03=72, elv_03=27.0, az_03=33, cno_03=49, svid_04=78, elv_04=7.0, az_04=237, cno_04=18, signalID=1)>
2026-07-05 11:09:13,489 - INFO - <NMEA(GLGSV, numMsg=3, msgNum=2, numSV=9, svid_01=79, elv_01=17.0, az_01=286, cno_01=41, svid_02=80, elv_02=6.0, az_02=337, cno_02=25, svid_03=81, elv_03=27.0, az_03=316, cno_03=32, svid_04=87, elv_04=17.0, az_04=99, cno_04=44, signalID=1)>
2026-07-05 11:09:13,490 - INFO - <NMEA(GLGSV, numMsg=3, msgNum=3, numSV=9, svid_01=88, elv_01=61.0, az_01=26, cno_01=47, signalID=1)>
2026-07-05 11:09:13,490 - INFO - <NMEA(GLGSV, numMsg=2, msgNum=1, numSV=7, svid_01=66, elv_01=35.0, az_01=177, cno_01=23, svid_02=72, elv_02=27.0, az_02=33, cno_02=37, svid_03=78, elv_03=7.0, az_03=237, cno_03=23, svid_04=79, elv_04=17.0, az_04=286, cno_04=31, signalID=3)>
2026-07-05 11:09:13,490 - INFO - <NMEA(GLGSV, numMsg=2, msgNum=2, numSV=7, svid_01=80, elv_01=6.0, az_01=337, cno_01=28, svid_02=81, elv_02=27.0, az_02=316, cno_02=14, svid_03=88, elv_03=61.0, az_03=26, cno_03=40, signalID=3)>
2026-07-05 11:09:13,491 - INFO - <NMEA(GAGSV, numMsg=3, msgNum=1, numSV=9, svid_01=4, elv_01=8.0, az_01=173, cno_01=27, svid_02=10, elv_02=46.0, az_02=297, cno_02=45, svid_03=12, elv_03=64.0, az_03=332, cno_03=42, svid_04=14, elv_04=73.0, az_04=268, cno_04=42, signalID=2)>
2026-07-05 11:09:13,491 - INFO - <NMEA(GAGSV, numMsg=3, msgNum=2, numSV=9, svid_01=16, elv_01=40.0, az_01=259, cno_01=46, svid_02=25, elv_02=21.0, az_02=311, cno_02=28, svid_03=28, elv_03=22.0, az_03=154, cno_03=42, svid_04=29, elv_04=28.0, az_04=66, cno_04=46, signalID=2)>
2026-07-05 11:09:13,492 - INFO - <NMEA(GAGSV, numMsg=3, msgNum=3, numSV=9, svid_01=33, elv_01=39.0, az_01=64, cno_01=46, signalID=2)>
2026-07-05 11:09:13,492 - INFO - <NMEA(GAGSV, numMsg=3, msgNum=1, numSV=10, svid_01=4, elv_01=8.0, az_01=173, cno_01=23, svid_02=10, elv_02=46.0, az_02=297, cno_02=45, svid_03=12, elv_03=64.0, az_03=332, cno_03=41, svid_04=14, elv_04=73.0, az_04=268, cno_04=47, signalID=7)>
2026-07-05 11:09:13,493 - INFO - <NMEA(GAGSV, numMsg=3, msgNum=2, numSV=10, svid_01=16, elv_01=40.0, az_01=259, cno_01=37, svid_02=19, elv_02=, az_02=, cno_02=38, svid_03=25, elv_03=21.0, az_03=311, cno_03=22, svid_04=28, elv_04=22.0, az_04=154, cno_04=42, signalID=7)>
2026-07-05 11:09:13,493 - INFO - <NMEA(GAGSV, numMsg=3, msgNum=3, numSV=10, svid_01=29, elv_01=28.0, az_01=66, cno_01=43, svid_02=33, elv_02=39.0, az_02=64, cno_02=46, signalID=7)>
2026-07-05 11:09:13,493 - INFO - <NMEA(GBGSV, numMsg=2, msgNum=1, numSV=8, svid_01=13, elv_01=71.0, az_01=337, cno_01=45, svid_02=14, elv_02=34.0, az_02=48, cno_02=45, svid_03=21, elv_03=12.0, az_03=38, cno_03=44, svid_04=28, elv_04=42.0, az_04=311, cno_04=44, signalID=1)>
2026-07-05 11:09:13,494 - INFO - <NMEA(GBGSV, numMsg=2, msgNum=2, numSV=8, svid_01=33, elv_01=53.0, az_01=181, cno_01=45, svid_02=34, elv_02=18.0, az_02=116, cno_02=44, svid_03=38, elv_03=74.0, az_03=84, cno_03=46, svid_04=42, elv_04=56.0, az_04=64, cno_04=47, signalID=1)>
2026-07-05 11:09:13,494 - INFO - <NMEA(GBGSV, numMsg=2, msgNum=1, numSV=8, svid_01=13, elv_01=71.0, az_01=337, cno_01=8, svid_02=14, elv_02=34.0, az_02=48, cno_02=7, svid_03=21, elv_03=12.0, az_03=38, cno_03=8, svid_04=28, elv_04=42.0, az_04=311, cno_04=7, signalID=B)>
2026-07-05 11:09:13,495 - INFO - <NMEA(GBGSV, numMsg=2, msgNum=2, numSV=8, svid_01=33, elv_01=53.0, az_01=181, cno_01=10, svid_02=34, elv_02=18.0, az_02=116, cno_02=10, svid_03=38, elv_03=74.0, az_03=84, cno_03=8, svid_04=42, elv_04=56.0, az_04=64, cno_04=9, signalID=B)>
2026-07-05 11:09:13,495 - INFO - <UBX(RXM-RTCM, version=2, crcFailed=0, msgUsed=2, subType=0, refStation=0, msgType=4072)>
2026-07-05 11:09:13,495 - INFO - <NMEA(GQGSV, numMsg=1, msgNum=1, numSV=0, signalID=0)>
2026-07-05 11:09:13,496 - INFO - <NMEA(GNGLL, lat=37.900839, NS=N, lon=-97.6641973333, EW=W, time=16:09:13.400000, status=A, posMode=D)>
2026-07-05 11:09:13,496 - INFO - <UBX(NAV-RELPOSNED, version=1, reserved0=0, refStationID=0, iTOW=16:09:13.400000, relPosN=38.23, relPosE=45.76, relPosD=5.22, relPosLength=59.86, relPosHeading=50.12277, reserved1=0, accN=10.0, accE=10.0, accD=12.9, accLength=10.0, accHeading=0.96085, reserved2=0, gnssFixOK=1, diffSoln=1, relPosValid=1, carrSoln=2, isMoving=1, refPosMiss=0, refObsMiss=0, relPosHeadingValid=1, relPosNormalized=0)>
2026-07-05 11:09:13,497 - INFO - 2026-07-05 11:09:13 Initial Moving Baseline state: active
2026-07-05 11:09:13,497 - INFO - 2026-07-05 11:09:13 Initial carrier solution: fixed
2026-07-05 11:09:13,497 - INFO - 2026-07-05 11:09:13, current_target: {'timestamp': '2026-05-10 13:40:05', 'lat': 37.9008713333, 'lon': -97.66418, 'speed': 0.004629996, 'y_offset': 0.0, 'x_offset': 0.0, 'z_offset': 0.0, 'heading': 1.76477}, next_target: {'timestamp': '2026-05-10 13:40:06', 'lat': 37.9008713333, 'lon': -97.66418, 'speed': 0.00514444, 'y_offset': 0.0, 'x_offset': 0.0, 'z_offset': 0.0, 'heading': 1.76299}
2026-07-05 11:09:13,634 - INFO - <UBX(RXM-RTCM, version=2, crcFailed=0, msgUsed=2, subType=0, refStation=0, msgType=1074)>
2026-07-05 11:09:13,634 - INFO - 2026-07-05 11:09:13, current_target: {'timestamp': '2026-05-10 13:40:05', 'lat': 37.9008713333, 'lon': -97.66418, 'speed': 0.004629996, 'y_offset': 0.0, 'x_offset': 0.0, 'z_offset': 0.0, 'heading': 1.76477}, next_target: {'timestamp': '2026-05-10 13:40:06', 'lat': 37.9008713333, 'lon': -97.66418, 'speed': 0.00514444, 'y_offset': 0.0, 'x_offset': 0.0, 'z_offset': 0.0, 'heading': 1.76299}
2026-07-05 11:09:13,634 - INFO - 2026-07-05 11:09:13 [3.4 OBSERVED] current_turn_radius: infm
2026-07-05 11:09:13,634 - INFO - 2026-07-05 11:09:13 [3.4 OBSERVED] turn_direction: STRAIGHT
2026-07-05 11:09:13,635 - INFO - 2026-07-05 11:09:13 [3.4 OBSERVED] estimated left/right wheel speeds: 0.001, 0.001 m/s
2026-07-05 11:09:13,637 - INFO - 2026-07-05 11:09:13 [STATE] Current state: NAVIGATING_TO_START
2026-07-05 11:09:13,637 - INFO - 2026-07-05 11:09:13 [NAV_TO_START] Phase: DRIVE_TO_START, Dist: 3.899m, Bearing err: -27.1°, Heading diff: 48.4°, Elapsed: 0.4s
2026-07-05 11:09:13,637 - INFO - 2026-07-05 11:09:13 [NAV_TO_START] DRIVE: bearing=23.0°, dist=3.90m, turn=LEFT, radius=3.21m, speed=1.00
2026-07-05 11:09:13,637 - INFO - 2026-07-05 11:09:13 Turn: LEFT, R: 3.21m, v_L: 0.89 m/s, v_R: 1.11 m/s
2026-07-05 11:09:13,637 - INFO - 2026-07-05 11:09:13 left_actuator_position: 655 (counts) from v_L 0.891 m/s
2026-07-05 11:09:13,637 - INFO - 2026-07-05 11:09:13 right_actuator_position: 545 (counts) from v_R 1.109 m/s
2026-07-05 11:09:13,651 - INFO - Sent actuator positions to RoboClaw → M1 (left): 655, M2 (right): 545 (counts)
2026-07-05 11:09:13,651 - INFO - 2026-07-05 11:09:13 APPLY → left_pos: 655, right_pos: 545 (counts), v_L: 0.89 m/s, v_R: 1.11 m/s
2026-07-05 11:09:13,651 - INFO - <UBX(RXM-RTCM, version=2, crcFailed=0, msgUsed=2, subType=0, refStation=0, msgType=1084)>
2026-07-05 11:09:13,651 - INFO - <UBX(RXM-RTCM, version=2, crcFailed=0, msgUsed=2, subType=0, refStation=0, msgType=1094)>
2026-07-05 11:09:13,651 - INFO - <UBX(RXM-RTCM, version=2, crcFailed=0, msgUsed=2, subType=0, refStation=0, msgType=1124)>
2026-07-05 11:09:13,651 - INFO - <UBX(RXM-RTCM, version=2, crcFailed=0, msgUsed=2, subType=0, refStation=0, msgType=1230)>
2026-07-05 11:09:13,682 - INFO - <UBX(NAV-PVT, iTOW=16:09:13.600000, year=2026, month=7, day=5, hour=16, min=9, second=13, validDate=1, validTime=1, fullyResolved=1, validMag=0, tAcc=22, nano=600171856, fixType=3, gnssFixOk=1, diffSoln=1, psmState=0, headVehValid=0, carrSoln=2, confirmedAvai=1, confirmedDate=1, confirmedTime=1, numSV=31, lon=-97.6641974, lat=37.900839, height=409189, hMSL=435441, hAcc=806, vAcc=1180, velN=2, velE=-5, velD=10, gSpeed=5, headMot=0.0, sAcc=78, headAcc=180.0, pDOP=0.97, invalidLlh=0, lastCorrectionAge=1, reserved0=860630572, headVeh=0.0, magDec=0.0, magAcc=0.0)>
2026-07-05 11:09:13,682 - INFO - <NMEA(GNRMC, time=16:09:13.600000, status=A, lat=37.900839, NS=N, lon=-97.6641973333, EW=W, spd=0.01, cog=, date=2026-07-05, mv=, mvEW=, posMode=R, navStatus=V)>
2026-07-05 11:09:13,683 - INFO - <NMEA(GNVTG, cogt=, cogtUnit=T, cogm=, cogmUnit=M, sogn=0.01, sognUnit=N, sogk=0.019, sogkUnit=K, posMode=D)>
2026-07-05 11:09:13,683 - INFO - <NMEA(GNGGA, time=16:09:13.600000, lat=37.900839, NS=N, lon=-97.6641973333, EW=W, quality=4, numSV=12, HDOP=0.52, alt=435.4, altUnit=M, sep=-26.3, sepUnit=M, diffAge=0.2, diffStation=0)>
2026-07-05 11:09:13,684 - INFO - <NMEA(GNGSA, opMode=M, navMode=3, svid_01=11, svid_02=15, svid_03=18, svid_04=21, svid_05=29, svid_06=5, svid_07=20, svid_08=25, svid_09=26, svid_10=23, svid_11=, svid_12=, PDOP=0.97, HDOP=0.52, VDOP=0.82, systemId=1)>
2026-07-05 11:09:13,684 - INFO - <NMEA(GNGSA, opMode=M, navMode=3, svid_01=81, svid_02=66, svid_03=79, svid_04=65, svid_05=88, svid_06=87, svid_07=72, svid_08=, svid_09=, svid_10=, svid_11=, svid_12=, PDOP=0.97, HDOP=0.52, VDOP=0.82, systemId=2)>
2026-07-05 11:09:13,684 - INFO - <NMEA(GNGSA, opMode=M, navMode=3, svid_01=12, svid_02=28, svid_03=33, svid_04=29, svid_05=16, svid_06=10, svid_07=, svid_08=, svid_09=, svid_10=, svid_11=, svid_12=, PDOP=0.97, HDOP=0.52, VDOP=0.82, systemId=3)>
2026-07-05 11:09:13,685 - INFO - <NMEA(GNGSA, opMode=M, navMode=3, svid_01=13, svid_02=14, svid_03=21, svid_04=28, svid_05=33, svid_06=34, svid_07=38, svid_08=42, svid_09=, svid_10=, svid_11=, svid_12=, PDOP=0.97, HDOP=0.52, VDOP=0.82, systemId=4)>
2026-07-05 11:09:13,685 - INFO - <NMEA(GNGSA, opMode=M, navMode=3, svid_01=, svid_02=, svid_03=, svid_04=, svid_05=, svid_06=, svid_07=, svid_08=, svid_09=, svid_10=, svid_11=, svid_12=, PDOP=0.97, HDOP=0.52, VDOP=0.82, systemId=5)>
2026-07-05 11:09:13,686 - INFO - <NMEA(GPGSV, numMsg=3, msgNum=1, numSV=12, svid_01=5, elv_01=64.0, az_01=37, cno_01=45, svid_02=11, elv_02=15.0, az_02=86, cno_02=23, svid_03=15, elv_03=40.0, az_03=163, cno_03=40, svid_04=18, elv_04=34.0, az_04=295, cno_04=42, signalID=1)>
2026-07-05 11:09:13,686 - INFO - <NMEA(GPGSV, numMsg=3, msgNum=2, numSV=12, svid_01=20, elv_01=45.0, az_01=118, cno_01=41, svid_02=21, elv_02=29.0, az_02=47, cno_02=44, svid_03=23, elv_03=17.0, az_03=233, cno_03=27, svid_04=25, elv_04=20.0, az_04=218, cno_04=39, signalID=1)>
2026-07-05 11:09:13,687 - INFO - <NMEA(GPGSV, numMsg=3, msgNum=3, numSV=12, svid_01=26, elv_01=10.0, az_01=309, cno_01=26, svid_02=29, elv_02=77.0, az_02=292, cno_02=48, svid_03=46, elv_03=35.0, az_03=225, cno_03=42, svid_04=48, elv_04=38.0, az_04=220, cno_04=40, signalID=1)>
2026-07-05 11:09:13,687 - INFO - <NMEA(GPGSV, numMsg=3, msgNum=1, numSV=10, svid_01=5, elv_01=64.0, az_01=37, cno_01=41, svid_02=11, elv_02=15.0, az_02=86, cno_02=37, svid_03=15, elv_03=40.0, az_03=163, cno_03=29, svid_04=18, elv_04=34.0, az_04=295, cno_04=42, signalID=6)>
2026-07-05 11:09:13,688 - INFO - <NMEA(GPGSV, numMsg=3, msgNum=2, numSV=10, svid_01=20, elv_01=45.0, az_01=118, cno_01=39, svid_02=21, elv_02=29.0, az_02=47, cno_02=43, svid_03=23, elv_03=17.0, az_03=233, cno_03=22, svid_04=25, elv_04=20.0, az_04=218, cno_04=19, signalID=6)>
2026-07-05 11:09:13,688 - INFO - <NMEA(GPGSV, numMsg=3, msgNum=3, numSV=10, svid_01=26, elv_01=10.0, az_01=309, cno_01=24, svid_02=29, elv_02=77.0, az_02=292, cno_02=44, signalID=6)>
2026-07-05 11:09:13,689 - INFO - <NMEA(GPGSV, numMsg=1, msgNum=1, numSV=2, svid_01=12, elv_01=5.0, az_01=187, cno_01=, svid_02=13, elv_02=1.0, az_02=188, cno_02=, signalID=0)>
2026-07-05 11:09:13,689 - INFO - <NMEA(GLGSV, numMsg=3, msgNum=1, numSV=9, svid_01=65, elv_01=68.0, az_01=97, cno_01=45, svid_02=66, elv_02=35.0, az_02=177, cno_02=32, svid_03=72, elv_03=27.0, az_03=33, cno_03=49, svid_04=78, elv_04=7.0, az_04=237, cno_04=19, signalID=1)>
2026-07-05 11:09:13,690 - INFO - <NMEA(GLGSV, numMsg=3, msgNum=2, numSV=9, svid_01=79, elv_01=17.0, az_01=286, cno_01=41, svid_02=80, elv_02=6.0, az_02=337, cno_02=25, svid_03=81, elv_03=27.0, az_03=316, cno_03=31, svid_04=87, elv_04=17.0, az_04=99, cno_04=44, signalID=1)>
2026-07-05 11:09:13,690 - INFO - <NMEA(GLGSV, numMsg=3, msgNum=3, numSV=9, svid_01=88, elv_01=61.0, az_01=26, cno_01=47, signalID=1)>
2026-07-05 11:09:13,690 - INFO - <NMEA(GLGSV, numMsg=2, msgNum=1, numSV=7, svid_01=66, elv_01=35.0, az_01=177, cno_01=23, svid_02=72, elv_02=27.0, az_02=33, cno_02=37, svid_03=78, elv_03=7.0, az_03=237, cno_03=22, svid_04=79, elv_04=17.0, az_04=286, cno_04=31, signalID=3)>
2026-07-05 11:09:13,691 - INFO - <NMEA(GLGSV, numMsg=2, msgNum=2, numSV=7, svid_01=80, elv_01=6.0, az_01=337, cno_01=28, svid_02=81, elv_02=27.0, az_02=316, cno_02=14, svid_03=88, elv_03=61.0, az_03=26, cno_03=40, signalID=3)>
2026-07-05 11:09:13,691 - INFO - <UBX(RXM-RTCM, version=2, crcFailed=0, msgUsed=2, subType=0, refStation=0, msgType=4072)>
2026-07-05 11:09:13,691 - INFO - <NMEA(GAGSV, numMsg=3, msgNum=1, numSV=9, svid_01=4, elv_01=8.0, az_01=173, cno_01=27, svid_02=10, elv_02=46.0, az_02=297, cno_02=45, svid_03=12, elv_03=64.0, az_03=332, cno_03=42, svid_04=14, elv_04=73.0, az_04=268, cno_04=42, signalID=2)>
2026-07-05 11:09:13,692 - INFO - <NMEA(GAGSV, numMsg=3, msgNum=2, numSV=9, svid_01=16, elv_01=40.0, az_01=259, cno_01=46, svid_02=25, elv_02=21.0, az_02=311, cno_02=28, svid_03=28, elv_03=22.0, az_03=154, cno_03=42, svid_04=29, elv_04=28.0, az_04=66, cno_04=46, signalID=2)>
2026-07-05 11:09:13,692 - INFO - <NMEA(GAGSV, numMsg=3, msgNum=3, numSV=9, svid_01=33, elv_01=39.0, az_01=64, cno_01=46, signalID=2)>
2026-07-05 11:09:13,692 - INFO - <NMEA(GAGSV, numMsg=3, msgNum=1, numSV=10, svid_01=4, elv_01=8.0, az_01=173, cno_01=23, svid_02=10, elv_02=46.0, az_02=297, cno_02=46, svid_03=12, elv_03=64.0, az_03=332, cno_03=41, svid_04=14, elv_04=73.0, az_04=268, cno_04=47, signalID=7)>
2026-07-05 11:09:13,693 - INFO - <NMEA(GAGSV, numMsg=3, msgNum=2, numSV=10, svid_01=16, elv_01=40.0, az_01=259, cno_01=37, svid_02=19, elv_02=, az_02=, cno_02=38, svid_03=25, elv_03=21.0, az_03=311, cno_03=22, svid_04=28, elv_04=22.0, az_04=154, cno_04=42, signalID=7)>
2026-07-05 11:09:13,693 - INFO - <NMEA(GAGSV, numMsg=3, msgNum=3, numSV=10, svid_01=29, elv_01=28.0, az_01=66, cno_01=43, svid_02=33, elv_02=39.0, az_02=64, cno_02=46, signalID=7)>
2026-07-05 11:09:13,694 - INFO - <NMEA(GBGSV, numMsg=2, msgNum=1, numSV=8, svid_01=13, elv_01=71.0, az_01=337, cno_01=45, svid_02=14, elv_02=34.0, az_02=48, cno_02=45, svid_03=21, elv_03=12.0, az_03=38, cno_03=44, svid_04=28, elv_04=42.0, az_04=311, cno_04=44, signalID=1)>
2026-07-05 11:09:13,694 - INFO - <NMEA(GBGSV, numMsg=2, msgNum=2, numSV=8, svid_01=33, elv_01=53.0, az_01=181, cno_01=45, svid_02=34, elv_02=18.0, az_02=116, cno_02=44, svid_03=38, elv_03=74.0, az_03=84, cno_03=46, svid_04=42, elv_04=56.0, az_04=64, cno_04=47, signalID=1)>
2026-07-05 11:09:13,695 - INFO - <NMEA(GBGSV, numMsg=2, msgNum=1, numSV=8, svid_01=13, elv_01=71.0, az_01=337, cno_01=9, svid_02=14, elv_02=34.0, az_02=48, cno_02=7, svid_03=21, elv_03=12.0, az_03=38, cno_03=8, svid_04=28, elv_04=42.0, az_04=311, cno_04=8, signalID=B)>
2026-07-05 11:09:13,695 - INFO - <NMEA(GBGSV, numMsg=2, msgNum=2, numSV=8, svid_01=33, elv_01=53.0, az_01=181, cno_01=10, svid_02=34, elv_02=18.0, az_02=116, cno_02=10, svid_03=38, elv_03=74.0, az_03=84, cno_03=8, svid_04=42, elv_04=56.0, az_04=64, cno_04=9, signalID=B)>
2026-07-05 11:09:13,695 - INFO - <NMEA(GQGSV, numMsg=1, msgNum=1, numSV=0, signalID=0)>
2026-07-05 11:09:13,696 - INFO - <NMEA(GNGLL, lat=37.900839, NS=N, lon=-97.6641973333, EW=W, time=16:09:13.600000, status=A, posMode=D)>
2026-07-05 11:09:13,696 - INFO - <UBX(NAV-RELPOSNED, version=1, reserved0=0, refStationID=0, iTOW=16:09:13.600000, relPosN=38.36, relPosE=45.83, relPosD=4.82, relPosLength=59.96, relPosHeading=50.06839, reserved1=0, accN=10.0, accE=10.0, accD=13.1, accLength=10.0, accHeading=0.95871, reserved2=0, gnssFixOK=1, diffSoln=1, relPosValid=1, carrSoln=2, isMoving=1, refPosMiss=0, refObsMiss=0, relPosHeadingValid=1, relPosNormalized=0)>
2026-07-05 11:09:13,697 - INFO - 2026-07-05 11:09:13, current_target: {'timestamp': '2026-05-10 13:40:05', 'lat': 37.9008713333, 'lon': -97.66418, 'speed': 0.004629996, 'y_offset': 0.0, 'x_offset': 0.0, 'z_offset': 0.0, 'heading': 1.76477}, next_target: {'timestamp': '2026-05-10 13:40:06', 'lat': 37.9008713333, 'lon': -97.66418, 'speed': 0.00514444, 'y_offset': 0.0, 'x_offset': 0.0, 'z_offset': 0.0, 'heading': 1.76299}
2026-07-05 11:09:13,697 - INFO - 2026-07-05 11:09:13 [3.4 OBSERVED] current_turn_radius: infm
2026-07-05 11:09:13,697 - INFO - 2026-07-05 11:09:13 [3.4 OBSERVED] turn_direction: LEFT
2026-07-05 11:09:13,697 - INFO - 2026-07-05 11:09:13 [3.4 OBSERVED] estimated left/right wheel speeds: nan, nan m/s
2026-07-05 11:09:13,701 - INFO - 2026-07-05 11:09:13 [STATE] Current state: NAVIGATING_TO_START
2026-07-05 11:09:13,701 - INFO - 2026-07-05 11:09:13 [NAV_TO_START] Phase: DRIVE_TO_START, Dist: 3.899m, Bearing err: -27.1°, Heading diff: 48.3°, Elapsed: 0.5s
2026-07-05 11:09:13,701 - INFO - 2026-07-05 11:09:13 [NAV_TO_START] DRIVE: bearing=23.0°, dist=3.90m, turn=LEFT, radius=3.21m, speed=1.00
2026-07-05 11:09:13,701 - INFO - 2026-07-05 11:09:13 Turn: LEFT, R: 3.21m, v_L: 0.89 m/s, v_R: 1.11 m/s
2026-07-05 11:09:13,701 - INFO - 2026-07-05 11:09:13 left_actuator_position: 654 (counts) from v_L 0.891 m/s
2026-07-05 11:09:13,701 - INFO - 2026-07-05 11:09:13 right_actuator_position: 546 (counts) from v_R 1.109 m/s
2026-07-05 11:09:13,714 - INFO - Sent actuator positions to RoboClaw → M1 (left): 654, M2 (right): 546 (counts)
2026-07-05 11:09:13,714 - INFO - 2026-07-05 11:09:13 APPLY → left_pos: 654, right_pos: 546 (counts), v_L: 0.89 m/s, v_R: 1.11 m/s
2026-07-05 11:09:13,834 - INFO - <UBX(RXM-RTCM, version=2, crcFailed=0, msgUsed=2, subType=0, refStation=0, msgType=1074)>
2026-07-05 11:09:13,837 - INFO - <UBX(RXM-RTCM, version=2, crcFailed=0, msgUsed=2, subType=0, refStation=0, msgType=1084)>
2026-07-05 11:09:13,839 - INFO - <UBX(RXM-RTCM, version=2, crcFailed=0, msgUsed=2, subType=0, refStation=0, msgType=1094)>
2026-07-05 11:09:13,841 - INFO - <UBX(RXM-RTCM, version=2, crcFailed=0, msgUsed=2, subType=0, refStation=0, msgType=1124)>
2026-07-05 11:09:13,841 - INFO - <UBX(RXM-RTCM, version=2, crcFailed=0, msgUsed=2, subType=0, refStation=0, msgType=1230)>
2026-07-05 11:09:13,882 - INFO - <UBX(RXM-RTCM, version=2, crcFailed=0, msgUsed=2, subType=0, refStation=0, msgType=4072)>
2026-07-05 11:09:13,884 - INFO - <UBX(NAV-PVT, iTOW=16:09:13.800000, year=2026, month=7, day=5, hour=16, min=9, second=13, validDate=1, validTime=1, fullyResolved=1, validMag=0, tAcc=22, nano=800171812, fixType=3, gnssFixOk=1, diffSoln=1, psmState=0, headVehValid=0, carrSoln=2, confirmedAvai=1, confirmedDate=1, confirmedTime=1, numSV=31, lon=-97.6641974, lat=37.9008391, height=409182, hMSL=435435, hAcc=811, vAcc=1186, velN=1, velE=-4, velD=9, gSpeed=5, headMot=0.0, sAcc=78, headAcc=180.0, pDOP=0.97, invalidLlh=0, lastCorrectionAge=1, reserved0=860630572, headVeh=0.0, magDec=0.0, magAcc=0.0)>
2026-07-05 11:09:13,885 - INFO - <NMEA(GNRMC, time=16:09:13.800000, status=A, lat=37.900839, NS=N, lon=-97.6641973333, EW=W, spd=0.009, cog=, date=2026-07-05, mv=, mvEW=, posMode=R, navStatus=V)>
2026-07-05 11:09:13,885 - INFO - <NMEA(GNVTG, cogt=, cogtUnit=T, cogm=, cogmUnit=M, sogn=0.009, sognUnit=N, sogk=0.016, sogkUnit=K, posMode=D)>
2026-07-05 11:09:13,886 - INFO - <NMEA(GNGGA, time=16:09:13.800000, lat=37.900839, NS=N, lon=-97.6641973333, EW=W, quality=4, numSV=12, HDOP=0.52, alt=435.4, altUnit=M, sep=-26.3, sepUnit=M, diffAge=0.2, diffStation=0)>
2026-07-05 11:09:13,886 - INFO - <NMEA(GNGSA, opMode=M, navMode=3, svid_01=11, svid_02=15, svid_03=18, svid_04=21, svid_05=29, svid_06=5, svid_07=20, svid_08=25, svid_09=26, svid_10=23, svid_11=, svid_12=, PDOP=0.97, HDOP=0.52, VDOP=0.82, systemId=1)>
2026-07-05 11:09:13,887 - INFO - <NMEA(GNGSA, opMode=M, navMode=3, svid_01=81, svid_02=66, svid_03=79, svid_04=65, svid_05=88, svid_06=87, svid_07=72, svid_08=, svid_09=, svid_10=, svid_11=, svid_12=, PDOP=0.97, HDOP=0.52, VDOP=0.82, systemId=2)>
2026-07-05 11:09:13,887 - INFO - <NMEA(GNGSA, opMode=M, navMode=3, svid_01=12, svid_02=28, svid_03=33, svid_04=29, svid_05=16, svid_06=10, svid_07=, svid_08=, svid_09=, svid_10=, svid_11=, svid_12=, PDOP=0.97, HDOP=0.52, VDOP=0.82, systemId=3)>
2026-07-05 11:09:13,888 - INFO - <NMEA(GNGSA, opMode=M, navMode=3, svid_01=13, svid_02=14, svid_03=21, svid_04=28, svid_05=33, svid_06=34, svid_07=38, svid_08=42, svid_09=, svid_10=, svid_11=, svid_12=, PDOP=0.97, HDOP=0.52, VDOP=0.82, systemId=4)>
2026-07-05 11:09:13,888 - INFO - <NMEA(GNGSA, opMode=M, navMode=3, svid_01=, svid_02=, svid_03=, svid_04=, svid_05=, svid_06=, svid_07=, svid_08=, svid_09=, svid_10=, svid_11=, svid_12=, PDOP=0.97, HDOP=0.52, VDOP=0.82, systemId=5)>
2026-07-05 11:09:13,889 - INFO - <NMEA(GPGSV, numMsg=3, msgNum=1, numSV=12, svid_01=5, elv_01=64.0, az_01=37, cno_01=45, svid_02=11, elv_02=15.0, az_02=86, cno_02=23, svid_03=15, elv_03=40.0, az_03=163, cno_03=40, svid_04=18, elv_04=34.0, az_04=295, cno_04=42, signalID=1)>
2026-07-05 11:09:13,889 - INFO - <NMEA(GPGSV, numMsg=3, msgNum=2, numSV=12, svid_01=20, elv_01=45.0, az_01=118, cno_01=41, svid_02=21, elv_02=29.0, az_02=47, cno_02=44, svid_03=23, elv_03=17.0, az_03=233, cno_03=27, svid_04=25, elv_04=20.0, az_04=218, cno_04=39, signalID=1)>
2026-07-05 11:09:13,890 - INFO - <NMEA(GPGSV, numMsg=3, msgNum=3, numSV=12, svid_01=26, elv_01=10.0, az_01=309, cno_01=26, svid_02=29, elv_02=77.0, az_02=292, cno_02=48, svid_03=46, elv_03=35.0, az_03=225, cno_03=41, svid_04=48, elv_04=38.0, az_04=220, cno_04=40, signalID=1)>
2026-07-05 11:09:13,890 - INFO - <NMEA(GPGSV, numMsg=3, msgNum=1, numSV=10, svid_01=5, elv_01=64.0, az_01=37, cno_01=41, svid_02=11, elv_02=15.0, az_02=86, cno_02=37, svid_03=15, elv_03=40.0, az_03=163, cno_03=29, svid_04=18, elv_04=34.0, az_04=295, cno_04=42, signalID=6)>
2026-07-05 11:09:13,891 - INFO - <NMEA(GPGSV, numMsg=3, msgNum=2, numSV=10, svid_01=20, elv_01=45.0, az_01=118, cno_01=39, svid_02=21, elv_02=29.0, az_02=47, cno_02=43, svid_03=23, elv_03=17.0, az_03=233, cno_03=22, svid_04=25, elv_04=20.0, az_04=218, cno_04=19, signalID=6)>
2026-07-05 11:09:13,891 - INFO - <NMEA(GPGSV, numMsg=3, msgNum=3, numSV=10, svid_01=26, elv_01=10.0, az_01=309, cno_01=24, svid_02=29, elv_02=77.0, az_02=292, cno_02=44, signalID=6)>
2026-07-05 11:09:13,891 - INFO - <NMEA(GPGSV, numMsg=1, msgNum=1, numSV=2, svid_01=12, elv_01=5.0, az_01=187, cno_01=, svid_02=13, elv_02=1.0, az_02=188, cno_02=, signalID=0)>
2026-07-05 11:09:13,892 - INFO - <NMEA(GLGSV, numMsg=3, msgNum=1, numSV=9, svid_01=65, elv_01=68.0, az_01=97, cno_01=45, svid_02=66, elv_02=35.0, az_02=177, cno_02=32, svid_03=72, elv_03=27.0, az_03=33, cno_03=49, svid_04=78, elv_04=7.0, az_04=237, cno_04=19, signalID=1)>
2026-07-05 11:09:13,892 - INFO - <NMEA(GLGSV, numMsg=3, msgNum=2, numSV=9, svid_01=79, elv_01=17.0, az_01=286, cno_01=41, svid_02=80, elv_02=6.0, az_02=337, cno_02=26, svid_03=81, elv_03=27.0, az_03=316, cno_03=31, svid_04=87, elv_04=17.0, az_04=99, cno_04=44, signalID=1)>
2026-07-05 11:09:13,893 - INFO - <NMEA(GLGSV, numMsg=3, msgNum=3, numSV=9, svid_01=88, elv_01=61.0, az_01=26, cno_01=47, signalID=1)>
2026-07-05 11:09:13,893 - INFO - <NMEA(GLGSV, numMsg=2, msgNum=1, numSV=7, svid_01=66, elv_01=35.0, az_01=177, cno_01=23, svid_02=72, elv_02=27.0, az_02=33, cno_02=37, svid_03=78, elv_03=7.0, az_03=237, cno_03=22, svid_04=79, elv_04=17.0, az_04=286, cno_04=31, signalID=3)>
2026-07-05 11:09:13,893 - INFO - <NMEA(GLGSV, numMsg=2, msgNum=2, numSV=7, svid_01=80, elv_01=6.0, az_01=337, cno_01=28, svid_02=81, elv_02=27.0, az_02=316, cno_02=14, svid_03=88, elv_03=61.0, az_03=26, cno_03=40, signalID=3)>
2026-07-05 11:09:13,894 - INFO - <NMEA(GAGSV, numMsg=3, msgNum=1, numSV=9, svid_01=4, elv_01=8.0, az_01=173, cno_01=27, svid_02=10, elv_02=46.0, az_02=297, cno_02=45, svid_03=12, elv_03=64.0, az_03=332, cno_03=43, svid_04=14, elv_04=73.0, az_04=268, cno_04=42, signalID=2)>
2026-07-05 11:09:13,894 - INFO - <NMEA(GAGSV, numMsg=3, msgNum=2, numSV=9, svid_01=16, elv_01=40.0, az_01=259, cno_01=46, svid_02=25, elv_02=21.0, az_02=311, cno_02=28, svid_03=28, elv_03=22.0, az_03=154, cno_03=42, svid_04=29, elv_04=28.0, az_04=66, cno_04=46, signalID=2)>
2026-07-05 11:09:13,895 - INFO - <NMEA(GAGSV, numMsg=3, msgNum=3, numSV=9, svid_01=33, elv_01=39.0, az_01=64, cno_01=46, signalID=2)>
2026-07-05 11:09:13,895 - INFO - <NMEA(GAGSV, numMsg=3, msgNum=1, numSV=10, svid_01=4, elv_01=8.0, az_01=173, cno_01=23, svid_02=10, elv_02=46.0, az_02=297, cno_02=46, svid_03=12, elv_03=64.0, az_03=332, cno_03=41, svid_04=14, elv_04=73.0, az_04=268, cno_04=47, signalID=7)>
2026-07-05 11:09:13,896 - INFO - <NMEA(GAGSV, numMsg=3, msgNum=2, numSV=10, svid_01=16, elv_01=40.0, az_01=259, cno_01=37, svid_02=19, elv_02=, az_02=, cno_02=38, svid_03=25, elv_03=21.0, az_03=311, cno_03=22, svid_04=28, elv_04=22.0, az_04=154, cno_04=42, signalID=7)>
2026-07-05 11:09:13,896 - INFO - <NMEA(GAGSV, numMsg=3, msgNum=3, numSV=10, svid_01=29, elv_01=28.0, az_01=66, cno_01=43, svid_02=33, elv_02=39.0, az_02=64, cno_02=46, signalID=7)>
2026-07-05 11:09:13,896 - INFO - <NMEA(GBGSV, numMsg=2, msgNum=1, numSV=8, svid_01=13, elv_01=71.0, az_01=337, cno_01=45, svid_02=14, elv_02=34.0, az_02=48, cno_02=45, svid_03=21, elv_03=12.0, az_03=38, cno_03=43, svid_04=28, elv_04=42.0, az_04=311, cno_04=44, signalID=1)>
2026-07-05 11:09:13,897 - INFO - <NMEA(GBGSV, numMsg=2, msgNum=2, numSV=8, svid_01=33, elv_01=53.0, az_01=181, cno_01=45, svid_02=34, elv_02=18.0, az_02=116, cno_02=44, svid_03=38, elv_03=74.0, az_03=84, cno_03=46, svid_04=42, elv_04=56.0, az_04=64, cno_04=47, signalID=1)>
2026-07-05 11:09:13,897 - INFO - <NMEA(GBGSV, numMsg=2, msgNum=1, numSV=8, svid_01=13, elv_01=71.0, az_01=337, cno_01=9, svid_02=14, elv_02=34.0, az_02=48, cno_02=7, svid_03=21, elv_03=12.0, az_03=38, cno_03=8, svid_04=28, elv_04=42.0, az_04=311, cno_04=8, signalID=B)>
2026-07-05 11:09:13,898 - INFO - <NMEA(GBGSV, numMsg=2, msgNum=2, numSV=8, svid_01=33, elv_01=53.0, az_01=181, cno_01=9, svid_02=34, elv_02=18.0, az_02=116, cno_02=10, svid_03=38, elv_03=74.0, az_03=84, cno_03=8, svid_04=42, elv_04=56.0, az_04=64, cno_04=9, signalID=B)>
2026-07-05 11:09:13,898 - INFO - <NMEA(GQGSV, numMsg=1, msgNum=1, numSV=0, signalID=0)>
2026-07-05 11:09:13,898 - INFO - <NMEA(GNGLL, lat=37.900839, NS=N, lon=-97.6641973333, EW=W, time=16:09:13.800000, status=A, posMode=D)>
2026-07-05 11:09:13,899 - INFO - <UBX(NAV-RELPOSNED, version=1, reserved0=0, refStationID=0, iTOW=16:09:13.800000, relPosN=38.47, relPosE=45.72, relPosD=5.59, relPosLength=60.02, relPosHeading=49.92322, reserved1=0, accN=10.0, accE=10.0, accD=13.0, accLength=10.0, accHeading=0.95882, reserved2=0, gnssFixOK=1, diffSoln=1, relPosValid=1, carrSoln=2, isMoving=1, refPosMiss=0, refObsMiss=0, relPosHeadingValid=1, relPosNormalized=0)>
2026-07-05 11:09:13,900 - INFO - 2026-07-05 11:09:13, current_target: {'timestamp': '2026-05-10 13:40:05', 'lat': 37.9008713333, 'lon': -97.66418, 'speed': 0.004629996, 'y_offset': 0.0, 'x_offset': 0.0, 'z_offset': 0.0, 'heading': 1.76477}, next_target: {'timestamp': '2026-05-10 13:40:06', 'lat': 37.9008713333, 'lon': -97.66418, 'speed': 0.00514444, 'y_offset': 0.0, 'x_offset': 0.0, 'z_offset': 0.0, 'heading': 1.76299}
2026-07-05 11:09:13,900 - INFO - 2026-07-05 11:09:13 [3.4 OBSERVED] current_turn_radius: infm
2026-07-05 11:09:13,900 - INFO - 2026-07-05 11:09:13 [3.4 OBSERVED] turn_direction: LEFT
2026-07-05 11:09:13,900 - INFO - 2026-07-05 11:09:13 [3.4 OBSERVED] estimated left/right wheel speeds: nan, nan m/s
2026-07-05 11:09:13,903 - INFO - 2026-07-05 11:09:13 [STATE] Current state: NAVIGATING_TO_START
2026-07-05 11:09:13,903 - INFO - 2026-07-05 11:09:13 [NAV_TO_START] Phase: DRIVE_TO_START, Dist: 3.899m, Bearing err: -26.9°, Heading diff: 48.2°, Elapsed: 0.7s
2026-07-05 11:09:13,903 - INFO - 2026-07-05 11:09:13 [NAV_TO_START] DRIVE: bearing=23.0°, dist=3.90m, turn=LEFT, radius=3.23m, speed=1.00
2026-07-05 11:09:13,903 - INFO - 2026-07-05 11:09:13 Turn: LEFT, R: 3.23m, v_L: 0.89 m/s, v_R: 1.11 m/s
2026-07-05 11:09:13,903 - INFO - 2026-07-05 11:09:13 left_actuator_position: 654 (counts) from v_L 0.892 m/s
2026-07-05 11:09:13,903 - INFO - 2026-07-05 11:09:13 right_actuator_position: 546 (counts) from v_R 1.108 m/s
2026-07-05 11:09:13,920 - INFO - Sent actuator positions to RoboClaw → M1 (left): 654, M2 (right): 546 (counts)
2026-07-05 11:09:13,920 - INFO - 2026-07-05 11:09:13 APPLY → left_pos: 654, right_pos: 546 (counts), v_L: 0.89 m/s, v_R: 1.11 m/s
2026-07-05 11:09:14,034 - INFO - <UBX(RXM-RTCM, version=2, crcFailed=0, msgUsed=2, subType=0, refStation=0, msgType=1074)>
2026-07-05 11:09:14,036 - INFO - <UBX(RXM-RTCM, version=2, crcFailed=0, msgUsed=2, subType=0, refStation=0, msgType=1084)>
2026-07-05 11:09:14,039 - INFO - <UBX(RXM-RTCM, version=2, crcFailed=0, msgUsed=2, subType=0, refStation=0, msgType=1094)>
2026-07-05 11:09:14,041 - INFO - <UBX(RXM-RTCM, version=2, crcFailed=0, msgUsed=2, subType=0, refStation=0, msgType=1124)>
2026-07-05 11:09:14,041 - INFO - <UBX(RXM-RTCM, version=2, crcFailed=0, msgUsed=2, subType=0, refStation=0, msgType=1230)>
2026-07-05 11:09:14,095 - INFO - <UBX(NAV-PVT, iTOW=16:09:14, year=2026, month=7, day=5, hour=16, min=9, second=14, validDate=1, validTime=1, fullyResolved=1, validMag=0, tAcc=22, nano=171767, fixType=3, gnssFixOk=1, diffSoln=1, psmState=0, headVehValid=0, carrSoln=2, confirmedAvai=1, confirmedDate=1, confirmedTime=1, numSV=31, lon=-97.6641974, lat=37.900839, height=409151, hMSL=435404, hAcc=794, vAcc=1161, velN=1, velE=1, velD=8, gSpeed=2, headMot=0.0, sAcc=73, headAcc=180.0, pDOP=0.97, invalidLlh=0, lastCorrectionAge=1, reserved0=860630572, headVeh=0.0, magDec=0.0, magAcc=0.0)>
2026-07-05 11:09:14,097 - INFO - <NMEA(GNRMC, time=16:09:14, status=A, lat=37.900839, NS=N, lon=-97.6641975, EW=W, spd=0.003, cog=, date=2026-07-05, mv=, mvEW=, posMode=R, navStatus=V)>
2026-07-05 11:09:14,097 - INFO - <NMEA(GNVTG, cogt=, cogtUnit=T, cogm=, cogmUnit=M, sogn=0.003, sognUnit=N, sogk=0.006, sogkUnit=K, posMode=D)>
2026-07-05 11:09:14,098 - INFO - <NMEA(GNGGA, time=16:09:14, lat=37.900839, NS=N, lon=-97.6641975, EW=W, quality=4, numSV=12, HDOP=0.52, alt=435.4, altUnit=M, sep=-26.3, sepUnit=M, diffAge=0.2, diffStation=0)>
2026-07-05 11:09:14,098 - INFO - <NMEA(GNGSA, opMode=M, navMode=3, svid_01=11, svid_02=15, svid_03=18, svid_04=21, svid_05=29, svid_06=5, svid_07=20, svid_08=25, svid_09=26, svid_10=23, svid_11=, svid_12=, PDOP=0.97, HDOP=0.52, VDOP=0.82, systemId=1)>
2026-07-05 11:09:14,099 - INFO - <NMEA(GNGSA, opMode=M, navMode=3, svid_01=81, svid_02=66, svid_03=79, svid_04=65, svid_05=88, svid_06=87, svid_07=72, svid_08=, svid_09=, svid_10=, svid_11=, svid_12=, PDOP=0.97, HDOP=0.52, VDOP=0.82, systemId=2)>
2026-07-05 11:09:14,099 - INFO - <NMEA(GNGSA, opMode=M, navMode=3, svid_01=12, svid_02=28, svid_03=33, svid_04=29, svid_05=16, svid_06=10, svid_07=, svid_08=, svid_09=, svid_10=, svid_11=, svid_12=, PDOP=0.97, HDOP=0.52, VDOP=0.82, systemId=3)>
2026-07-05 11:09:14,099 - INFO - <NMEA(GNGSA, opMode=M, navMode=3, svid_01=13, svid_02=14, svid_03=21, svid_04=28, svid_05=33, svid_06=34, svid_07=38, svid_08=42, svid_09=, svid_10=, svid_11=, svid_12=, PDOP=0.97, HDOP=0.52, VDOP=0.82, systemId=4)>
2026-07-05 11:09:14,100 - INFO - <NMEA(GNGSA, opMode=M, navMode=3, svid_01=, svid_02=, svid_03=, svid_04=, svid_05=, svid_06=, svid_07=, svid_08=, svid_09=, svid_10=, svid_11=, svid_12=, PDOP=0.97, HDOP=0.52, VDOP=0.82, systemId=5)>
2026-07-05 11:09:14,100 - INFO - <NMEA(GPGSV, numMsg=3, msgNum=1, numSV=12, svid_01=5, elv_01=64.0, az_01=37, cno_01=45, svid_02=11, elv_02=15.0, az_02=86, cno_02=24, svid_03=15, elv_03=40.0, az_03=163, cno_03=40, svid_04=18, elv_04=34.0, az_04=295, cno_04=42, signalID=1)>
2026-07-05 11:09:14,101 - INFO - <NMEA(GPGSV, numMsg=3, msgNum=2, numSV=12, svid_01=20, elv_01=45.0, az_01=118, cno_01=41, svid_02=21, elv_02=29.0, az_02=47, cno_02=44, svid_03=23, elv_03=17.0, az_03=233, cno_03=28, svid_04=25, elv_04=20.0, az_04=218, cno_04=39, signalID=1)>
2026-07-05 11:09:14,101 - INFO - <NMEA(GPGSV, numMsg=3, msgNum=3, numSV=12, svid_01=26, elv_01=10.0, az_01=309, cno_01=26, svid_02=29, elv_02=77.0, az_02=292, cno_02=48, svid_03=46, elv_03=35.0, az_03=225, cno_03=41, svid_04=48, elv_04=38.0, az_04=220, cno_04=40, signalID=1)>
2026-07-05 11:09:14,102 - INFO - <NMEA(GPGSV, numMsg=3, msgNum=1, numSV=10, svid_01=5, elv_01=64.0, az_01=37, cno_01=41, svid_02=11, elv_02=15.0, az_02=86, cno_02=37, svid_03=15, elv_03=40.0, az_03=163, cno_03=29, svid_04=18, elv_04=34.0, az_04=295, cno_04=41, signalID=6)>
2026-07-05 11:09:14,102 - INFO - <NMEA(GPGSV, numMsg=3, msgNum=2, numSV=10, svid_01=20, elv_01=45.0, az_01=118, cno_01=39, svid_02=21, elv_02=29.0, az_02=47, cno_02=43, svid_03=23, elv_03=17.0, az_03=233, cno_03=21, svid_04=25, elv_04=20.0, az_04=218, cno_04=19, signalID=6)>
2026-07-05 11:09:14,103 - INFO - <NMEA(GPGSV, numMsg=3, msgNum=3, numSV=10, svid_01=26, elv_01=10.0, az_01=309, cno_01=25, svid_02=29, elv_02=77.0, az_02=292, cno_02=44, signalID=6)>
2026-07-05 11:09:14,103 - INFO - <NMEA(GPGSV, numMsg=1, msgNum=1, numSV=2, svid_01=12, elv_01=5.0, az_01=187, cno_01=, svid_02=13, elv_02=1.0, az_02=188, cno_02=, signalID=0)>
2026-07-05 11:09:14,103 - INFO - <NMEA(GLGSV, numMsg=3, msgNum=1, numSV=9, svid_01=65, elv_01=68.0, az_01=97, cno_01=45, svid_02=66, elv_02=35.0, az_02=177, cno_02=33, svid_03=72, elv_03=27.0, az_03=33, cno_03=49, svid_04=78, elv_04=7.0, az_04=237, cno_04=19, signalID=1)>
2026-07-05 11:09:14,104 - INFO - <NMEA(GLGSV, numMsg=3, msgNum=2, numSV=9, svid_01=79, elv_01=17.0, az_01=286, cno_01=40, svid_02=80, elv_02=6.0, az_02=337, cno_02=26, svid_03=81, elv_03=27.0, az_03=316, cno_03=31, svid_04=87, elv_04=17.0, az_04=99, cno_04=44, signalID=1)>
2026-07-05 11:09:14,104 - INFO - <NMEA(GLGSV, numMsg=3, msgNum=3, numSV=9, svid_01=88, elv_01=61.0, az_01=26, cno_01=47, signalID=1)>
2026-07-05 11:09:14,105 - INFO - <NMEA(GLGSV, numMsg=2, msgNum=1, numSV=7, svid_01=66, elv_01=35.0, az_01=177, cno_01=23, svid_02=72, elv_02=27.0, az_02=33, cno_02=38, svid_03=78, elv_03=7.0, az_03=237, cno_03=22, svid_04=79, elv_04=17.0, az_04=286, cno_04=31, signalID=3)>
2026-07-05 11:09:14,105 - INFO - <NMEA(GLGSV, numMsg=2, msgNum=2, numSV=7, svid_01=80, elv_01=6.0, az_01=337, cno_01=28, svid_02=81, elv_02=27.0, az_02=316, cno_02=14, svid_03=88, elv_03=61.0, az_03=26, cno_03=40, signalID=3)>
2026-07-05 11:09:14,105 - INFO - <NMEA(GAGSV, numMsg=3, msgNum=1, numSV=9, svid_01=4, elv_01=8.0, az_01=173, cno_01=27, svid_02=10, elv_02=46.0, az_02=297, cno_02=45, svid_03=12, elv_03=64.0, az_03=332, cno_03=43, svid_04=14, elv_04=73.0, az_04=268, cno_04=42, signalID=2)>
2026-07-05 11:09:14,106 - INFO - <NMEA(GAGSV, numMsg=3, msgNum=2, numSV=9, svid_01=16, elv_01=40.0, az_01=259, cno_01=46, svid_02=25, elv_02=21.0, az_02=311, cno_02=27, svid_03=28, elv_03=22.0, az_03=154, cno_03=42, svid_04=29, elv_04=28.0, az_04=66, cno_04=46, signalID=2)>
2026-07-05 11:09:14,106 - INFO - <NMEA(GAGSV, numMsg=3, msgNum=3, numSV=9, svid_01=33, elv_01=39.0, az_01=64, cno_01=46, signalID=2)>
2026-07-05 11:09:14,107 - INFO - <NMEA(GAGSV, numMsg=3, msgNum=1, numSV=10, svid_01=4, elv_01=8.0, az_01=173, cno_01=24, svid_02=10, elv_02=46.0, az_02=297, cno_02=46, svid_03=12, elv_03=64.0, az_03=332, cno_03=41, svid_04=14, elv_04=73.0, az_04=268, cno_04=47, signalID=7)>
2026-07-05 11:09:14,107 - INFO - <NMEA(GAGSV, numMsg=3, msgNum=2, numSV=10, svid_01=16, elv_01=40.0, az_01=259, cno_01=37, svid_02=19, elv_02=, az_02=, cno_02=38, svid_03=25, elv_03=21.0, az_03=311, cno_03=22, svid_04=28, elv_04=22.0, az_04=154, cno_04=42, signalID=7)>
2026-07-05 11:09:14,107 - INFO - <NMEA(GAGSV, numMsg=3, msgNum=3, numSV=10, svid_01=29, elv_01=28.0, az_01=66, cno_01=43, svid_02=33, elv_02=39.0, az_02=64, cno_02=46, signalID=7)>
2026-07-05 11:09:14,108 - INFO - <NMEA(GBGSV, numMsg=2, msgNum=1, numSV=8, svid_01=13, elv_01=71.0, az_01=337, cno_01=45, svid_02=14, elv_02=34.0, az_02=48, cno_02=45, svid_03=21, elv_03=12.0, az_03=38, cno_03=43, svid_04=28, elv_04=42.0, az_04=311, cno_04=44, signalID=1)>
2026-07-05 11:09:14,108 - INFO - <NMEA(GBGSV, numMsg=2, msgNum=2, numSV=8, svid_01=33, elv_01=53.0, az_01=181, cno_01=45, svid_02=34, elv_02=18.0, az_02=116, cno_02=44, svid_03=38, elv_03=74.0, az_03=84, cno_03=46, svid_04=42, elv_04=56.0, az_04=64, cno_04=46, signalID=1)>
2026-07-05 11:09:14,109 - INFO - <NMEA(GBGSV, numMsg=2, msgNum=1, numSV=8, svid_01=13, elv_01=71.0, az_01=337, cno_01=8, svid_02=14, elv_02=34.0, az_02=48, cno_02=7, svid_03=21, elv_03=12.0, az_03=38, cno_03=8, svid_04=28, elv_04=42.0, az_04=311, cno_04=8, signalID=B)>
2026-07-05 11:09:14,109 - INFO - <NMEA(GBGSV, numMsg=2, msgNum=2, numSV=8, svid_01=33, elv_01=53.0, az_01=181, cno_01=9, svid_02=34, elv_02=18.0, az_02=116, cno_02=10, svid_03=38, elv_03=74.0, az_03=84, cno_03=8, svid_04=42, elv_04=56.0, az_04=64, cno_04=9, signalID=B)>
2026-07-05 11:09:14,109 - INFO - <NMEA(GQGSV, numMsg=1, msgNum=1, numSV=0, signalID=0)>
2026-07-05 11:09:14,110 - INFO - <NMEA(GNGLL, lat=37.900839, NS=N, lon=-97.6641975, EW=W, time=16:09:14, status=A, posMode=D)>
2026-07-05 11:09:14,110 - INFO - <UBX(NAV-RELPOSNED, version=1, reserved0=0, refStationID=0, iTOW=16:09:14, relPosN=38.32, relPosE=45.61, relPosD=5.51, relPosLength=59.82, relPosHeading=49.96495, reserved1=0, accN=10.0, accE=10.0, accD=12.6, accLength=10.0, accHeading=0.9619, reserved2=0, gnssFixOK=1, diffSoln=1, relPosValid=1, carrSoln=2, isMoving=1, refPosMiss=0, refObsMiss=0, relPosHeadingValid=1, relPosNormalized=0)>
2026-07-05 11:09:14,111 - INFO - 2026-07-05 11:09:14, current_target: {'timestamp': '2026-05-10 13:40:05', 'lat': 37.9008713333, 'lon': -97.66418, 'speed': 0.004629996, 'y_offset': 0.0, 'x_offset': 0.0, 'z_offset': 0.0, 'heading': 1.76477}, next_target: {'timestamp': '2026-05-10 13:40:06', 'lat': 37.9008713333, 'lon': -97.66418, 'speed': 0.00514444, 'y_offset': 0.0, 'x_offset': 0.0, 'z_offset': 0.0, 'heading': 1.76299}
2026-07-05 11:09:14,111 - INFO - 2026-07-05 11:09:14 [3.4 OBSERVED] current_turn_radius: infm
2026-07-05 11:09:14,111 - INFO - 2026-07-05 11:09:14 [3.4 OBSERVED] turn_direction: RIGHT
2026-07-05 11:09:14,111 - INFO - 2026-07-05 11:09:14 [3.4 OBSERVED] estimated left/right wheel speeds: nan, nan m/s
2026-07-05 11:09:14,114 - INFO - 2026-07-05 11:09:14 [STATE] Current state: NAVIGATING_TO_START
2026-07-05 11:09:14,114 - INFO - 2026-07-05 11:09:14 [NAV_TO_START] Phase: DRIVE_TO_START, Dist: 3.905m, Bearing err: -26.8°, Heading diff: 48.2°, Elapsed: 0.9s
2026-07-05 11:09:14,114 - INFO - 2026-07-05 11:09:14 [NAV_TO_START] DRIVE: bearing=23.2°, dist=3.90m, turn=LEFT, radius=3.25m, speed=1.00
2026-07-05 11:09:14,114 - INFO - 2026-07-05 11:09:14 Turn: LEFT, R: 3.25m, v_L: 0.89 m/s, v_R: 1.11 m/s
2026-07-05 11:09:14,114 - INFO - 2026-07-05 11:09:14 left_actuator_position: 654 (counts) from v_L 0.892 m/s
2026-07-05 11:09:14,114 - INFO - 2026-07-05 11:09:14 right_actuator_position: 546 (counts) from v_R 1.108 m/s
2026-07-05 11:09:14,130 - INFO - Sent actuator positions to RoboClaw → M1 (left): 654, M2 (right): 546 (counts)
2026-07-05 11:09:14,130 - INFO - 2026-07-05 11:09:14 APPLY → left_pos: 654, right_pos: 546 (counts), v_L: 0.89 m/s, v_R: 1.11 m/s
2026-07-05 11:09:14,130 - INFO - <UBX(RXM-RTCM, version=2, crcFailed=0, msgUsed=2, subType=0, refStation=0, msgType=4072)>
2026-07-05 11:09:14,234 - INFO - <UBX(RXM-RTCM, version=2, crcFailed=0, msgUsed=2, subType=0, refStation=0, msgType=1074)>
2026-07-05 11:09:14,237 - INFO - <UBX(RXM-RTCM, version=2, crcFailed=0, msgUsed=2, subType=0, refStation=0, msgType=1084)>
2026-07-05 11:09:14,239 - INFO - <UBX(RXM-RTCM, version=2, crcFailed=0, msgUsed=2, subType=0, refStation=0, msgType=1094)>
2026-07-05 11:09:14,241 - INFO - <UBX(RXM-RTCM, version=2, crcFailed=0, msgUsed=2, subType=0, refStation=0, msgType=1124)>
2026-07-05 11:09:14,241 - INFO - <UBX(RXM-RTCM, version=2, crcFailed=0, msgUsed=2, subType=0, refStation=0, msgType=1230)>
2026-07-05 11:09:14,279 - INFO - <UBX(RXM-RTCM, version=2, crcFailed=0, msgUsed=2, subType=0, refStation=0, msgType=4072)>
2026-07-05 11:09:14,314 - INFO - <UBX(NAV-PVT, iTOW=16:09:14.200000, year=2026, month=7, day=5, hour=16, min=9, second=14, validDate=1, validTime=1, fullyResolved=1, validMag=0, tAcc=22, nano=200171722, fixType=3, gnssFixOk=1, diffSoln=1, psmState=0, headVehValid=0, carrSoln=2, confirmedAvai=1, confirmedDate=1, confirmedTime=1, numSV=31, lon=-97.6641975, lat=37.900839, height=409136, hMSL=435389, hAcc=771, vAcc=1128, velN=-3, velE=-12, velD=26, gSpeed=12, headMot=0.0, sAcc=83, headAcc=180.0, pDOP=0.97, invalidLlh=0, lastCorrectionAge=1, reserved0=860630572, headVeh=0.0, magDec=0.0, magAcc=0.0)>
2026-07-05 11:09:14,315 - INFO - <NMEA(GNRMC, time=16:09:14.200000, status=A, lat=37.900839, NS=N, lon=-97.6641975, EW=W, spd=0.023, cog=, date=2026-07-05, mv=, mvEW=, posMode=R, navStatus=V)>
2026-07-05 11:09:14,315 - INFO - <NMEA(GNVTG, cogt=, cogtUnit=T, cogm=, cogmUnit=M, sogn=0.023, sognUnit=N, sogk=0.043, sogkUnit=K, posMode=D)>
2026-07-05 11:09:14,317 - INFO - <NMEA(GNGGA, time=16:09:14.200000, lat=37.900839, NS=N, lon=-97.6641975, EW=W, quality=4, numSV=12, HDOP=0.52, alt=435.4, altUnit=M, sep=-26.3, sepUnit=M, diffAge=0.2, diffStation=0)>
2026-07-05 11:09:14,317 - INFO - <NMEA(GNGSA, opMode=M, navMode=3, svid_01=11, svid_02=15, svid_03=18, svid_04=21, svid_05=29, svid_06=5, svid_07=20, svid_08=25, svid_09=26, svid_10=23, svid_11=, svid_12=, PDOP=0.97, HDOP=0.52, VDOP=0.82, systemId=1)>
2026-07-05 11:09:14,317 - INFO - <NMEA(GNGSA, opMode=M, navMode=3, svid_01=81, svid_02=66, svid_03=79, svid_04=65, svid_05=88, svid_06=87, svid_07=72, svid_08=, svid_09=, svid_10=, svid_11=, svid_12=, PDOP=0.97, HDOP=0.52, VDOP=0.82, systemId=2)>
2026-07-05 11:09:14,318 - INFO - <NMEA(GNGSA, opMode=M, navMode=3, svid_01=12, svid_02=28, svid_03=33, svid_04=29, svid_05=16, svid_06=10, svid_07=, svid_08=, svid_09=, svid_10=, svid_11=, svid_12=, PDOP=0.97, HDOP=0.52, VDOP=0.82, systemId=3)>
2026-07-05 11:09:14,318 - INFO - <NMEA(GNGSA, opMode=M, navMode=3, svid_01=13, svid_02=14, svid_03=21, svid_04=28, svid_05=33, svid_06=34, svid_07=38, svid_08=42, svid_09=, svid_10=, svid_11=, svid_12=, PDOP=0.97, HDOP=0.52, VDOP=0.82, systemId=4)>
2026-07-05 11:09:14,319 - INFO - <NMEA(GNGSA, opMode=M, navMode=3, svid_01=, svid_02=, svid_03=, svid_04=, svid_05=, svid_06=, svid_07=, svid_08=, svid_09=, svid_10=, svid_11=, svid_12=, PDOP=0.97, HDOP=0.52, VDOP=0.82, systemId=5)>
2026-07-05 11:09:14,319 - INFO - <NMEA(GPGSV, numMsg=3, msgNum=1, numSV=12, svid_01=5, elv_01=64.0, az_01=37, cno_01=45, svid_02=11, elv_02=15.0, az_02=86, cno_02=25, svid_03=15, elv_03=40.0, az_03=163, cno_03=40, svid_04=18, elv_04=34.0, az_04=295, cno_04=42, signalID=1)>
2026-07-05 11:09:14,320 - INFO - <NMEA(GPGSV, numMsg=3, msgNum=2, numSV=12, svid_01=20, elv_01=45.0, az_01=118, cno_01=41, svid_02=21, elv_02=29.0, az_02=47, cno_02=45, svid_03=23, elv_03=17.0, az_03=233, cno_03=28, svid_04=25, elv_04=20.0, az_04=218, cno_04=39, signalID=1)>
2026-07-05 11:09:14,320 - INFO - <NMEA(GPGSV, numMsg=3, msgNum=3, numSV=12, svid_01=26, elv_01=10.0, az_01=309, cno_01=26, svid_02=29, elv_02=77.0, az_02=292, cno_02=48, svid_03=46, elv_03=35.0, az_03=225, cno_03=41, svid_04=48, elv_04=38.0, az_04=220, cno_04=40, signalID=1)>
2026-07-05 11:09:14,321 - INFO - <NMEA(GPGSV, numMsg=3, msgNum=1, numSV=10, svid_01=5, elv_01=64.0, az_01=37, cno_01=41, svid_02=11, elv_02=15.0, az_02=86, cno_02=37, svid_03=15, elv_03=40.0, az_03=163, cno_03=29, svid_04=18, elv_04=34.0, az_04=295, cno_04=41, signalID=6)>
2026-07-05 11:09:14,321 - INFO - <NMEA(GPGSV, numMsg=3, msgNum=2, numSV=10, svid_01=20, elv_01=45.0, az_01=118, cno_01=39, svid_02=21, elv_02=29.0, az_02=47, cno_02=43, svid_03=23, elv_03=17.0, az_03=233, cno_03=21, svid_04=25, elv_04=20.0, az_04=218, cno_04=18, signalID=6)>
2026-07-05 11:09:14,322 - INFO - <NMEA(GPGSV, numMsg=3, msgNum=3, numSV=10, svid_01=26, elv_01=10.0, az_01=309, cno_01=25, svid_02=29, elv_02=77.0, az_02=292, cno_02=44, signalID=6)>
2026-07-05 11:09:14,322 - INFO - <NMEA(GPGSV, numMsg=1, msgNum=1, numSV=2, svid_01=12, elv_01=5.0, az_01=187, cno_01=, svid_02=13, elv_02=1.0, az_02=188, cno_02=, signalID=0)>
2026-07-05 11:09:14,322 - INFO - <NMEA(GLGSV, numMsg=3, msgNum=1, numSV=9, svid_01=65, elv_01=68.0, az_01=97, cno_01=45, svid_02=66, elv_02=35.0, az_02=177, cno_02=33, svid_03=72, elv_03=27.0, az_03=33, cno_03=49, svid_04=78, elv_04=7.0, az_04=237, cno_04=19, signalID=1)>
2026-07-05 11:09:14,323 - INFO - <NMEA(GLGSV, numMsg=3, msgNum=2, numSV=9, svid_01=79, elv_01=17.0, az_01=286, cno_01=40, svid_02=80, elv_02=6.0, az_02=336, cno_02=27, svid_03=81, elv_03=27.0, az_03=316, cno_03=31, svid_04=87, elv_04=17.0, az_04=99, cno_04=44, signalID=1)>
2026-07-05 11:09:14,323 - INFO - <NMEA(GLGSV, numMsg=3, msgNum=3, numSV=9, svid_01=88, elv_01=61.0, az_01=26, cno_01=47, signalID=1)>
2026-07-05 11:09:14,324 - INFO - <NMEA(GLGSV, numMsg=2, msgNum=1, numSV=7, svid_01=66, elv_01=35.0, az_01=177, cno_01=23, svid_02=72, elv_02=27.0, az_02=33, cno_02=38, svid_03=78, elv_03=7.0, az_03=237, cno_03=22, svid_04=79, elv_04=17.0, az_04=286, cno_04=31, signalID=3)>
2026-07-05 11:09:14,324 - INFO - <NMEA(GLGSV, numMsg=2, msgNum=2, numSV=7, svid_01=80, elv_01=6.0, az_01=336, cno_01=28, svid_02=81, elv_02=27.0, az_02=316, cno_02=13, svid_03=88, elv_03=61.0, az_03=26, cno_03=40, signalID=3)>
2026-07-05 11:09:14,324 - INFO - <NMEA(GAGSV, numMsg=3, msgNum=1, numSV=9, svid_01=4, elv_01=8.0, az_01=173, cno_01=27, svid_02=10, elv_02=46.0, az_02=297, cno_02=45, svid_03=12, elv_03=64.0, az_03=332, cno_03=42, svid_04=14, elv_04=73.0, az_04=268, cno_04=42, signalID=2)>
2026-07-05 11:09:14,325 - INFO - <NMEA(GAGSV, numMsg=3, msgNum=2, numSV=9, svid_01=16, elv_01=40.0, az_01=259, cno_01=46, svid_02=25, elv_02=21.0, az_02=311, cno_02=27, svid_03=28, elv_03=22.0, az_03=154, cno_03=42, svid_04=29, elv_04=28.0, az_04=66, cno_04=46, signalID=2)>
2026-07-05 11:09:14,325 - INFO - <NMEA(GAGSV, numMsg=3, msgNum=3, numSV=9, svid_01=33, elv_01=39.0, az_01=64, cno_01=46, signalID=2)>
2026-07-05 11:09:14,326 - INFO - <NMEA(GAGSV, numMsg=3, msgNum=1, numSV=10, svid_01=4, elv_01=8.0, az_01=173, cno_01=24, svid_02=10, elv_02=46.0, az_02=297, cno_02=46, svid_03=12, elv_03=64.0, az_03=332, cno_03=41, svid_04=14, elv_04=73.0, az_04=268, cno_04=47, signalID=7)>
2026-07-05 11:09:14,326 - INFO - <NMEA(GAGSV, numMsg=3, msgNum=2, numSV=10, svid_01=16, elv_01=40.0, az_01=259, cno_01=37, svid_02=19, elv_02=, az_02=, cno_02=38, svid_03=25, elv_03=21.0, az_03=311, cno_03=22, svid_04=28, elv_04=22.0, az_04=154, cno_04=42, signalID=7)>
2026-07-05 11:09:14,326 - INFO - <NMEA(GAGSV, numMsg=3, msgNum=3, numSV=10, svid_01=29, elv_01=28.0, az_01=66, cno_01=42, svid_02=33, elv_02=39.0, az_02=64, cno_02=46, signalID=7)>
2026-07-05 11:09:14,327 - INFO - <NMEA(GBGSV, numMsg=2, msgNum=1, numSV=8, svid_01=13, elv_01=71.0, az_01=337, cno_01=45, svid_02=14, elv_02=34.0, az_02=48, cno_02=45, svid_03=21, elv_03=12.0, az_03=38, cno_03=43, svid_04=28, elv_04=42.0, az_04=311, cno_04=44, signalID=1)>
2026-07-05 11:09:14,327 - INFO - <NMEA(GBGSV, numMsg=2, msgNum=2, numSV=8, svid_01=33, elv_01=53.0, az_01=181, cno_01=45, svid_02=34, elv_02=18.0, az_02=116, cno_02=43, svid_03=38, elv_03=74.0, az_03=84, cno_03=46, svid_04=42, elv_04=56.0, az_04=64, cno_04=46, signalID=1)>
2026-07-05 11:09:14,328 - INFO - <NMEA(GBGSV, numMsg=2, msgNum=1, numSV=8, svid_01=13, elv_01=71.0, az_01=337, cno_01=8, svid_02=14, elv_02=34.0, az_02=48, cno_02=7, svid_03=21, elv_03=12.0, az_03=38, cno_03=8, svid_04=28, elv_04=42.0, az_04=311, cno_04=8, signalID=B)>
2026-07-05 11:09:14,328 - INFO - <NMEA(GBGSV, numMsg=2, msgNum=2, numSV=8, svid_01=33, elv_01=53.0, az_01=181, cno_01=9, svid_02=34, elv_02=18.0, az_02=116, cno_02=10, svid_03=38, elv_03=74.0, az_03=84, cno_03=8, svid_04=42, elv_04=56.0, az_04=64, cno_04=8, signalID=B)>
2026-07-05 11:09:14,328 - INFO - <NMEA(GQGSV, numMsg=1, msgNum=1, numSV=0, signalID=0)>
2026-07-05 11:09:14,329 - INFO - <NMEA(GNGLL, lat=37.900839, NS=N, lon=-97.6641975, EW=W, time=16:09:14.200000, status=A, posMode=D)>
2026-07-05 11:09:14,329 - INFO - <UBX(NAV-RELPOSNED, version=1, reserved0=0, refStationID=0, iTOW=16:09:14.200000, relPosN=38.42, relPosE=45.68, relPosD=5.39, relPosLength=59.93, relPosHeading=49.933, reserved1=0, accN=10.0, accE=10.0, accD=12.4, accLength=10.0, accHeading=0.95987, reserved2=0, gnssFixOK=1, diffSoln=1, relPosValid=1, carrSoln=2, isMoving=1, refPosMiss=0, refObsMiss=0, relPosHeadingValid=1, relPosNormalized=0)>
2026-07-05 11:09:14,330 - INFO - 2026-07-05 11:09:14, current_target: {'timestamp': '2026-05-10 13:40:05', 'lat': 37.9008713333, 'lon': -97.66418, 'speed': 0.004629996, 'y_offset': 0.0, 'x_offset': 0.0, 'z_offset': 0.0, 'heading': 1.76477}, next_target: {'timestamp': '2026-05-10 13:40:06', 'lat': 37.9008713333, 'lon': -97.66418, 'speed': 0.00514444, 'y_offset': 0.0, 'x_offset': 0.0, 'z_offset': 0.0, 'heading': 1.76299}
2026-07-05 11:09:14,330 - INFO - 2026-07-05 11:09:14 [3.4 OBSERVED] current_turn_radius: infm
2026-07-05 11:09:14,330 - INFO - 2026-07-05 11:09:14 [3.4 OBSERVED] turn_direction: LEFT
2026-07-05 11:09:14,330 - INFO - 2026-07-05 11:09:14 [3.4 OBSERVED] estimated left/right wheel speeds: nan, nan m/s
2026-07-05 11:09:14,333 - INFO - 2026-07-05 11:09:14 [STATE] Current state: NAVIGATING_TO_START
2026-07-05 11:09:14,333 - INFO - 2026-07-05 11:09:14 [NAV_TO_START] Phase: DRIVE_TO_START, Dist: 3.905m, Bearing err: -26.7°, Heading diff: 48.2°, Elapsed: 1.1s
2026-07-05 11:09:14,333 - INFO - 2026-07-05 11:09:14 [NAV_TO_START] DRIVE: bearing=23.2°, dist=3.90m, turn=LEFT, radius=3.26m, speed=1.00
2026-07-05 11:09:14,333 - INFO - 2026-07-05 11:09:14 Turn: LEFT, R: 3.26m, v_L: 0.89 m/s, v_R: 1.11 m/s
2026-07-05 11:09:14,333 - INFO - 2026-07-05 11:09:14 left_actuator_position: 654 (counts) from v_L 0.893 m/s
2026-07-05 11:09:14,333 - INFO - 2026-07-05 11:09:14 right_actuator_position: 546 (counts) from v_R 1.107 m/s
2026-07-05 11:09:14,347 - INFO - Sent actuator positions to RoboClaw → M1 (left): 654, M2 (right): 546 (counts)
2026-07-05 11:09:14,347 - INFO - 2026-07-05 11:09:14 APPLY → left_pos: 654, right_pos: 546 (counts), v_L: 0.89 m/s, v_R: 1.11 m/s
2026-07-05 11:09:14,434 - INFO - <UBX(RXM-RTCM, version=2, crcFailed=0, msgUsed=2, subType=0, refStation=0, msgType=1074)>
2026-07-05 11:09:14,436 - INFO - <UBX(RXM-RTCM, version=2, crcFailed=0, msgUsed=2, subType=0, refStation=0, msgType=1084)>
2026-07-05 11:09:14,439 - INFO - <UBX(RXM-RTCM, version=2, crcFailed=0, msgUsed=2, subType=0, refStation=0, msgType=1094)>
2026-07-05 11:09:14,441 - INFO - <UBX(RXM-RTCM, version=2, crcFailed=0, msgUsed=2, subType=0, refStation=0, msgType=1124)>
2026-07-05 11:09:14,441 - INFO - <UBX(RXM-RTCM, version=2, crcFailed=0, msgUsed=2, subType=0, refStation=0, msgType=1230)>
2026-07-05 11:09:14,481 - INFO - <UBX(NAV-PVT, iTOW=16:09:14.400000, year=2026, month=7, day=5, hour=16, min=9, second=14, validDate=1, validTime=1, fullyResolved=1, validMag=0, tAcc=22, nano=400171678, fixType=3, gnssFixOk=1, diffSoln=1, psmState=0, headVehValid=0, carrSoln=2, confirmedAvai=1, confirmedDate=1, confirmedTime=1, numSV=31, lon=-97.6641975, lat=37.900839, height=409115, hMSL=435368, hAcc=683, vAcc=998, velN=-5, velE=-1, velD=14, gSpeed=5, headMot=0.0, sAcc=79, headAcc=180.0, pDOP=0.97, invalidLlh=0, lastCorrectionAge=1, reserved0=860630572, headVeh=0.0, magDec=0.0, magAcc=0.0)>
2026-07-05 11:09:14,482 - INFO - <NMEA(GNRMC, time=16:09:14.400000, status=A, lat=37.900839, NS=N, lon=-97.6641975, EW=W, spd=0.01, cog=, date=2026-07-05, mv=, mvEW=, posMode=R, navStatus=V)>
2026-07-05 11:09:14,482 - INFO - <NMEA(GNVTG, cogt=, cogtUnit=T, cogm=, cogmUnit=M, sogn=0.01, sognUnit=N, sogk=0.019, sogkUnit=K, posMode=D)>
2026-07-05 11:09:14,483 - INFO - <NMEA(GNGGA, time=16:09:14.400000, lat=37.900839, NS=N, lon=-97.6641975, EW=W, quality=4, numSV=12, HDOP=0.52, alt=435.4, altUnit=M, sep=-26.3, sepUnit=M, diffAge=0.2, diffStation=0)>
2026-07-05 11:09:14,483 - INFO - <NMEA(GNGSA, opMode=M, navMode=3, svid_01=11, svid_02=15, svid_03=18, svid_04=21, svid_05=29, svid_06=5, svid_07=20, svid_08=25, svid_09=26, svid_10=23, svid_11=, svid_12=, PDOP=0.97, HDOP=0.52, VDOP=0.82, systemId=1)>
2026-07-05 11:09:14,484 - INFO - <NMEA(GNGSA, opMode=M, navMode=3, svid_01=81, svid_02=66, svid_03=79, svid_04=65, svid_05=88, svid_06=87, svid_07=72, svid_08=, svid_09=, svid_10=, svid_11=, svid_12=, PDOP=0.97, HDOP=0.52, VDOP=0.82, systemId=2)>
2026-07-05 11:09:14,484 - INFO - <NMEA(GNGSA, opMode=M, navMode=3, svid_01=12, svid_02=28, svid_03=33, svid_04=29, svid_05=16, svid_06=10, svid_07=, svid_08=, svid_09=, svid_10=, svid_11=, svid_12=, PDOP=0.97, HDOP=0.52, VDOP=0.82, systemId=3)>
2026-07-05 11:09:14,485 - INFO - <NMEA(GNGSA, opMode=M, navMode=3, svid_01=13, svid_02=14, svid_03=21, svid_04=28, svid_05=33, svid_06=34, svid_07=38, svid_08=42, svid_09=, svid_10=, svid_11=, svid_12=, PDOP=0.97, HDOP=0.52, VDOP=0.82, systemId=4)>
2026-07-05 11:09:14,485 - INFO - <NMEA(GNGSA, opMode=M, navMode=3, svid_01=, svid_02=, svid_03=, svid_04=, svid_05=, svid_06=, svid_07=, svid_08=, svid_09=, svid_10=, svid_11=, svid_12=, PDOP=0.97, HDOP=0.52, VDOP=0.82, systemId=5)>
2026-07-05 11:09:14,485 - INFO - <NMEA(GPGSV, numMsg=3, msgNum=1, numSV=12, svid_01=5, elv_01=64.0, az_01=37, cno_01=45, svid_02=11, elv_02=15.0, az_02=86, cno_02=25, svid_03=15, elv_03=40.0, az_03=163, cno_03=40, svid_04=18, elv_04=34.0, az_04=295, cno_04=42, signalID=1)>
