2026-06-07 14:47:58,344 - INFO - Logging initialized to /home/dali/Documents/ReMow-Rover-Tests/Repeat/Logs/readRecordedRun-2026-06-07_14-47-58.log
2026-06-07 14:47:58,344 - INFO - RoboClaw opened successfully on /dev/serial/by-id/usb-Basicmicro_Inc._USB_Roboclaw_2x15A-if00
2026-06-07 14:47:58,646 - INFO - Encoders reset to zero
2026-06-07 14:47:58,647 - INFO - Starting readRecordedRun with combination: 55
2026-06-07 14:47:58,647 - INFO - Selected most recent recording: 55_20260510-134004_GPSData.csv
2026-06-07 14:47:58,651 - INFO - GREEN_LED initialized on GPIO 17
2026-06-07 14:47:58,652 - INFO - Bootstrap: Initialized modifiers with estimate 73.86 mm/(rad/s)
2026-06-07 14:47:58,652 - INFO - ENU origin from first waypoint: 37.9008713333, -97.66418
2026-06-07 14:47:58,671 - INFO - goto_positions: M1=1100, M2=1100 [Startup - ensuring neutral position]
2026-06-07 14:47:58,671 - INFO - Actuators initialized to neutral (1100)
2026-06-07 14:47:58,671 - INFO - === STATE MACHINE INITIALIZED ===
2026-06-07 14:47:58,672 - INFO - Start waypoint: East=0.000m, North=0.000m, Heading=1.8°
2026-06-07 14:47:58,672 - INFO - Initial state: NAVIGATING_TO_START
2026-06-07 14:47:58,672 - INFO - Navigation timeout: 300.0s
2026-06-07 14:47:58,672 - INFO - === WAITING FOR GPS RTK FIX ===
2026-06-07 14:47:58,672 - INFO - Need: relPosValid=1, carrSoln=2, relPosHeadingValid=1 (timeout: 60.0s)
2026-06-07 14:47:58,681 - INFO - GPS status: relPosValid=1, carrSoln=2, headingValid=1 (0.0s)
2026-06-07 14:47:58,681 - INFO - === GPS RTK FIXED — ready to navigate (0.0s) ===
2026-06-07 14:47:58,681 - INFO - <UBX(RXM-RTCM, version=2, crcFailed=0, msgUsed=2, subType=0, refStation=0, msgType=1074)>
2026-06-07 14:47:58,681 - INFO - Using persisted heading from driving to work area: 71.92° (captured at 2026-06-07 14:47:39)
2026-06-07 14:47:58,681 - INFO - <UBX(RXM-RTCM, version=2, crcFailed=0, msgUsed=2, subType=0, refStation=0, msgType=1084)>
2026-06-07 14:47:58,681 - INFO - <UBX(RXM-RTCM, version=2, crcFailed=0, msgUsed=2, subType=0, refStation=0, msgType=1094)>
2026-06-07 14:47:58,681 - INFO - <UBX(RXM-RTCM, version=2, crcFailed=0, msgUsed=2, subType=0, refStation=0, msgType=1124)>
2026-06-07 14:47:58,681 - INFO - <UBX(RXM-RTCM, version=2, crcFailed=0, msgUsed=2, subType=0, refStation=0, msgType=1230)>
2026-06-07 14:47:58,682 - INFO - <UBX(RXM-RTCM, version=2, crcFailed=0, msgUsed=2, subType=0, refStation=0, msgType=4072)>
2026-06-07 14:47:58,682 - INFO - <UBX(NAV-PVT, iTOW=19:47:58, year=2026, month=6, day=7, hour=19, min=47, second=58, validDate=1, validTime=1, fullyResolved=1, validMag=0, tAcc=22, nano=74081, fixType=3, gnssFixOk=1, diffSoln=1, psmState=0, headVehValid=0, carrSoln=2, confirmedAvai=1, confirmedDate=1, confirmedTime=1, numSV=31, lon=-97.6641931, lat=37.9008526, height=405681, hMSL=431934, hAcc=1614, vAcc=2098, velN=-7, velE=2, velD=-2, gSpeed=7, headMot=220.80154, sAcc=71, headAcc=180.0, pDOP=0.93, invalidLlh=0, lastCorrectionAge=1, reserved0=860630572, headVeh=0.0, magDec=0.0, magAcc=0.0)>
2026-06-07 14:47:58,683 - INFO - <NMEA(GNRMC, time=19:47:58, status=A, lat=37.9008525, NS=N, lon=-97.6641931667, EW=W, spd=0.013, cog=, date=2026-06-07, mv=, mvEW=, posMode=R, navStatus=V)>
2026-06-07 14:47:58,683 - INFO - <NMEA(GNVTG, cogt=, cogtUnit=T, cogm=, cogmUnit=M, sogn=0.013, sognUnit=N, sogk=0.025, sogkUnit=K, posMode=D)>
2026-06-07 14:47:58,684 - INFO - <NMEA(GNGGA, time=19:47:58, lat=37.9008525, NS=N, lon=-97.6641931667, EW=W, quality=4, numSV=12, HDOP=0.54, alt=431.9, altUnit=M, sep=-26.3, sepUnit=M, diffAge=0.2, diffStation=0)>
2026-06-07 14:47:58,684 - INFO - <NMEA(GNGSA, opMode=M, navMode=3, svid_01=5, svid_02=10, svid_03=15, svid_04=18, svid_05=20, svid_06=46, svid_07=23, svid_08=24, svid_09=44, svid_10=29, svid_11=48, svid_12=, PDOP=0.93, HDOP=0.54, VDOP=0.75, systemId=1)>
2026-06-07 14:47:58,684 - INFO - <NMEA(GNGSA, opMode=M, navMode=3, svid_01=71, svid_02=70, svid_03=86, svid_04=69, svid_05=84, svid_06=85, svid_07=, svid_08=, svid_09=, svid_10=, svid_11=, svid_12=, PDOP=0.93, HDOP=0.54, VDOP=0.75, systemId=2)>
2026-06-07 14:47:58,685 - INFO - <NMEA(GNGSA, opMode=M, navMode=3, svid_01=3, svid_02=5, svid_03=8, svid_04=13, svid_05=15, svid_06=27, svid_07=34, svid_08=, svid_09=, svid_10=, svid_11=, svid_12=, PDOP=0.93, HDOP=0.54, VDOP=0.75, systemId=3)>
2026-06-07 14:47:58,685 - INFO - <NMEA(GNGSA, opMode=M, navMode=3, svid_01=13, svid_02=27, svid_03=28, svid_04=33, svid_05=38, svid_06=41, svid_07=42, svid_08=, svid_09=, svid_10=, svid_11=, svid_12=, PDOP=0.93, HDOP=0.54, VDOP=0.75, systemId=4)>
2026-06-07 14:47:58,686 - INFO - <NMEA(GNGSA, opMode=M, navMode=3, svid_01=, svid_02=, svid_03=, svid_04=, svid_05=, svid_06=, svid_07=, svid_08=, svid_09=, svid_10=, svid_11=, svid_12=, PDOP=0.93, HDOP=0.54, VDOP=0.75, systemId=5)>
2026-06-07 14:47:58,686 - INFO - <NMEA(GPGSV, numMsg=3, msgNum=1, numSV=12, svid_01=5, elv_01=20.0, az_01=60, cno_01=46, svid_02=10, elv_02=21.0, az_02=258, cno_02=37, svid_03=15, elv_03=66.0, az_03=73, cno_03=41, svid_04=18, elv_04=70.0, az_04=345, cno_04=48, signalID=1)>
2026-06-07 14:47:58,687 - INFO - <NMEA(GPGSV, numMsg=3, msgNum=2, numSV=12, svid_01=20, elv_01=39.0, az_01=52, cno_01=47, svid_02=23, elv_02=53.0, az_02=279, cno_02=35, svid_03=24, elv_03=15.0, az_03=134, cno_03=36, svid_04=26, elv_04=1.0, az_04=266, cno_04=26, signalID=1)>
2026-06-07 14:47:58,687 - INFO - <NMEA(GPGSV, numMsg=3, msgNum=3, numSV=12, svid_01=29, elv_01=42.0, az_01=181, cno_01=30, svid_02=44, elv_02=42.0, az_02=210, cno_02=36, svid_03=46, elv_03=35.0, az_03=225, cno_03=42, svid_04=48, elv_04=38.0, az_04=220, cno_04=34, signalID=1)>
2026-06-07 14:47:58,688 - INFO - <NMEA(GPGSV, numMsg=3, msgNum=1, numSV=10, svid_01=5, elv_01=20.0, az_01=60, cno_01=36, svid_02=10, elv_02=21.0, az_02=258, cno_02=22, svid_03=15, elv_03=66.0, az_03=73, cno_03=41, svid_04=18, elv_04=70.0, az_04=345, cno_04=45, signalID=6)>
2026-06-07 14:47:58,688 - INFO - <NMEA(GPGSV, numMsg=3, msgNum=2, numSV=10, svid_01=20, elv_01=39.0, az_01=52, cno_01=40, svid_02=23, elv_02=53.0, az_02=279, cno_02=38, svid_03=24, elv_03=15.0, az_03=134, cno_03=30, svid_04=26, elv_04=1.0, az_04=266, cno_04=17, signalID=6)>
2026-06-07 14:47:58,688 - INFO - <NMEA(GPGSV, numMsg=3, msgNum=3, numSV=10, svid_01=27, elv_01=9.0, az_01=322, cno_01=21, svid_02=29, elv_02=42.0, az_02=181, cno_02=30, signalID=6)>
2026-06-07 14:47:58,689 - INFO - <NMEA(GPGSV, numMsg=1, msgNum=1, numSV=1, svid_01=16, elv_01=8.0, az_01=292, cno_01=, signalID=0)>
2026-06-07 14:47:58,689 - INFO - <NMEA(GLGSV, numMsg=2, msgNum=1, numSV=6, svid_01=69, elv_01=24.0, az_01=32, cno_01=48, svid_02=70, elv_02=77.0, az_02=29, cno_02=50, svid_03=71, elv_03=38.0, az_03=214, cno_03=45, svid_04=84, elv_04=35.0, az_04=123, cno_04=44, signalID=1)>
2026-06-07 14:47:58,689 - INFO - <NMEA(GLGSV, numMsg=2, msgNum=2, numSV=6, svid_01=85, elv_01=75.0, az_01=58, cno_01=43, svid_02=86, elv_02=25.0, az_02=324, cno_02=27, signalID=1)>
2026-06-07 14:47:58,690 - INFO - <NMEA(GLGSV, numMsg=2, msgNum=1, numSV=6, svid_01=69, elv_01=24.0, az_01=32, cno_01=34, svid_02=70, elv_02=77.0, az_02=29, cno_02=39, svid_03=71, elv_03=38.0, az_03=214, cno_03=35, svid_04=84, elv_04=35.0, az_04=123, cno_04=45, signalID=3)>
2026-06-07 14:47:58,690 - INFO - <NMEA(GLGSV, numMsg=2, msgNum=2, numSV=6, svid_01=85, elv_01=75.0, az_01=58, cno_01=33, svid_02=86, elv_02=25.0, az_02=324, cno_02=28, signalID=3)>
2026-06-07 14:47:58,691 - INFO - <NMEA(GAGSV, numMsg=3, msgNum=1, numSV=11, svid_01=3, elv_01=54.0, az_01=149, cno_01=38, svid_02=5, elv_02=43.0, az_02=62, cno_02=44, svid_03=8, elv_03=14.0, az_03=192, cno_03=29, svid_04=9, elv_04=2.0, az_04=32, cno_04=30, signalID=2)>
2026-06-07 14:47:58,691 - INFO - <NMEA(GAGSV, numMsg=3, msgNum=2, numSV=11, svid_01=13, elv_01=11.0, az_01=297, cno_01=29, svid_02=15, elv_02=58.0, az_02=327, cno_02=50, svid_03=21, elv_03=8.0, az_03=313, cno_03=26, svid_04=27, elv_04=18.0, az_04=263, cno_04=33, signalID=2)>
2026-06-07 14:47:58,691 - INFO - <NMEA(GAGSV, numMsg=3, msgNum=3, numSV=11, svid_01=30, elv_01=8.0, az_01=216, cno_01=28, svid_02=34, elv_02=54.0, az_02=79, cno_02=47, svid_03=36, elv_03=7.0, az_03=104, cno_03=46, signalID=2)>
2026-06-07 14:47:58,692 - INFO - <NMEA(GAGSV, numMsg=3, msgNum=1, numSV=11, svid_01=3, elv_01=54.0, az_01=149, cno_01=39, svid_02=5, elv_02=43.0, az_02=62, cno_02=45, svid_03=9, elv_03=2.0, az_03=32, cno_03=48, svid_04=13, elv_04=11.0, az_04=297, cno_04=25, signalID=7)>
2026-06-07 14:47:58,692 - INFO - <NMEA(GAGSV, numMsg=3, msgNum=2, numSV=11, svid_01=15, elv_01=58.0, az_01=327, cno_01=45, svid_02=21, elv_02=8.0, az_02=313, cno_02=20, svid_03=27, elv_03=18.0, az_03=263, cno_03=31, svid_04=30, elv_04=8.0, az_04=216, cno_04=20, signalID=7)>
2026-06-07 14:47:58,693 - INFO - <NMEA(GAGSV, numMsg=3, msgNum=3, numSV=11, svid_01=32, elv_01=34.0, az_01=178, cno_01=30, svid_02=34, elv_02=54.0, az_02=79, cno_02=47, svid_03=36, elv_03=7.0, az_03=104, cno_03=39, signalID=7)>
2026-06-07 14:47:58,693 - INFO - <NMEA(GBGSV, numMsg=2, msgNum=1, numSV=7, svid_01=13, elv_01=63.0, az_01=146, cno_01=39, svid_02=27, elv_02=38.0, az_02=312, cno_02=43, svid_03=28, elv_03=82.0, az_03=278, cno_03=46, svid_04=33, elv_04=76.0, az_04=41, cno_04=44, signalID=1)>
2026-06-07 14:47:58,694 - INFO - <NMEA(GBGSV, numMsg=2, msgNum=2, numSV=7, svid_01=38, elv_01=36.0, az_01=143, cno_01=40, svid_02=41, elv_02=50.0, az_02=226, cno_02=41, svid_03=42, elv_03=19.0, az_03=45, cno_03=42, signalID=1)>
2026-06-07 14:47:58,694 - INFO - <NMEA(GQGSV, numMsg=1, msgNum=1, numSV=0, signalID=0)>
2026-06-07 14:47:58,694 - INFO - <NMEA(GNGLL, lat=37.9008525, NS=N, lon=-97.6641931667, EW=W, time=19:47:58, status=A, posMode=D)>
2026-06-07 14:47:58,694 - INFO - <UBX(NAV-RELPOSNED, version=1, reserved0=0, refStationID=0, iTOW=19:47:58, relPosN=17.02, relPosE=55.63, relPosD=6.22, relPosLength=58.5, relPosHeading=72.9892, reserved1=0, accN=10.0, accE=10.0, accD=15.6, accLength=10.1, accHeading=0.98493, reserved2=0, gnssFixOK=1, diffSoln=1, relPosValid=1, carrSoln=2, isMoving=1, refPosMiss=0, refObsMiss=0, relPosHeadingValid=1, relPosNormalized=0)>
2026-06-07 14:47:58,696 - INFO - 2026-06-07 14:47:58 Initial Moving Baseline state: active
2026-06-07 14:47:58,696 - INFO - 2026-06-07 14:47:58 Initial carrier solution: fixed
2026-06-07 14:47:58,696 - INFO - 2026-06-07 14:47:58, current_target: {'timestamp': '2026-05-10 13:40:05', 'lat': 37.9008713333, 'lon': -97.66418, 'speed': 0.004629996, 'y_offset': 0.0, 'x_offset': 0.0, 'z_offset': 0.0, 'heading': 1.76477}, next_target: {'timestamp': '2026-05-10 13:40:06', 'lat': 37.9008713333, 'lon': -97.66418, 'speed': 0.00514444, 'y_offset': 0.0, 'x_offset': 0.0, 'z_offset': 0.0, 'heading': 1.76299}
2026-06-07 14:47:58,696 - INFO - <UBX(RXM-RTCM, version=2, crcFailed=0, msgUsed=2, subType=0, refStation=0, msgType=1074)>
2026-06-07 14:47:58,696 - INFO - 2026-06-07 14:47:58, current_target: {'timestamp': '2026-05-10 13:40:05', 'lat': 37.9008713333, 'lon': -97.66418, 'speed': 0.004629996, 'y_offset': 0.0, 'x_offset': 0.0, 'z_offset': 0.0, 'heading': 1.76477}, next_target: {'timestamp': '2026-05-10 13:40:06', 'lat': 37.9008713333, 'lon': -97.66418, 'speed': 0.00514444, 'y_offset': 0.0, 'x_offset': 0.0, 'z_offset': 0.0, 'heading': 1.76299}
2026-06-07 14:47:58,696 - INFO - 2026-06-07 14:47:58 [3.4 OBSERVED] current_turn_radius: infm
2026-06-07 14:47:58,696 - INFO - 2026-06-07 14:47:58 [3.4 OBSERVED] turn_direction: STRAIGHT
2026-06-07 14:47:58,696 - INFO - 2026-06-07 14:47:58 [3.4 OBSERVED] estimated left/right wheel speeds: 0.010, 0.010 rad/s
2026-06-07 14:47:58,697 - INFO - 2026-06-07 14:47:58 [STATE] Current state: NAVIGATING_TO_START
2026-06-07 14:47:58,698 - INFO - 2026-06-07 14:47:58 [NAV_TO_START] Phase: PIVOT_TO_BEARING, Dist: 2.390m, Bearing err: -44.0°, Heading diff: 71.2°, Elapsed: 0.0s
2026-06-07 14:47:58,698 - INFO - 2026-06-07 14:47:58 [NAV_TO_START] PIVOT_TO_BEARING LEFT: heading=73.0°, bearing=29.0°, error=-44.0°, force=aggressive
2026-06-07 14:47:58,714 - INFO - goto_positions: M1=1280, M2=920 [Pivot to bearing LEFT]
2026-06-07 14:47:58,715 - INFO - <UBX(RXM-RTCM, version=2, crcFailed=0, msgUsed=2, subType=0, refStation=0, msgType=1084)>
2026-06-07 14:47:58,715 - INFO - <UBX(RXM-RTCM, version=2, crcFailed=0, msgUsed=2, subType=0, refStation=0, msgType=1094)>
2026-06-07 14:47:58,715 - INFO - <UBX(RXM-RTCM, version=2, crcFailed=0, msgUsed=2, subType=0, refStation=0, msgType=1124)>
2026-06-07 14:47:58,715 - INFO - <UBX(RXM-RTCM, version=2, crcFailed=0, msgUsed=2, subType=0, refStation=0, msgType=1230)>
2026-06-07 14:47:58,715 - INFO - <UBX(NAV-PVT, iTOW=19:47:58.200000, year=2026, month=6, day=7, hour=19, min=47, second=58, validDate=1, validTime=1, fullyResolved=1, validMag=0, tAcc=22, nano=200074037, fixType=3, gnssFixOk=1, diffSoln=1, psmState=0, headVehValid=0, carrSoln=2, confirmedAvai=1, confirmedDate=1, confirmedTime=1, numSV=31, lon=-97.6641932, lat=37.9008526, height=405688, hMSL=431941, hAcc=1572, vAcc=2043, velN=2, velE=2, velD=2, gSpeed=3, headMot=220.80154, sAcc=67, headAcc=180.0, pDOP=0.93, invalidLlh=0, lastCorrectionAge=1, reserved0=860630572, headVeh=0.0, magDec=0.0, magAcc=0.0)>
2026-06-07 14:47:58,716 - INFO - <NMEA(GNRMC, time=19:47:58.200000, status=A, lat=37.9008526667, NS=N, lon=-97.6641931667, EW=W, spd=0.006, cog=, date=2026-06-07, mv=, mvEW=, posMode=R, navStatus=V)>
2026-06-07 14:47:58,716 - INFO - <NMEA(GNVTG, cogt=, cogtUnit=T, cogm=, cogmUnit=M, sogn=0.006, sognUnit=N, sogk=0.011, sogkUnit=K, posMode=D)>
2026-06-07 14:47:58,717 - INFO - <NMEA(GNGGA, time=19:47:58.200000, lat=37.9008526667, NS=N, lon=-97.6641931667, EW=W, quality=4, numSV=12, HDOP=0.54, alt=431.9, altUnit=M, sep=-26.3, sepUnit=M, diffAge=0.2, diffStation=0)>
2026-06-07 14:47:58,717 - INFO - <NMEA(GNGSA, opMode=M, navMode=3, svid_01=5, svid_02=10, svid_03=15, svid_04=18, svid_05=20, svid_06=46, svid_07=23, svid_08=24, svid_09=44, svid_10=29, svid_11=48, svid_12=, PDOP=0.93, HDOP=0.54, VDOP=0.75, systemId=1)>
2026-06-07 14:47:58,717 - INFO - <NMEA(GNGSA, opMode=M, navMode=3, svid_01=71, svid_02=70, svid_03=86, svid_04=69, svid_05=84, svid_06=85, svid_07=, svid_08=, svid_09=, svid_10=, svid_11=, svid_12=, PDOP=0.93, HDOP=0.54, VDOP=0.75, systemId=2)>
2026-06-07 14:47:58,718 - INFO - <NMEA(GNGSA, opMode=M, navMode=3, svid_01=3, svid_02=5, svid_03=8, svid_04=13, svid_05=15, svid_06=27, svid_07=34, svid_08=, svid_09=, svid_10=, svid_11=, svid_12=, PDOP=0.93, HDOP=0.54, VDOP=0.75, systemId=3)>
2026-06-07 14:47:58,718 - INFO - <NMEA(GNGSA, opMode=M, navMode=3, svid_01=13, svid_02=27, svid_03=28, svid_04=33, svid_05=38, svid_06=41, svid_07=42, svid_08=, svid_09=, svid_10=, svid_11=, svid_12=, PDOP=0.93, HDOP=0.54, VDOP=0.75, systemId=4)>
2026-06-07 14:47:58,719 - INFO - <NMEA(GNGSA, opMode=M, navMode=3, svid_01=, svid_02=, svid_03=, svid_04=, svid_05=, svid_06=, svid_07=, svid_08=, svid_09=, svid_10=, svid_11=, svid_12=, PDOP=0.93, HDOP=0.54, VDOP=0.75, systemId=5)>
2026-06-07 14:47:58,719 - INFO - <NMEA(GPGSV, numMsg=3, msgNum=1, numSV=12, svid_01=5, elv_01=20.0, az_01=60, cno_01=46, svid_02=10, elv_02=21.0, az_02=258, cno_02=37, svid_03=15, elv_03=66.0, az_03=73, cno_03=41, svid_04=18, elv_04=70.0, az_04=345, cno_04=48, signalID=1)>
2026-06-07 14:47:58,720 - INFO - <NMEA(GPGSV, numMsg=3, msgNum=2, numSV=12, svid_01=20, elv_01=39.0, az_01=52, cno_01=47, svid_02=23, elv_02=53.0, az_02=279, cno_02=35, svid_03=24, elv_03=15.0, az_03=134, cno_03=36, svid_04=26, elv_04=1.0, az_04=266, cno_04=26, signalID=1)>
2026-06-07 14:47:58,720 - INFO - <NMEA(GPGSV, numMsg=3, msgNum=3, numSV=12, svid_01=29, elv_01=42.0, az_01=181, cno_01=30, svid_02=44, elv_02=42.0, az_02=210, cno_02=36, svid_03=46, elv_03=35.0, az_03=225, cno_03=42, svid_04=48, elv_04=38.0, az_04=220, cno_04=34, signalID=1)>
2026-06-07 14:47:58,721 - INFO - <NMEA(GPGSV, numMsg=3, msgNum=1, numSV=10, svid_01=5, elv_01=20.0, az_01=60, cno_01=36, svid_02=10, elv_02=21.0, az_02=258, cno_02=22, svid_03=15, elv_03=66.0, az_03=73, cno_03=41, svid_04=18, elv_04=70.0, az_04=345, cno_04=45, signalID=6)>
2026-06-07 14:47:58,721 - INFO - <NMEA(GPGSV, numMsg=3, msgNum=2, numSV=10, svid_01=20, elv_01=39.0, az_01=52, cno_01=41, svid_02=23, elv_02=53.0, az_02=279, cno_02=39, svid_03=24, elv_03=15.0, az_03=134, cno_03=30, svid_04=26, elv_04=1.0, az_04=266, cno_04=16, signalID=6)>
2026-06-07 14:47:58,721 - INFO - <NMEA(GPGSV, numMsg=3, msgNum=3, numSV=10, svid_01=27, elv_01=9.0, az_01=322, cno_01=21, svid_02=29, elv_02=42.0, az_02=181, cno_02=30, signalID=6)>
2026-06-07 14:47:58,722 - INFO - <NMEA(GPGSV, numMsg=1, msgNum=1, numSV=1, svid_01=16, elv_01=8.0, az_01=292, cno_01=, signalID=0)>
2026-06-07 14:47:58,722 - INFO - <NMEA(GLGSV, numMsg=2, msgNum=1, numSV=6, svid_01=69, elv_01=24.0, az_01=32, cno_01=48, svid_02=70, elv_02=77.0, az_02=29, cno_02=50, svid_03=71, elv_03=38.0, az_03=214, cno_03=45, svid_04=84, elv_04=35.0, az_04=123, cno_04=44, signalID=1)>
2026-06-07 14:47:58,722 - INFO - <NMEA(GLGSV, numMsg=2, msgNum=2, numSV=6, svid_01=85, elv_01=75.0, az_01=58, cno_01=43, svid_02=86, elv_02=25.0, az_02=324, cno_02=27, signalID=1)>
2026-06-07 14:47:58,723 - INFO - <NMEA(GLGSV, numMsg=2, msgNum=1, numSV=6, svid_01=69, elv_01=24.0, az_01=32, cno_01=34, svid_02=70, elv_02=77.0, az_02=29, cno_02=39, svid_03=71, elv_03=38.0, az_03=214, cno_03=36, svid_04=84, elv_04=35.0, az_04=123, cno_04=45, signalID=3)>
2026-06-07 14:47:58,723 - INFO - <NMEA(GLGSV, numMsg=2, msgNum=2, numSV=6, svid_01=85, elv_01=75.0, az_01=58, cno_01=33, svid_02=86, elv_02=25.0, az_02=324, cno_02=28, signalID=3)>
2026-06-07 14:47:58,724 - INFO - <NMEA(GAGSV, numMsg=3, msgNum=1, numSV=11, svid_01=3, elv_01=54.0, az_01=149, cno_01=38, svid_02=5, elv_02=43.0, az_02=62, cno_02=44, svid_03=8, elv_03=14.0, az_03=192, cno_03=29, svid_04=9, elv_04=2.0, az_04=32, cno_04=30, signalID=2)>
2026-06-07 14:47:58,724 - INFO - <NMEA(GAGSV, numMsg=3, msgNum=2, numSV=11, svid_01=13, elv_01=11.0, az_01=297, cno_01=29, svid_02=15, elv_02=58.0, az_02=327, cno_02=50, svid_03=21, elv_03=8.0, az_03=313, cno_03=27, svid_04=27, elv_04=18.0, az_04=263, cno_04=33, signalID=2)>
2026-06-07 14:47:58,725 - INFO - <NMEA(GAGSV, numMsg=3, msgNum=3, numSV=11, svid_01=30, elv_01=8.0, az_01=216, cno_01=28, svid_02=34, elv_02=54.0, az_02=79, cno_02=47, svid_03=36, elv_03=7.0, az_03=104, cno_03=46, signalID=2)>
2026-06-07 14:47:58,725 - INFO - <NMEA(GAGSV, numMsg=3, msgNum=1, numSV=11, svid_01=3, elv_01=54.0, az_01=149, cno_01=39, svid_02=5, elv_02=43.0, az_02=62, cno_02=45, svid_03=9, elv_03=2.0, az_03=32, cno_03=48, svid_04=13, elv_04=11.0, az_04=297, cno_04=25, signalID=7)>
2026-06-07 14:47:58,726 - INFO - <NMEA(GAGSV, numMsg=3, msgNum=2, numSV=11, svid_01=15, elv_01=58.0, az_01=327, cno_01=45, svid_02=21, elv_02=8.0, az_02=313, cno_02=20, svid_03=27, elv_03=18.0, az_03=263, cno_03=31, svid_04=30, elv_04=8.0, az_04=216, cno_04=19, signalID=7)>
2026-06-07 14:47:58,726 - INFO - <NMEA(GAGSV, numMsg=3, msgNum=3, numSV=11, svid_01=32, elv_01=34.0, az_01=178, cno_01=30, svid_02=34, elv_02=54.0, az_02=79, cno_02=47, svid_03=36, elv_03=7.0, az_03=104, cno_03=39, signalID=7)>
2026-06-07 14:47:58,726 - INFO - <NMEA(GBGSV, numMsg=2, msgNum=1, numSV=7, svid_01=13, elv_01=63.0, az_01=146, cno_01=39, svid_02=27, elv_02=38.0, az_02=312, cno_02=43, svid_03=28, elv_03=82.0, az_03=278, cno_03=46, svid_04=33, elv_04=76.0, az_04=41, cno_04=44, signalID=1)>
2026-06-07 14:47:58,727 - INFO - <NMEA(GBGSV, numMsg=2, msgNum=2, numSV=7, svid_01=38, elv_01=36.0, az_01=143, cno_01=40, svid_02=41, elv_02=50.0, az_02=226, cno_02=41, svid_03=42, elv_03=19.0, az_03=45, cno_03=42, signalID=1)>
2026-06-07 14:47:58,727 - INFO - <NMEA(GQGSV, numMsg=1, msgNum=1, numSV=0, signalID=0)>
2026-06-07 14:47:58,727 - INFO - <NMEA(GNGLL, lat=37.9008526667, NS=N, lon=-97.6641931667, EW=W, time=19:47:58.200000, status=A, posMode=D)>
2026-06-07 14:47:58,728 - INFO - <UBX(NAV-RELPOSNED, version=1, reserved0=0, refStationID=0, iTOW=19:47:58.200000, relPosN=17.6, relPosE=55.29, relPosD=5.36, relPosLength=58.27, relPosHeading=72.34008, reserved1=0, accN=10.0, accE=10.0, accD=15.6, accLength=10.1, accHeading=0.98739, reserved2=0, gnssFixOK=1, diffSoln=1, relPosValid=1, carrSoln=2, isMoving=1, refPosMiss=0, refObsMiss=0, relPosHeadingValid=1, relPosNormalized=0)>
2026-06-07 14:47:58,729 - INFO - 2026-06-07 14:47:58, current_target: {'timestamp': '2026-05-10 13:40:05', 'lat': 37.9008713333, 'lon': -97.66418, 'speed': 0.004629996, 'y_offset': 0.0, 'x_offset': 0.0, 'z_offset': 0.0, 'heading': 1.76477}, next_target: {'timestamp': '2026-05-10 13:40:06', 'lat': 37.9008713333, 'lon': -97.66418, 'speed': 0.00514444, 'y_offset': 0.0, 'x_offset': 0.0, 'z_offset': 0.0, 'heading': 1.76299}
2026-06-07 14:47:58,729 - INFO - 2026-06-07 14:47:58 [3.4 OBSERVED] current_turn_radius: infm
2026-06-07 14:47:58,729 - INFO - 2026-06-07 14:47:58 [3.4 OBSERVED] turn_direction: LEFT
2026-06-07 14:47:58,729 - INFO - 2026-06-07 14:47:58 [3.4 OBSERVED] estimated left/right wheel speeds: nan, nan rad/s
2026-06-07 14:47:58,731 - INFO - 2026-06-07 14:47:58 [STATE] Current state: NAVIGATING_TO_START
2026-06-07 14:47:58,731 - INFO - 2026-06-07 14:47:58 [NAV_TO_START] Phase: PIVOT_TO_BEARING, Dist: 2.374m, Bearing err: -43.1°, Heading diff: 70.6°, Elapsed: 0.1s
2026-06-07 14:47:58,731 - INFO - 2026-06-07 14:47:58 [NAV_TO_START] PIVOT_TO_BEARING LEFT: heading=72.3°, bearing=29.2°, error=-43.1°, force=aggressive
2026-06-07 14:47:58,744 - INFO - goto_positions: M1=1280, M2=920 [Pivot to bearing LEFT]
2026-06-07 14:47:58,745 - INFO - <UBX(RXM-RTCM, version=2, crcFailed=0, msgUsed=2, subType=0, refStation=0, msgType=4072)>
2026-06-07 14:47:58,745 - INFO - <UBX(RXM-RTCM, version=2, crcFailed=0, msgUsed=2, subType=0, refStation=0, msgType=1074)>
2026-06-07 14:47:58,745 - INFO - <UBX(RXM-RTCM, version=2, crcFailed=0, msgUsed=2, subType=0, refStation=0, msgType=1084)>
2026-06-07 14:47:58,745 - INFO - <UBX(RXM-RTCM, version=2, crcFailed=0, msgUsed=2, subType=0, refStation=0, msgType=1094)>
2026-06-07 14:47:58,745 - INFO - <UBX(RXM-RTCM, version=2, crcFailed=0, msgUsed=2, subType=0, refStation=0, msgType=1124)>
2026-06-07 14:47:58,745 - INFO - <UBX(RXM-RTCM, version=2, crcFailed=0, msgUsed=2, subType=0, refStation=0, msgType=1230)>
2026-06-07 14:47:58,746 - INFO - <UBX(NAV-PVT, iTOW=19:47:58.400000, year=2026, month=6, day=7, hour=19, min=47, second=58, validDate=1, validTime=1, fullyResolved=1, validMag=0, tAcc=22, nano=400073992, fixType=3, gnssFixOk=1, diffSoln=1, psmState=0, headVehValid=0, carrSoln=2, confirmedAvai=1, confirmedDate=1, confirmedTime=1, numSV=31, lon=-97.6641932, lat=37.9008526, height=405684, hMSL=431937, hAcc=1571, vAcc=2043, velN=3, velE=-4, velD=-2, gSpeed=5, headMot=220.80154, sAcc=69, headAcc=180.0, pDOP=0.93, invalidLlh=0, lastCorrectionAge=1, reserved0=860630572, headVeh=0.0, magDec=0.0, magAcc=0.0)>
2026-06-07 14:47:58,746 - INFO - <NMEA(GNRMC, time=19:47:58.400000, status=A, lat=37.9008526667, NS=N, lon=-97.6641931667, EW=W, spd=0.01, cog=, date=2026-06-07, mv=, mvEW=, posMode=R, navStatus=V)>
2026-06-07 14:47:58,746 - INFO - <NMEA(GNVTG, cogt=, cogtUnit=T, cogm=, cogmUnit=M, sogn=0.01, sognUnit=N, sogk=0.019, sogkUnit=K, posMode=D)>
2026-06-07 14:47:58,747 - INFO - <NMEA(GNGGA, time=19:47:58.400000, lat=37.9008526667, NS=N, lon=-97.6641931667, EW=W, quality=4, numSV=12, HDOP=0.54, alt=431.9, altUnit=M, sep=-26.3, sepUnit=M, diffAge=0.2, diffStation=0)>
2026-06-07 14:47:58,747 - INFO - <NMEA(GNGSA, opMode=M, navMode=3, svid_01=5, svid_02=10, svid_03=15, svid_04=18, svid_05=20, svid_06=46, svid_07=23, svid_08=24, svid_09=44, svid_10=29, svid_11=48, svid_12=, PDOP=0.93, HDOP=0.54, VDOP=0.75, systemId=1)>
2026-06-07 14:47:58,748 - INFO - <NMEA(GNGSA, opMode=M, navMode=3, svid_01=71, svid_02=70, svid_03=86, svid_04=69, svid_05=84, svid_06=85, svid_07=, svid_08=, svid_09=, svid_10=, svid_11=, svid_12=, PDOP=0.93, HDOP=0.54, VDOP=0.75, systemId=2)>
2026-06-07 14:47:58,748 - INFO - <NMEA(GNGSA, opMode=M, navMode=3, svid_01=3, svid_02=5, svid_03=8, svid_04=13, svid_05=15, svid_06=27, svid_07=34, svid_08=, svid_09=, svid_10=, svid_11=, svid_12=, PDOP=0.93, HDOP=0.54, VDOP=0.75, systemId=3)>
2026-06-07 14:47:58,749 - INFO - <NMEA(GNGSA, opMode=M, navMode=3, svid_01=13, svid_02=27, svid_03=28, svid_04=33, svid_05=38, svid_06=41, svid_07=42, svid_08=, svid_09=, svid_10=, svid_11=, svid_12=, PDOP=0.93, HDOP=0.54, VDOP=0.75, systemId=4)>
2026-06-07 14:47:58,749 - INFO - <NMEA(GNGSA, opMode=M, navMode=3, svid_01=, svid_02=, svid_03=, svid_04=, svid_05=, svid_06=, svid_07=, svid_08=, svid_09=, svid_10=, svid_11=, svid_12=, PDOP=0.93, HDOP=0.54, VDOP=0.75, systemId=5)>
2026-06-07 14:47:58,749 - INFO - <NMEA(GPGSV, numMsg=3, msgNum=1, numSV=12, svid_01=5, elv_01=20.0, az_01=60, cno_01=46, svid_02=10, elv_02=21.0, az_02=258, cno_02=37, svid_03=15, elv_03=66.0, az_03=73, cno_03=42, svid_04=18, elv_04=70.0, az_04=345, cno_04=48, signalID=1)>
2026-06-07 14:47:58,750 - INFO - <NMEA(GPGSV, numMsg=3, msgNum=2, numSV=12, svid_01=20, elv_01=39.0, az_01=52, cno_01=47, svid_02=23, elv_02=53.0, az_02=279, cno_02=35, svid_03=24, elv_03=15.0, az_03=134, cno_03=36, svid_04=26, elv_04=1.0, az_04=266, cno_04=26, signalID=1)>
2026-06-07 14:47:58,750 - INFO - <NMEA(GPGSV, numMsg=3, msgNum=3, numSV=12, svid_01=29, elv_01=42.0, az_01=181, cno_01=29, svid_02=44, elv_02=42.0, az_02=210, cno_02=37, svid_03=46, elv_03=35.0, az_03=225, cno_03=42, svid_04=48, elv_04=38.0, az_04=220, cno_04=35, signalID=1)>
2026-06-07 14:47:58,751 - INFO - <NMEA(GPGSV, numMsg=3, msgNum=1, numSV=10, svid_01=5, elv_01=20.0, az_01=60, cno_01=36, svid_02=10, elv_02=21.0, az_02=258, cno_02=22, svid_03=15, elv_03=66.0, az_03=73, cno_03=41, svid_04=18, elv_04=70.0, az_04=345, cno_04=45, signalID=6)>
2026-06-07 14:47:58,751 - INFO - <NMEA(GPGSV, numMsg=3, msgNum=2, numSV=10, svid_01=20, elv_01=39.0, az_01=52, cno_01=40, svid_02=23, elv_02=53.0, az_02=279, cno_02=39, svid_03=24, elv_03=15.0, az_03=134, cno_03=30, svid_04=26, elv_04=1.0, az_04=266, cno_04=16, signalID=6)>
2026-06-07 14:47:58,752 - INFO - <NMEA(GPGSV, numMsg=3, msgNum=3, numSV=10, svid_01=27, elv_01=9.0, az_01=322, cno_01=21, svid_02=29, elv_02=42.0, az_02=181, cno_02=30, signalID=6)>
2026-06-07 14:47:58,752 - INFO - <NMEA(GPGSV, numMsg=1, msgNum=1, numSV=1, svid_01=16, elv_01=8.0, az_01=292, cno_01=, signalID=0)>
2026-06-07 14:47:58,752 - INFO - <NMEA(GLGSV, numMsg=2, msgNum=1, numSV=6, svid_01=69, elv_01=24.0, az_01=32, cno_01=48, svid_02=70, elv_02=77.0, az_02=29, cno_02=50, svid_03=71, elv_03=38.0, az_03=214, cno_03=45, svid_04=84, elv_04=35.0, az_04=123, cno_04=44, signalID=1)>
2026-06-07 14:47:58,753 - INFO - <NMEA(GLGSV, numMsg=2, msgNum=2, numSV=6, svid_01=85, elv_01=75.0, az_01=58, cno_01=43, svid_02=86, elv_02=25.0, az_02=324, cno_02=27, signalID=1)>
2026-06-07 14:47:58,753 - INFO - <NMEA(GLGSV, numMsg=2, msgNum=1, numSV=6, svid_01=69, elv_01=24.0, az_01=32, cno_01=34, svid_02=70, elv_02=77.0, az_02=29, cno_02=39, svid_03=71, elv_03=38.0, az_03=214, cno_03=36, svid_04=84, elv_04=35.0, az_04=123, cno_04=45, signalID=3)>
2026-06-07 14:47:58,754 - INFO - <NMEA(GLGSV, numMsg=2, msgNum=2, numSV=6, svid_01=85, elv_01=75.0, az_01=58, cno_01=33, svid_02=86, elv_02=25.0, az_02=324, cno_02=28, signalID=3)>
2026-06-07 14:47:58,754 - INFO - <NMEA(GAGSV, numMsg=3, msgNum=1, numSV=11, svid_01=3, elv_01=54.0, az_01=149, cno_01=39, svid_02=5, elv_02=43.0, az_02=62, cno_02=44, svid_03=8, elv_03=14.0, az_03=192, cno_03=29, svid_04=9, elv_04=2.0, az_04=32, cno_04=30, signalID=2)>
2026-06-07 14:47:58,754 - INFO - <NMEA(GAGSV, numMsg=3, msgNum=2, numSV=11, svid_01=13, elv_01=11.0, az_01=297, cno_01=29, svid_02=15, elv_02=58.0, az_02=327, cno_02=50, svid_03=21, elv_03=8.0, az_03=313, cno_03=27, svid_04=27, elv_04=18.0, az_04=263, cno_04=33, signalID=2)>
2026-06-07 14:47:58,755 - INFO - <NMEA(GAGSV, numMsg=3, msgNum=3, numSV=11, svid_01=30, elv_01=8.0, az_01=216, cno_01=29, svid_02=34, elv_02=54.0, az_02=79, cno_02=47, svid_03=36, elv_03=7.0, az_03=104, cno_03=46, signalID=2)>
2026-06-07 14:47:58,755 - INFO - <NMEA(GAGSV, numMsg=3, msgNum=1, numSV=11, svid_01=3, elv_01=54.0, az_01=149, cno_01=39, svid_02=5, elv_02=43.0, az_02=62, cno_02=45, svid_03=9, elv_03=2.0, az_03=32, cno_03=48, svid_04=13, elv_04=11.0, az_04=297, cno_04=25, signalID=7)>
2026-06-07 14:47:58,756 - INFO - <NMEA(GAGSV, numMsg=3, msgNum=2, numSV=11, svid_01=15, elv_01=58.0, az_01=327, cno_01=45, svid_02=21, elv_02=8.0, az_02=313, cno_02=20, svid_03=27, elv_03=18.0, az_03=263, cno_03=31, svid_04=30, elv_04=8.0, az_04=216, cno_04=19, signalID=7)>
2026-06-07 14:47:58,756 - INFO - <NMEA(GAGSV, numMsg=3, msgNum=3, numSV=11, svid_01=32, elv_01=34.0, az_01=178, cno_01=29, svid_02=34, elv_02=54.0, az_02=79, cno_02=47, svid_03=36, elv_03=7.0, az_03=104, cno_03=39, signalID=7)>
2026-06-07 14:47:58,757 - INFO - <NMEA(GBGSV, numMsg=2, msgNum=1, numSV=7, svid_01=13, elv_01=63.0, az_01=146, cno_01=39, svid_02=27, elv_02=38.0, az_02=312, cno_02=43, svid_03=28, elv_03=82.0, az_03=278, cno_03=46, svid_04=33, elv_04=76.0, az_04=41, cno_04=44, signalID=1)>
2026-06-07 14:47:58,757 - INFO - <NMEA(GBGSV, numMsg=2, msgNum=2, numSV=7, svid_01=38, elv_01=36.0, az_01=143, cno_01=40, svid_02=41, elv_02=50.0, az_02=226, cno_02=41, svid_03=42, elv_03=19.0, az_03=45, cno_03=41, signalID=1)>
2026-06-07 14:47:58,757 - INFO - <NMEA(GQGSV, numMsg=1, msgNum=1, numSV=0, signalID=0)>
2026-06-07 14:47:58,758 - INFO - <NMEA(GNGLL, lat=37.9008526667, NS=N, lon=-97.6641931667, EW=W, time=19:47:58.400000, status=A, posMode=D)>
2026-06-07 14:47:58,758 - INFO - <UBX(NAV-RELPOSNED, version=1, reserved0=0, refStationID=0, iTOW=19:47:58.400000, relPosN=17.85, relPosE=55.33, relPosD=5.8, relPosLength=58.43, relPosHeading=72.11995, reserved1=0, accN=10.0, accE=10.0, accD=15.5, accLength=10.1, accHeading=0.98549, reserved2=0, gnssFixOK=1, diffSoln=1, relPosValid=1, carrSoln=2, isMoving=1, refPosMiss=0, refObsMiss=0, relPosHeadingValid=1, relPosNormalized=0)>
2026-06-07 14:47:58,759 - INFO - 2026-06-07 14:47:58, current_target: {'timestamp': '2026-05-10 13:40:05', 'lat': 37.9008713333, 'lon': -97.66418, 'speed': 0.004629996, 'y_offset': 0.0, 'x_offset': 0.0, 'z_offset': 0.0, 'heading': 1.76477}, next_target: {'timestamp': '2026-05-10 13:40:06', 'lat': 37.9008713333, 'lon': -97.66418, 'speed': 0.00514444, 'y_offset': 0.0, 'x_offset': 0.0, 'z_offset': 0.0, 'heading': 1.76299}
2026-06-07 14:47:58,759 - INFO - 2026-06-07 14:47:58 [3.4 OBSERVED] current_turn_radius: infm
2026-06-07 14:47:58,759 - INFO - 2026-06-07 14:47:58 [3.4 OBSERVED] turn_direction: LEFT
2026-06-07 14:47:58,759 - INFO - 2026-06-07 14:47:58 [3.4 OBSERVED] estimated left/right wheel speeds: nan, nan rad/s
2026-06-07 14:47:58,761 - INFO - 2026-06-07 14:47:58 [STATE] Current state: NAVIGATING_TO_START
2026-06-07 14:47:58,761 - INFO - 2026-06-07 14:47:58 [NAV_TO_START] Phase: PIVOT_TO_BEARING, Dist: 2.374m, Bearing err: -42.9°, Heading diff: 70.4°, Elapsed: 0.1s
2026-06-07 14:47:58,761 - INFO - 2026-06-07 14:47:58 [NAV_TO_START] PIVOT_TO_BEARING LEFT: heading=72.1°, bearing=29.2°, error=-42.9°, force=aggressive
2026-06-07 14:47:58,775 - INFO - goto_positions: M1=1280, M2=920 [Pivot to bearing LEFT]
2026-06-07 14:47:58,776 - INFO - <UBX(RXM-RTCM, version=2, crcFailed=0, msgUsed=2, subType=0, refStation=0, msgType=4072)>
2026-06-07 14:47:58,776 - INFO - <UBX(RXM-RTCM, version=2, crcFailed=0, msgUsed=2, subType=0, refStation=0, msgType=1074)>
2026-06-07 14:47:58,776 - INFO - <UBX(RXM-RTCM, version=2, crcFailed=0, msgUsed=2, subType=0, refStation=0, msgType=1084)>
2026-06-07 14:47:58,776 - INFO - <UBX(RXM-RTCM, version=2, crcFailed=0, msgUsed=2, subType=0, refStation=0, msgType=1094)>
2026-06-07 14:47:58,776 - INFO - <UBX(RXM-RTCM, version=2, crcFailed=0, msgUsed=2, subType=0, refStation=0, msgType=1124)>
2026-06-07 14:47:58,776 - INFO - <UBX(RXM-RTCM, version=2, crcFailed=0, msgUsed=2, subType=0, refStation=0, msgType=1230)>
2026-06-07 14:47:58,776 - INFO - <UBX(RXM-RTCM, version=2, crcFailed=0, msgUsed=2, subType=0, refStation=0, msgType=4072)>
2026-06-07 14:47:58,777 - INFO - <UBX(NAV-PVT, iTOW=19:47:58.600000, year=2026, month=6, day=7, hour=19, min=47, second=58, validDate=1, validTime=1, fullyResolved=1, validMag=0, tAcc=22, nano=600073948, fixType=3, gnssFixOk=1, diffSoln=1, psmState=0, headVehValid=0, carrSoln=2, confirmedAvai=1, confirmedDate=1, confirmedTime=1, numSV=31, lon=-97.6641932, lat=37.9008525, height=405665, hMSL=431917, hAcc=1506, vAcc=1960, velN=5, velE=-8, velD=17, gSpeed=10, headMot=220.80154, sAcc=83, headAcc=180.0, pDOP=0.93, invalidLlh=0, lastCorrectionAge=1, reserved0=860630572, headVeh=0.0, magDec=0.0, magAcc=0.0)>
2026-06-07 14:47:58,777 - INFO - <NMEA(GNRMC, time=19:47:58.600000, status=A, lat=37.9008525, NS=N, lon=-97.6641931667, EW=W, spd=0.019, cog=, date=2026-06-07, mv=, mvEW=, posMode=R, navStatus=V)>
2026-06-07 14:47:58,777 - INFO - <NMEA(GNVTG, cogt=, cogtUnit=T, cogm=, cogmUnit=M, sogn=0.019, sognUnit=N, sogk=0.034, sogkUnit=K, posMode=D)>
2026-06-07 14:47:58,778 - INFO - <NMEA(GNGGA, time=19:47:58.600000, lat=37.9008525, NS=N, lon=-97.6641931667, EW=W, quality=4, numSV=12, HDOP=0.54, alt=431.9, altUnit=M, sep=-26.3, sepUnit=M, diffAge=0.2, diffStation=0)>
2026-06-07 14:47:58,778 - INFO - <NMEA(GNGSA, opMode=M, navMode=3, svid_01=5, svid_02=10, svid_03=15, svid_04=18, svid_05=20, svid_06=46, svid_07=23, svid_08=24, svid_09=44, svid_10=29, svid_11=48, svid_12=, PDOP=0.93, HDOP=0.54, VDOP=0.75, systemId=1)>
2026-06-07 14:47:58,779 - INFO - <NMEA(GNGSA, opMode=M, navMode=3, svid_01=71, svid_02=70, svid_03=86, svid_04=69, svid_05=84, svid_06=85, svid_07=, svid_08=, svid_09=, svid_10=, svid_11=, svid_12=, PDOP=0.93, HDOP=0.54, VDOP=0.75, systemId=2)>
2026-06-07 14:47:58,779 - INFO - <NMEA(GNGSA, opMode=M, navMode=3, svid_01=3, svid_02=5, svid_03=8, svid_04=13, svid_05=15, svid_06=27, svid_07=34, svid_08=, svid_09=, svid_10=, svid_11=, svid_12=, PDOP=0.93, HDOP=0.54, VDOP=0.75, systemId=3)>
2026-06-07 14:47:58,780 - INFO - <NMEA(GNGSA, opMode=M, navMode=3, svid_01=13, svid_02=27, svid_03=28, svid_04=33, svid_05=38, svid_06=41, svid_07=42, svid_08=, svid_09=, svid_10=, svid_11=, svid_12=, PDOP=0.93, HDOP=0.54, VDOP=0.75, systemId=4)>
2026-06-07 14:47:58,780 - INFO - <NMEA(GNGSA, opMode=M, navMode=3, svid_01=, svid_02=, svid_03=, svid_04=, svid_05=, svid_06=, svid_07=, svid_08=, svid_09=, svid_10=, svid_11=, svid_12=, PDOP=0.93, HDOP=0.54, VDOP=0.75, systemId=5)>
2026-06-07 14:47:58,780 - INFO - <NMEA(GPGSV, numMsg=3, msgNum=1, numSV=12, svid_01=5, elv_01=20.0, az_01=60, cno_01=46, svid_02=10, elv_02=21.0, az_02=258, cno_02=37, svid_03=15, elv_03=66.0, az_03=73, cno_03=42, svid_04=18, elv_04=70.0, az_04=345, cno_04=48, signalID=1)>
2026-06-07 14:47:58,781 - INFO - <NMEA(GPGSV, numMsg=3, msgNum=2, numSV=12, svid_01=20, elv_01=39.0, az_01=52, cno_01=47, svid_02=23, elv_02=53.0, az_02=279, cno_02=35, svid_03=24, elv_03=15.0, az_03=134, cno_03=35, svid_04=26, elv_04=1.0, az_04=266, cno_04=26, signalID=1)>
2026-06-07 14:47:58,781 - INFO - <NMEA(GPGSV, numMsg=3, msgNum=3, numSV=12, svid_01=29, elv_01=42.0, az_01=181, cno_01=29, svid_02=44, elv_02=42.0, az_02=210, cno_02=37, svid_03=46, elv_03=35.0, az_03=225, cno_03=42, svid_04=48, elv_04=38.0, az_04=220, cno_04=35, signalID=1)>
2026-06-07 14:47:58,782 - INFO - <NMEA(GPGSV, numMsg=3, msgNum=1, numSV=10, svid_01=5, elv_01=20.0, az_01=60, cno_01=36, svid_02=10, elv_02=21.0, az_02=258, cno_02=22, svid_03=15, elv_03=66.0, az_03=73, cno_03=41, svid_04=18, elv_04=70.0, az_04=345, cno_04=45, signalID=6)>
2026-06-07 14:47:58,782 - INFO - <NMEA(GPGSV, numMsg=3, msgNum=2, numSV=10, svid_01=20, elv_01=39.0, az_01=52, cno_01=40, svid_02=23, elv_02=53.0, az_02=279, cno_02=41, svid_03=24, elv_03=15.0, az_03=134, cno_03=30, svid_04=26, elv_04=1.0, az_04=266, cno_04=16, signalID=6)>
2026-06-07 14:47:58,783 - INFO - <NMEA(GPGSV, numMsg=3, msgNum=3, numSV=10, svid_01=27, elv_01=9.0, az_01=322, cno_01=22, svid_02=29, elv_02=42.0, az_02=181, cno_02=30, signalID=6)>
2026-06-07 14:47:58,783 - INFO - <NMEA(GPGSV, numMsg=1, msgNum=1, numSV=1, svid_01=16, elv_01=8.0, az_01=292, cno_01=, signalID=0)>
2026-06-07 14:47:58,783 - INFO - <NMEA(GLGSV, numMsg=2, msgNum=1, numSV=6, svid_01=69, elv_01=24.0, az_01=32, cno_01=48, svid_02=70, elv_02=77.0, az_02=29, cno_02=49, svid_03=71, elv_03=38.0, az_03=214, cno_03=45, svid_04=84, elv_04=35.0, az_04=123, cno_04=44, signalID=1)>
2026-06-07 14:47:58,784 - INFO - <NMEA(GLGSV, numMsg=2, msgNum=2, numSV=6, svid_01=85, elv_01=75.0, az_01=58, cno_01=44, svid_02=86, elv_02=25.0, az_02=324, cno_02=28, signalID=1)>
2026-06-07 14:47:58,784 - INFO - <NMEA(GLGSV, numMsg=2, msgNum=1, numSV=6, svid_01=69, elv_01=24.0, az_01=32, cno_01=34, svid_02=70, elv_02=77.0, az_02=29, cno_02=39, svid_03=71, elv_03=38.0, az_03=214, cno_03=36, svid_04=84, elv_04=35.0, az_04=123, cno_04=45, signalID=3)>
2026-06-07 14:47:58,784 - INFO - <NMEA(GLGSV, numMsg=2, msgNum=2, numSV=6, svid_01=85, elv_01=75.0, az_01=58, cno_01=34, svid_02=86, elv_02=25.0, az_02=324, cno_02=28, signalID=3)>
2026-06-07 14:47:58,785 - INFO - <NMEA(GAGSV, numMsg=3, msgNum=1, numSV=11, svid_01=3, elv_01=54.0, az_01=149, cno_01=39, svid_02=5, elv_02=43.0, az_02=62, cno_02=44, svid_03=8, elv_03=14.0, az_03=192, cno_03=29, svid_04=9, elv_04=2.0, az_04=32, cno_04=29, signalID=2)>
2026-06-07 14:47:58,785 - INFO - <NMEA(GAGSV, numMsg=3, msgNum=2, numSV=11, svid_01=13, elv_01=11.0, az_01=297, cno_01=29, svid_02=15, elv_02=58.0, az_02=327, cno_02=50, svid_03=21, elv_03=8.0, az_03=313, cno_03=28, svid_04=27, elv_04=18.0, az_04=263, cno_04=33, signalID=2)>
2026-06-07 14:47:58,786 - INFO - <NMEA(GAGSV, numMsg=3, msgNum=3, numSV=11, svid_01=30, elv_01=8.0, az_01=216, cno_01=29, svid_02=34, elv_02=54.0, az_02=79, cno_02=47, svid_03=36, elv_03=7.0, az_03=104, cno_03=46, signalID=2)>
2026-06-07 14:47:58,786 - INFO - <NMEA(GAGSV, numMsg=3, msgNum=1, numSV=11, svid_01=3, elv_01=54.0, az_01=149, cno_01=39, svid_02=5, elv_02=43.0, az_02=62, cno_02=45, svid_03=9, elv_03=2.0, az_03=32, cno_03=48, svid_04=13, elv_04=11.0, az_04=297, cno_04=25, signalID=7)>
2026-06-07 14:47:58,787 - INFO - <NMEA(GAGSV, numMsg=3, msgNum=2, numSV=11, svid_01=15, elv_01=58.0, az_01=327, cno_01=45, svid_02=21, elv_02=8.0, az_02=313, cno_02=20, svid_03=27, elv_03=18.0, az_03=263, cno_03=31, svid_04=30, elv_04=8.0, az_04=216, cno_04=19, signalID=7)>
2026-06-07 14:47:58,787 - INFO - <NMEA(GAGSV, numMsg=3, msgNum=3, numSV=11, svid_01=32, elv_01=34.0, az_01=178, cno_01=29, svid_02=34, elv_02=54.0, az_02=79, cno_02=47, svid_03=36, elv_03=7.0, az_03=104, cno_03=37, signalID=7)>
2026-06-07 14:47:58,788 - INFO - <NMEA(GBGSV, numMsg=2, msgNum=1, numSV=7, svid_01=13, elv_01=63.0, az_01=146, cno_01=39, svid_02=27, elv_02=38.0, az_02=312, cno_02=43, svid_03=28, elv_03=82.0, az_03=278, cno_03=45, svid_04=33, elv_04=76.0, az_04=41, cno_04=44, signalID=1)>
2026-06-07 14:47:58,788 - INFO - <NMEA(GBGSV, numMsg=2, msgNum=2, numSV=7, svid_01=38, elv_01=36.0, az_01=143, cno_01=40, svid_02=41, elv_02=50.0, az_02=226, cno_02=41, svid_03=42, elv_03=19.0, az_03=45, cno_03=41, signalID=1)>
2026-06-07 14:47:58,788 - INFO - <NMEA(GQGSV, numMsg=1, msgNum=1, numSV=0, signalID=0)>
2026-06-07 14:47:58,788 - INFO - <NMEA(GNGLL, lat=37.9008525, NS=N, lon=-97.6641931667, EW=W, time=19:47:58.600000, status=A, posMode=D)>
2026-06-07 14:47:58,789 - INFO - <UBX(NAV-RELPOSNED, version=1, reserved0=0, refStationID=0, iTOW=19:47:58.600000, relPosN=18.28, relPosE=55.13, relPosD=5.34, relPosLength=58.33, relPosHeading=71.65203, reserved1=0, accN=10.0, accE=10.0, accD=14.7, accLength=10.0, accHeading=0.98644, reserved2=0, gnssFixOK=1, diffSoln=1, relPosValid=1, carrSoln=2, isMoving=1, refPosMiss=0, refObsMiss=0, relPosHeadingValid=1, relPosNormalized=0)>
2026-06-07 14:47:58,790 - INFO - 2026-06-07 14:47:58, current_target: {'timestamp': '2026-05-10 13:40:05', 'lat': 37.9008713333, 'lon': -97.66418, 'speed': 0.004629996, 'y_offset': 0.0, 'x_offset': 0.0, 'z_offset': 0.0, 'heading': 1.76477}, next_target: {'timestamp': '2026-05-10 13:40:06', 'lat': 37.9008713333, 'lon': -97.66418, 'speed': 0.00514444, 'y_offset': 0.0, 'x_offset': 0.0, 'z_offset': 0.0, 'heading': 1.76299}
2026-06-07 14:47:58,790 - INFO - 2026-06-07 14:47:58 [3.4 OBSERVED] current_turn_radius: infm
2026-06-07 14:47:58,790 - INFO - 2026-06-07 14:47:58 [3.4 OBSERVED] turn_direction: LEFT
2026-06-07 14:47:58,790 - INFO - 2026-06-07 14:47:58 [3.4 OBSERVED] estimated left/right wheel speeds: nan, nan rad/s
2026-06-07 14:47:58,793 - INFO - 2026-06-07 14:47:58 [STATE] Current state: NAVIGATING_TO_START
2026-06-07 14:47:58,793 - INFO - 2026-06-07 14:47:58 [NAV_TO_START] Phase: PIVOT_TO_BEARING, Dist: 2.390m, Bearing err: -42.7°, Heading diff: 69.9°, Elapsed: 0.1s
2026-06-07 14:47:58,793 - INFO - 2026-06-07 14:47:58 [NAV_TO_START] PIVOT_TO_BEARING LEFT: heading=71.7°, bearing=29.0°, error=-42.7°, force=aggressive
2026-06-07 14:47:58,807 - INFO - goto_positions: M1=1280, M2=920 [Pivot to bearing LEFT]
2026-06-07 14:47:58,849 - INFO - <UBX(RXM-RTCM, version=2, crcFailed=0, msgUsed=2, subType=0, refStation=0, msgType=1074)>
2026-06-07 14:47:58,852 - INFO - <UBX(RXM-RTCM, version=2, crcFailed=0, msgUsed=2, subType=0, refStation=0, msgType=1084)>
2026-06-07 14:47:58,854 - INFO - <UBX(RXM-RTCM, version=2, crcFailed=0, msgUsed=2, subType=0, refStation=0, msgType=1094)>
2026-06-07 14:47:58,856 - INFO - <UBX(RXM-RTCM, version=2, crcFailed=0, msgUsed=2, subType=0, refStation=0, msgType=1124)>
2026-06-07 14:47:58,856 - INFO - <UBX(RXM-RTCM, version=2, crcFailed=0, msgUsed=2, subType=0, refStation=0, msgType=1230)>
2026-06-07 14:47:58,894 - INFO - <UBX(NAV-PVT, iTOW=19:47:58.800000, year=2026, month=6, day=7, hour=19, min=47, second=58, validDate=1, validTime=1, fullyResolved=1, validMag=0, tAcc=22, nano=800073904, fixType=3, gnssFixOk=1, diffSoln=1, psmState=0, headVehValid=0, carrSoln=2, confirmedAvai=1, confirmedDate=1, confirmedTime=1, numSV=31, lon=-97.6641932, lat=37.9008525, height=405663, hMSL=431916, hAcc=1486, vAcc=1934, velN=9, velE=5, velD=-6, gSpeed=10, headMot=220.80154, sAcc=70, headAcc=180.0, pDOP=0.93, invalidLlh=0, lastCorrectionAge=1, reserved0=860630572, headVeh=0.0, magDec=0.0, magAcc=0.0)>
2026-06-07 14:47:58,894 - INFO - <NMEA(GNRMC, time=19:47:58.800000, status=A, lat=37.9008525, NS=N, lon=-97.6641931667, EW=W, spd=0.019, cog=, date=2026-06-07, mv=, mvEW=, posMode=R, navStatus=V)>
2026-06-07 14:47:58,895 - INFO - <NMEA(GNVTG, cogt=, cogtUnit=T, cogm=, cogmUnit=M, sogn=0.019, sognUnit=N, sogk=0.036, sogkUnit=K, posMode=D)>
2026-06-07 14:47:58,895 - INFO - <NMEA(GNGGA, time=19:47:58.800000, lat=37.9008525, NS=N, lon=-97.6641931667, EW=W, quality=4, numSV=12, HDOP=0.54, alt=431.9, altUnit=M, sep=-26.3, sepUnit=M, diffAge=0.2, diffStation=0)>
2026-06-07 14:47:58,896 - INFO - <NMEA(GNGSA, opMode=M, navMode=3, svid_01=5, svid_02=10, svid_03=15, svid_04=18, svid_05=20, svid_06=46, svid_07=23, svid_08=24, svid_09=44, svid_10=29, svid_11=48, svid_12=, PDOP=0.93, HDOP=0.54, VDOP=0.75, systemId=1)>
2026-06-07 14:47:58,896 - INFO - <NMEA(GNGSA, opMode=M, navMode=3, svid_01=71, svid_02=70, svid_03=86, svid_04=69, svid_05=84, svid_06=85, svid_07=, svid_08=, svid_09=, svid_10=, svid_11=, svid_12=, PDOP=0.93, HDOP=0.54, VDOP=0.75, systemId=2)>
2026-06-07 14:47:58,896 - INFO - <NMEA(GNGSA, opMode=M, navMode=3, svid_01=3, svid_02=5, svid_03=8, svid_04=13, svid_05=15, svid_06=27, svid_07=34, svid_08=, svid_09=, svid_10=, svid_11=, svid_12=, PDOP=0.93, HDOP=0.54, VDOP=0.75, systemId=3)>
2026-06-07 14:47:58,897 - INFO - <NMEA(GNGSA, opMode=M, navMode=3, svid_01=13, svid_02=27, svid_03=28, svid_04=33, svid_05=38, svid_06=41, svid_07=42, svid_08=, svid_09=, svid_10=, svid_11=, svid_12=, PDOP=0.93, HDOP=0.54, VDOP=0.75, systemId=4)>
2026-06-07 14:47:58,897 - INFO - <NMEA(GNGSA, opMode=M, navMode=3, svid_01=, svid_02=, svid_03=, svid_04=, svid_05=, svid_06=, svid_07=, svid_08=, svid_09=, svid_10=, svid_11=, svid_12=, PDOP=0.93, HDOP=0.54, VDOP=0.75, systemId=5)>
2026-06-07 14:47:58,898 - INFO - <NMEA(GPGSV, numMsg=3, msgNum=1, numSV=12, svid_01=5, elv_01=20.0, az_01=60, cno_01=46, svid_02=10, elv_02=21.0, az_02=258, cno_02=37, svid_03=15, elv_03=66.0, az_03=73, cno_03=42, svid_04=18, elv_04=70.0, az_04=345, cno_04=48, signalID=1)>
2026-06-07 14:47:58,898 - INFO - <NMEA(GPGSV, numMsg=3, msgNum=2, numSV=12, svid_01=20, elv_01=39.0, az_01=52, cno_01=47, svid_02=23, elv_02=53.0, az_02=279, cno_02=35, svid_03=24, elv_03=15.0, az_03=134, cno_03=35, svid_04=26, elv_04=1.0, az_04=266, cno_04=26, signalID=1)>
2026-06-07 14:47:58,899 - INFO - <NMEA(GPGSV, numMsg=3, msgNum=3, numSV=12, svid_01=29, elv_01=42.0, az_01=181, cno_01=28, svid_02=44, elv_02=42.0, az_02=210, cno_02=37, svid_03=46, elv_03=35.0, az_03=225, cno_03=42, svid_04=48, elv_04=38.0, az_04=220, cno_04=35, signalID=1)>
2026-06-07 14:47:58,899 - INFO - <NMEA(GPGSV, numMsg=3, msgNum=1, numSV=10, svid_01=5, elv_01=20.0, az_01=60, cno_01=36, svid_02=10, elv_02=21.0, az_02=258, cno_02=22, svid_03=15, elv_03=66.0, az_03=73, cno_03=41, svid_04=18, elv_04=70.0, az_04=345, cno_04=45, signalID=6)>
2026-06-07 14:47:58,900 - INFO - <NMEA(GPGSV, numMsg=3, msgNum=2, numSV=10, svid_01=20, elv_01=39.0, az_01=52, cno_01=40, svid_02=23, elv_02=53.0, az_02=279, cno_02=41, svid_03=24, elv_03=15.0, az_03=134, cno_03=30, svid_04=26, elv_04=1.0, az_04=266, cno_04=16, signalID=6)>
2026-06-07 14:47:58,900 - INFO - <NMEA(GPGSV, numMsg=3, msgNum=3, numSV=10, svid_01=27, elv_01=9.0, az_01=322, cno_01=23, svid_02=29, elv_02=42.0, az_02=181, cno_02=31, signalID=6)>
2026-06-07 14:47:58,900 - INFO - <NMEA(GPGSV, numMsg=1, msgNum=1, numSV=1, svid_01=16, elv_01=8.0, az_01=292, cno_01=, signalID=0)>
2026-06-07 14:47:58,901 - INFO - <NMEA(GLGSV, numMsg=2, msgNum=1, numSV=6, svid_01=69, elv_01=24.0, az_01=32, cno_01=48, svid_02=70, elv_02=77.0, az_02=29, cno_02=49, svid_03=71, elv_03=38.0, az_03=214, cno_03=45, svid_04=84, elv_04=35.0, az_04=123, cno_04=44, signalID=1)>
2026-06-07 14:47:58,901 - INFO - <NMEA(GLGSV, numMsg=2, msgNum=2, numSV=6, svid_01=85, elv_01=75.0, az_01=58, cno_01=44, svid_02=86, elv_02=25.0, az_02=324, cno_02=32, signalID=1)>
2026-06-07 14:47:58,901 - INFO - <NMEA(GLGSV, numMsg=2, msgNum=1, numSV=6, svid_01=69, elv_01=24.0, az_01=32, cno_01=35, svid_02=70, elv_02=77.0, az_02=29, cno_02=40, svid_03=71, elv_03=38.0, az_03=214, cno_03=36, svid_04=84, elv_04=35.0, az_04=123, cno_04=45, signalID=3)>
2026-06-07 14:47:58,902 - INFO - <NMEA(GLGSV, numMsg=2, msgNum=2, numSV=6, svid_01=85, elv_01=75.0, az_01=58, cno_01=34, svid_02=86, elv_02=25.0, az_02=324, cno_02=28, signalID=3)>
2026-06-07 14:47:58,902 - INFO - <NMEA(GAGSV, numMsg=3, msgNum=1, numSV=11, svid_01=3, elv_01=54.0, az_01=149, cno_01=39, svid_02=5, elv_02=43.0, az_02=62, cno_02=44, svid_03=8, elv_03=14.0, az_03=192, cno_03=28, svid_04=9, elv_04=2.0, az_04=32, cno_04=29, signalID=2)>
2026-06-07 14:47:58,903 - INFO - <NMEA(GAGSV, numMsg=3, msgNum=2, numSV=11, svid_01=13, elv_01=11.0, az_01=297, cno_01=29, svid_02=15, elv_02=58.0, az_02=327, cno_02=50, svid_03=21, elv_03=8.0, az_03=313, cno_03=29, svid_04=27, elv_04=18.0, az_04=263, cno_04=33, signalID=2)>
2026-06-07 14:47:58,903 - INFO - <NMEA(GAGSV, numMsg=3, msgNum=3, numSV=11, svid_01=30, elv_01=8.0, az_01=216, cno_01=29, svid_02=34, elv_02=54.0, az_02=79, cno_02=48, svid_03=36, elv_03=7.0, az_03=104, cno_03=46, signalID=2)>
2026-06-07 14:47:58,904 - INFO - <NMEA(GAGSV, numMsg=3, msgNum=1, numSV=11, svid_01=3, elv_01=54.0, az_01=149, cno_01=39, svid_02=5, elv_02=43.0, az_02=62, cno_02=45, svid_03=9, elv_03=2.0, az_03=32, cno_03=48, svid_04=13, elv_04=11.0, az_04=297, cno_04=26, signalID=7)>
2026-06-07 14:47:58,904 - INFO - <NMEA(GAGSV, numMsg=3, msgNum=2, numSV=11, svid_01=15, elv_01=58.0, az_01=327, cno_01=45, svid_02=21, elv_02=8.0, az_02=313, cno_02=20, svid_03=27, elv_03=18.0, az_03=263, cno_03=31, svid_04=30, elv_04=8.0, az_04=216, cno_04=19, signalID=7)>
2026-06-07 14:47:58,904 - INFO - <NMEA(GAGSV, numMsg=3, msgNum=3, numSV=11, svid_01=32, elv_01=34.0, az_01=178, cno_01=29, svid_02=34, elv_02=54.0, az_02=79, cno_02=47, svid_03=36, elv_03=7.0, az_03=104, cno_03=37, signalID=7)>
2026-06-07 14:47:58,905 - INFO - <NMEA(GBGSV, numMsg=2, msgNum=1, numSV=7, svid_01=13, elv_01=63.0, az_01=146, cno_01=39, svid_02=27, elv_02=38.0, az_02=312, cno_02=43, svid_03=28, elv_03=82.0, az_03=278, cno_03=45, svid_04=33, elv_04=76.0, az_04=41, cno_04=44, signalID=1)>
2026-06-07 14:47:58,905 - INFO - <NMEA(GBGSV, numMsg=2, msgNum=2, numSV=7, svid_01=38, elv_01=36.0, az_01=143, cno_01=40, svid_02=41, elv_02=50.0, az_02=226, cno_02=41, svid_03=42, elv_03=19.0, az_03=45, cno_03=40, signalID=1)>
2026-06-07 14:47:58,905 - INFO - <UBX(RXM-RTCM, version=2, crcFailed=0, msgUsed=2, subType=0, refStation=0, msgType=4072)>
2026-06-07 14:47:58,906 - INFO - <NMEA(GQGSV, numMsg=1, msgNum=1, numSV=0, signalID=0)>
2026-06-07 14:47:58,906 - INFO - <NMEA(GNGLL, lat=37.9008525, NS=N, lon=-97.6641931667, EW=W, time=19:47:58.800000, status=A, posMode=D)>
2026-06-07 14:47:58,906 - INFO - <UBX(NAV-RELPOSNED, version=1, reserved0=0, refStationID=0, iTOW=19:47:58.800000, relPosN=18.0, relPosE=55.08, relPosD=5.45, relPosLength=58.2, relPosHeading=71.90094, reserved1=0, accN=10.0, accE=10.0, accD=14.6, accLength=10.0, accHeading=0.98872, reserved2=0, gnssFixOK=1, diffSoln=1, relPosValid=1, carrSoln=2, isMoving=1, refPosMiss=0, refObsMiss=0, relPosHeadingValid=1, relPosNormalized=0)>
2026-06-07 14:47:58,907 - INFO - 2026-06-07 14:47:58, current_target: {'timestamp': '2026-05-10 13:40:05', 'lat': 37.9008713333, 'lon': -97.66418, 'speed': 0.004629996, 'y_offset': 0.0, 'x_offset': 0.0, 'z_offset': 0.0, 'heading': 1.76477}, next_target: {'timestamp': '2026-05-10 13:40:06', 'lat': 37.9008713333, 'lon': -97.66418, 'speed': 0.00514444, 'y_offset': 0.0, 'x_offset': 0.0, 'z_offset': 0.0, 'heading': 1.76299}
2026-06-07 14:47:58,907 - INFO - 2026-06-07 14:47:58 [3.4 OBSERVED] current_turn_radius: infm
2026-06-07 14:47:58,908 - INFO - 2026-06-07 14:47:58 [3.4 OBSERVED] turn_direction: RIGHT
2026-06-07 14:47:58,908 - INFO - 2026-06-07 14:47:58 [3.4 OBSERVED] estimated left/right wheel speeds: nan, nan rad/s
2026-06-07 14:47:58,911 - INFO - 2026-06-07 14:47:58 [STATE] Current state: NAVIGATING_TO_START
2026-06-07 14:47:58,911 - INFO - 2026-06-07 14:47:58 [NAV_TO_START] Phase: PIVOT_TO_BEARING, Dist: 2.390m, Bearing err: -42.9°, Heading diff: 70.1°, Elapsed: 0.2s
2026-06-07 14:47:58,911 - INFO - 2026-06-07 14:47:58 [NAV_TO_START] PIVOT_TO_BEARING LEFT: heading=71.9°, bearing=29.0°, error=-42.9°, force=aggressive
2026-06-07 14:47:58,926 - INFO - goto_positions: M1=1280, M2=920 [Pivot to bearing LEFT]
2026-06-07 14:47:59,049 - INFO - <UBX(RXM-RTCM, version=2, crcFailed=0, msgUsed=2, subType=0, refStation=0, msgType=1074)>
2026-06-07 14:47:59,049 - INFO - <UBX(RXM-RTCM, version=2, crcFailed=0, msgUsed=2, subType=0, refStation=0, msgType=1084)>
2026-06-07 14:47:59,054 - INFO - <UBX(RXM-RTCM, version=2, crcFailed=0, msgUsed=2, subType=0, refStation=0, msgType=1094)>
2026-06-07 14:47:59,056 - INFO - <UBX(RXM-RTCM, version=2, crcFailed=0, msgUsed=2, subType=0, refStation=0, msgType=1124)>
2026-06-07 14:47:59,057 - INFO - <UBX(RXM-RTCM, version=2, crcFailed=0, msgUsed=2, subType=0, refStation=0, msgType=1230)>
2026-06-07 14:47:59,102 - INFO - <UBX(NAV-PVT, iTOW=19:47:59, year=2026, month=6, day=7, hour=19, min=47, second=59, validDate=1, validTime=1, fullyResolved=1, validMag=0, tAcc=22, nano=73859, fixType=3, gnssFixOk=1, diffSoln=1, psmState=0, headVehValid=0, carrSoln=2, confirmedAvai=1, confirmedDate=1, confirmedTime=1, numSV=31, lon=-97.6641932, lat=37.9008525, height=405660, hMSL=431913, hAcc=1470, vAcc=1914, velN=-7, velE=-9, velD=4, gSpeed=11, headMot=220.80154, sAcc=66, headAcc=180.0, pDOP=0.93, invalidLlh=0, lastCorrectionAge=1, reserved0=860630572, headVeh=0.0, magDec=0.0, magAcc=0.0)>
2026-06-07 14:47:59,102 - INFO - <NMEA(GNRMC, time=19:47:59, status=A, lat=37.9008525, NS=N, lon=-97.6641931667, EW=W, spd=0.022, cog=, date=2026-06-07, mv=, mvEW=, posMode=R, navStatus=V)>
2026-06-07 14:47:59,103 - INFO - <NMEA(GNVTG, cogt=, cogtUnit=T, cogm=, cogmUnit=M, sogn=0.022, sognUnit=N, sogk=0.041, sogkUnit=K, posMode=D)>
2026-06-07 14:47:59,103 - INFO - <NMEA(GNGGA, time=19:47:59, lat=37.9008525, NS=N, lon=-97.6641931667, EW=W, quality=4, numSV=12, HDOP=0.54, alt=431.9, altUnit=M, sep=-26.3, sepUnit=M, diffAge=0.2, diffStation=0)>
2026-06-07 14:47:59,104 - INFO - <NMEA(GNGSA, opMode=M, navMode=3, svid_01=5, svid_02=10, svid_03=15, svid_04=18, svid_05=20, svid_06=46, svid_07=23, svid_08=24, svid_09=44, svid_10=29, svid_11=48, svid_12=, PDOP=0.93, HDOP=0.54, VDOP=0.75, systemId=1)>
2026-06-07 14:47:59,104 - INFO - <NMEA(GNGSA, opMode=M, navMode=3, svid_01=71, svid_02=70, svid_03=86, svid_04=69, svid_05=84, svid_06=85, svid_07=, svid_08=, svid_09=, svid_10=, svid_11=, svid_12=, PDOP=0.93, HDOP=0.54, VDOP=0.75, systemId=2)>
2026-06-07 14:47:59,104 - INFO - <NMEA(GNGSA, opMode=M, navMode=3, svid_01=3, svid_02=5, svid_03=8, svid_04=13, svid_05=15, svid_06=27, svid_07=34, svid_08=, svid_09=, svid_10=, svid_11=, svid_12=, PDOP=0.93, HDOP=0.54, VDOP=0.75, systemId=3)>
2026-06-07 14:47:59,105 - INFO - <NMEA(GNGSA, opMode=M, navMode=3, svid_01=13, svid_02=27, svid_03=28, svid_04=33, svid_05=38, svid_06=41, svid_07=42, svid_08=, svid_09=, svid_10=, svid_11=, svid_12=, PDOP=0.93, HDOP=0.54, VDOP=0.75, systemId=4)>
2026-06-07 14:47:59,105 - INFO - <NMEA(GNGSA, opMode=M, navMode=3, svid_01=, svid_02=, svid_03=, svid_04=, svid_05=, svid_06=, svid_07=, svid_08=, svid_09=, svid_10=, svid_11=, svid_12=, PDOP=0.93, HDOP=0.54, VDOP=0.75, systemId=5)>
2026-06-07 14:47:59,106 - INFO - <NMEA(GPGSV, numMsg=3, msgNum=1, numSV=12, svid_01=5, elv_01=20.0, az_01=60, cno_01=46, svid_02=10, elv_02=21.0, az_02=258, cno_02=37, svid_03=15, elv_03=66.0, az_03=73, cno_03=42, svid_04=18, elv_04=70.0, az_04=345, cno_04=48, signalID=1)>
2026-06-07 14:47:59,106 - INFO - <NMEA(GPGSV, numMsg=3, msgNum=2, numSV=12, svid_01=20, elv_01=39.0, az_01=52, cno_01=48, svid_02=23, elv_02=53.0, az_02=279, cno_02=35, svid_03=24, elv_03=15.0, az_03=134, cno_03=35, svid_04=26, elv_04=1.0, az_04=266, cno_04=26, signalID=1)>
2026-06-07 14:47:59,107 - INFO - <NMEA(GPGSV, numMsg=3, msgNum=3, numSV=12, svid_01=29, elv_01=42.0, az_01=181, cno_01=28, svid_02=44, elv_02=42.0, az_02=210, cno_02=38, svid_03=46, elv_03=35.0, az_03=225, cno_03=42, svid_04=48, elv_04=38.0, az_04=220, cno_04=35, signalID=1)>
2026-06-07 14:47:59,107 - INFO - <NMEA(GPGSV, numMsg=3, msgNum=1, numSV=10, svid_01=5, elv_01=20.0, az_01=60, cno_01=35, svid_02=10, elv_02=21.0, az_02=258, cno_02=22, svid_03=15, elv_03=66.0, az_03=73, cno_03=41, svid_04=18, elv_04=70.0, az_04=345, cno_04=45, signalID=6)>
2026-06-07 14:47:59,108 - INFO - <NMEA(GPGSV, numMsg=3, msgNum=2, numSV=10, svid_01=20, elv_01=39.0, az_01=52, cno_01=40, svid_02=23, elv_02=53.0, az_02=279, cno_02=41, svid_03=24, elv_03=15.0, az_03=134, cno_03=30, svid_04=26, elv_04=1.0, az_04=266, cno_04=15, signalID=6)>
2026-06-07 14:47:59,108 - INFO - <NMEA(GPGSV, numMsg=3, msgNum=3, numSV=10, svid_01=27, elv_01=9.0, az_01=322, cno_01=23, svid_02=29, elv_02=42.0, az_02=181, cno_02=31, signalID=6)>
2026-06-07 14:47:59,108 - INFO - <NMEA(GPGSV, numMsg=1, msgNum=1, numSV=1, svid_01=16, elv_01=8.0, az_01=292, cno_01=, signalID=0)>
2026-06-07 14:47:59,109 - INFO - <NMEA(GLGSV, numMsg=2, msgNum=1, numSV=6, svid_01=69, elv_01=24.0, az_01=32, cno_01=48, svid_02=70, elv_02=77.0, az_02=29, cno_02=49, svid_03=71, elv_03=38.0, az_03=214, cno_03=45, svid_04=84, elv_04=35.0, az_04=123, cno_04=44, signalID=1)>
2026-06-07 14:47:59,109 - INFO - <NMEA(GLGSV, numMsg=2, msgNum=2, numSV=6, svid_01=85, elv_01=75.0, az_01=58, cno_01=43, svid_02=86, elv_02=25.0, az_02=324, cno_02=33, signalID=1)>
2026-06-07 14:47:59,109 - INFO - <NMEA(GLGSV, numMsg=2, msgNum=1, numSV=6, svid_01=69, elv_01=24.0, az_01=32, cno_01=35, svid_02=70, elv_02=77.0, az_02=29, cno_02=40, svid_03=71, elv_03=38.0, az_03=214, cno_03=36, svid_04=84, elv_04=35.0, az_04=123, cno_04=45, signalID=3)>
2026-06-07 14:47:59,110 - INFO - <NMEA(GLGSV, numMsg=2, msgNum=2, numSV=6, svid_01=85, elv_01=75.0, az_01=58, cno_01=34, svid_02=86, elv_02=25.0, az_02=324, cno_02=28, signalID=3)>
2026-06-07 14:47:59,110 - INFO - <NMEA(GAGSV, numMsg=3, msgNum=1, numSV=11, svid_01=3, elv_01=54.0, az_01=149, cno_01=39, svid_02=5, elv_02=43.0, az_02=62, cno_02=44, svid_03=8, elv_03=14.0, az_03=192, cno_03=28, svid_04=9, elv_04=2.0, az_04=32, cno_04=28, signalID=2)>
2026-06-07 14:47:59,111 - INFO - <NMEA(GAGSV, numMsg=3, msgNum=2, numSV=11, svid_01=13, elv_01=11.0, az_01=297, cno_01=29, svid_02=15, elv_02=58.0, az_02=327, cno_02=50, svid_03=21, elv_03=8.0, az_03=313, cno_03=29, svid_04=27, elv_04=18.0, az_04=263, cno_04=33, signalID=2)>
2026-06-07 14:47:59,111 - INFO - <NMEA(GAGSV, numMsg=3, msgNum=3, numSV=11, svid_01=30, elv_01=8.0, az_01=216, cno_01=29, svid_02=34, elv_02=54.0, az_02=79, cno_02=48, svid_03=36, elv_03=7.0, az_03=104, cno_03=46, signalID=2)>
2026-06-07 14:47:59,112 - INFO - <NMEA(GAGSV, numMsg=3, msgNum=1, numSV=11, svid_01=3, elv_01=54.0, az_01=149, cno_01=40, svid_02=5, elv_02=43.0, az_02=62, cno_02=44, svid_03=9, elv_03=2.0, az_03=32, cno_03=48, svid_04=13, elv_04=11.0, az_04=297, cno_04=26, signalID=7)>
2026-06-07 14:47:59,112 - INFO - <NMEA(GAGSV, numMsg=3, msgNum=2, numSV=11, svid_01=15, elv_01=58.0, az_01=327, cno_01=45, svid_02=21, elv_02=8.0, az_02=313, cno_02=19, svid_03=27, elv_03=18.0, az_03=263, cno_03=31, svid_04=30, elv_04=8.0, az_04=216, cno_04=18, signalID=7)>
2026-06-07 14:47:59,112 - INFO - <NMEA(GAGSV, numMsg=3, msgNum=3, numSV=11, svid_01=32, elv_01=34.0, az_01=178, cno_01=29, svid_02=34, elv_02=54.0, az_02=79, cno_02=47, svid_03=36, elv_03=7.0, az_03=104, cno_03=39, signalID=7)>
2026-06-07 14:47:59,113 - INFO - <NMEA(GBGSV, numMsg=2, msgNum=1, numSV=7, svid_01=13, elv_01=63.0, az_01=146, cno_01=39, svid_02=27, elv_02=38.0, az_02=312, cno_02=42, svid_03=28, elv_03=82.0, az_03=278, cno_03=45, svid_04=33, elv_04=76.0, az_04=41, cno_04=44, signalID=1)>
2026-06-07 14:47:59,113 - INFO - <NMEA(GBGSV, numMsg=2, msgNum=2, numSV=7, svid_01=38, elv_01=36.0, az_01=143, cno_01=40, svid_02=41, elv_02=50.0, az_02=226, cno_02=40, svid_03=42, elv_03=19.0, az_03=45, cno_03=40, signalID=1)>
2026-06-07 14:47:59,113 - INFO - <NMEA(GQGSV, numMsg=1, msgNum=1, numSV=0, signalID=0)>
2026-06-07 14:47:59,114 - INFO - <NMEA(GNGLL, lat=37.9008525, NS=N, lon=-97.6641931667, EW=W, time=19:47:59, status=A, posMode=D)>
2026-06-07 14:47:59,114 - INFO - <UBX(NAV-RELPOSNED, version=1, reserved0=0, refStationID=0, iTOW=19:47:59, relPosN=18.16, relPosE=55.01, relPosD=5.79, relPosLength=58.22, relPosHeading=71.72815, reserved1=0, accN=10.0, accE=10.0, accD=14.5, accLength=10.1, accHeading=0.98898, reserved2=0, gnssFixOK=1, diffSoln=1, relPosValid=1, carrSoln=2, isMoving=1, refPosMiss=0, refObsMiss=0, relPosHeadingValid=1, relPosNormalized=0)>
2026-06-07 14:47:59,115 - INFO - 2026-06-07 14:47:59, current_target: {'timestamp': '2026-05-10 13:40:05', 'lat': 37.9008713333, 'lon': -97.66418, 'speed': 0.004629996, 'y_offset': 0.0, 'x_offset': 0.0, 'z_offset': 0.0, 'heading': 1.76477}, next_target: {'timestamp': '2026-05-10 13:40:06', 'lat': 37.9008713333, 'lon': -97.66418, 'speed': 0.00514444, 'y_offset': 0.0, 'x_offset': 0.0, 'z_offset': 0.0, 'heading': 1.76299}
2026-06-07 14:47:59,115 - INFO - 2026-06-07 14:47:59 [3.4 OBSERVED] current_turn_radius: infm
2026-06-07 14:47:59,115 - INFO - 2026-06-07 14:47:59 [3.4 OBSERVED] turn_direction: LEFT
2026-06-07 14:47:59,115 - INFO - 2026-06-07 14:47:59 [3.4 OBSERVED] estimated left/right wheel speeds: nan, nan rad/s
2026-06-07 14:47:59,117 - INFO - 2026-06-07 14:47:59 [STATE] Current state: NAVIGATING_TO_START
2026-06-07 14:47:59,117 - INFO - 2026-06-07 14:47:59 [NAV_TO_START] Phase: PIVOT_TO_BEARING, Dist: 2.390m, Bearing err: -42.7°, Heading diff: 70.0°, Elapsed: 0.5s
2026-06-07 14:47:59,118 - INFO - 2026-06-07 14:47:59 [NAV_TO_START] PIVOT_TO_BEARING LEFT: heading=71.7°, bearing=29.0°, error=-42.7°, force=aggressive
