2026-06-07 14:59:50,921 - INFO - Logging initialized to /home/dali/Documents/ReMow-Rover-Tests/Repeat/Logs/readRecordedRun-2026-06-07_14-59-50.log
2026-06-07 14:59:50,923 - INFO - RoboClaw opened successfully on /dev/serial/by-id/usb-Basicmicro_Inc._USB_Roboclaw_2x15A-if00
2026-06-07 14:59:51,224 - INFO - Encoders reset to zero
2026-06-07 14:59:51,224 - INFO - Starting readRecordedRun with combination: 55
2026-06-07 14:59:51,224 - INFO - Selected most recent recording: 55_20260510-134004_GPSData.csv
2026-06-07 14:59:51,228 - INFO - GREEN_LED initialized on GPIO 17
2026-06-07 14:59:51,235 - INFO - Bootstrap: Initialized modifiers with estimate 73.86 mm/(rad/s)
2026-06-07 14:59:51,236 - INFO - ENU origin from first waypoint: 37.9008713333, -97.66418
2026-06-07 14:59:51,290 - INFO - goto_positions: M1=1100, M2=1100 [Startup - ensuring neutral position]
2026-06-07 14:59:51,290 - INFO - Actuators initialized to neutral (1100)
2026-06-07 14:59:51,290 - INFO - === STATE MACHINE INITIALIZED ===
2026-06-07 14:59:51,290 - INFO - Start waypoint: East=0.000m, North=0.000m, Heading=1.8°
2026-06-07 14:59:51,290 - INFO - Initial state: NAVIGATING_TO_START
2026-06-07 14:59:51,290 - INFO - Navigation timeout: 300.0s
2026-06-07 14:59:51,290 - INFO - === WAITING FOR GPS RTK FIX ===
2026-06-07 14:59:51,290 - INFO - Need: relPosValid=1, carrSoln=2, relPosHeadingValid=1 (timeout: 60.0s)
2026-06-07 14:59:51,303 - INFO - GPS status: relPosValid=1, carrSoln=2, headingValid=1 (0.0s)
2026-06-07 14:59:51,303 - INFO - === GPS RTK FIXED — ready to navigate (0.0s) ===
2026-06-07 14:59:51,304 - INFO - <UBX(RXM-RTCM, version=2, crcFailed=0, msgUsed=2, subType=0, refStation=0, msgType=4072)>
2026-06-07 14:59:51,304 - INFO - Using persisted heading from driving to work area: 73.27° (captured at 2026-06-07 14:57:56)
2026-06-07 14:59:51,439 - INFO - <UBX(RXM-RTCM, version=2, crcFailed=0, msgUsed=2, subType=0, refStation=0, msgType=1074)>
2026-06-07 14:59:51,441 - INFO - <UBX(RXM-RTCM, version=2, crcFailed=0, msgUsed=2, subType=0, refStation=0, msgType=1084)>
2026-06-07 14:59:51,445 - INFO - <UBX(RXM-RTCM, version=2, crcFailed=0, msgUsed=2, subType=0, refStation=0, msgType=1094)>
2026-06-07 14:59:51,447 - INFO - <UBX(RXM-RTCM, version=2, crcFailed=0, msgUsed=2, subType=0, refStation=0, msgType=1124)>
2026-06-07 14:59:51,448 - INFO - <UBX(RXM-RTCM, version=2, crcFailed=0, msgUsed=2, subType=0, refStation=0, msgType=1230)>
2026-06-07 14:59:51,489 - INFO - <UBX(NAV-PVT, iTOW=19:59:51.400000, year=2026, month=6, day=7, hour=19, min=59, second=51, validDate=1, validTime=1, fullyResolved=1, validMag=0, tAcc=22, nano=400187304, fixType=3, gnssFixOk=1, diffSoln=1, psmState=0, headVehValid=0, carrSoln=2, confirmedAvai=1, confirmedDate=1, confirmedTime=1, numSV=28, lon=-97.6641975, lat=37.9008386, height=409469, hMSL=435722, hAcc=28, vAcc=41, velN=-2, velE=6, velD=0, gSpeed=6, headMot=59.78203, sAcc=77, headAcc=180.0, pDOP=0.91, invalidLlh=0, lastCorrectionAge=1, reserved0=860630572, headVeh=0.0, magDec=0.0, magAcc=0.0)>
2026-06-07 14:59:51,491 - INFO - <NMEA(GNRMC, time=19:59:51.400000, status=A, lat=37.9008386667, NS=N, lon=-97.6641975, EW=W, spd=0.012, cog=, date=2026-06-07, mv=, mvEW=, posMode=R, navStatus=V)>
2026-06-07 14:59:51,492 - INFO - <NMEA(GNVTG, cogt=, cogtUnit=T, cogm=, cogmUnit=M, sogn=0.012, sognUnit=N, sogk=0.022, sogkUnit=K, posMode=D)>
2026-06-07 14:59:51,492 - INFO - <NMEA(GNGGA, time=19:59:51.400000, lat=37.9008386667, NS=N, lon=-97.6641975, EW=W, quality=4, numSV=12, HDOP=0.52, alt=435.7, altUnit=M, sep=-26.3, sepUnit=M, diffAge=0.2, diffStation=0)>
2026-06-07 14:59:51,493 - INFO - <NMEA(GNGSA, opMode=M, navMode=3, svid_01=5, svid_02=10, svid_03=15, svid_04=18, svid_05=20, svid_06=23, svid_07=24, svid_08=29, svid_09=, svid_10=, svid_11=, svid_12=, PDOP=0.91, HDOP=0.52, VDOP=0.74, systemId=1)>
2026-06-07 14:59:51,494 - INFO - <NMEA(GNGSA, opMode=M, navMode=3, svid_01=70, svid_02=86, svid_03=69, svid_04=84, svid_05=85, svid_06=71, svid_07=, svid_08=, svid_09=, svid_10=, svid_11=, svid_12=, PDOP=0.91, HDOP=0.52, VDOP=0.74, systemId=2)>
2026-06-07 14:59:51,495 - INFO - <NMEA(GNGSA, opMode=M, navMode=3, svid_01=3, svid_02=5, svid_03=8, svid_04=13, svid_05=15, svid_06=27, svid_07=34, svid_08=, svid_09=, svid_10=, svid_11=, svid_12=, PDOP=0.91, HDOP=0.52, VDOP=0.74, systemId=3)>
2026-06-07 14:59:51,496 - INFO - <NMEA(GNGSA, opMode=M, navMode=3, svid_01=27, svid_02=28, svid_03=33, svid_04=38, svid_05=41, svid_06=42, svid_07=13, svid_08=, svid_09=, svid_10=, svid_11=, svid_12=, PDOP=0.91, HDOP=0.52, VDOP=0.74, systemId=4)>
2026-06-07 14:59:51,497 - INFO - <NMEA(GNGSA, opMode=M, navMode=3, svid_01=, svid_02=, svid_03=, svid_04=, svid_05=, svid_06=, svid_07=, svid_08=, svid_09=, svid_10=, svid_11=, svid_12=, PDOP=0.91, HDOP=0.52, VDOP=0.74, systemId=5)>
2026-06-07 14:59:51,499 - INFO - <NMEA(GPGSV, numMsg=4, msgNum=1, numSV=13, svid_01=5, elv_01=16.0, az_01=64, cno_01=45, svid_02=10, elv_02=25.0, az_02=263, cno_02=17, svid_03=15, elv_03=62.0, az_03=64, cno_03=48, svid_04=16, elv_04=7.0, az_04=288, cno_04=25, signalID=1)>
2026-06-07 14:59:51,500 - INFO - <NMEA(GPGSV, numMsg=4, msgNum=2, numSV=13, svid_01=18, elv_01=74.0, az_01=357, cno_01=44, svid_02=20, elv_02=35.0, az_02=49, cno_02=46, svid_03=23, elv_03=55.0, az_03=287, cno_03=37, svid_04=24, elv_04=18.0, az_04=130, cno_04=37, signalID=1)>
2026-06-07 14:59:51,500 - INFO - <NMEA(GPGSV, numMsg=4, msgNum=3, numSV=13, svid_01=27, elv_01=12.0, az_01=320, cno_01=30, svid_02=29, elv_02=36.0, az_02=180, cno_02=40, svid_03=44, elv_03=42.0, az_03=210, cno_03=37, svid_04=46, elv_04=35.0, az_04=225, cno_04=44, signalID=1)>
2026-06-07 14:59:51,500 - INFO - <NMEA(GPGSV, numMsg=4, msgNum=4, numSV=13, svid_01=48, elv_01=38.0, az_01=220, cno_01=39, signalID=1)>
2026-06-07 14:59:51,501 - INFO - <NMEA(GPGSV, numMsg=3, msgNum=1, numSV=9, svid_01=5, elv_01=16.0, az_01=64, cno_01=38, svid_02=10, elv_02=25.0, az_02=263, cno_02=34, svid_03=15, elv_03=62.0, az_03=64, cno_03=40, svid_04=18, elv_04=74.0, az_04=357, cno_04=35, signalID=6)>
2026-06-07 14:59:51,502 - INFO - <NMEA(GPGSV, numMsg=3, msgNum=2, numSV=9, svid_01=20, elv_01=35.0, az_01=49, cno_01=37, svid_02=23, elv_02=55.0, az_02=287, cno_02=41, svid_03=24, elv_03=18.0, az_03=130, cno_03=40, svid_04=27, elv_04=12.0, az_04=320, cno_04=26, signalID=6)>
2026-06-07 14:59:51,502 - INFO - <NMEA(GPGSV, numMsg=3, msgNum=3, numSV=9, svid_01=29, elv_01=36.0, az_01=180, cno_01=37, signalID=6)>
2026-06-07 14:59:51,503 - INFO - <UBX(RXM-RTCM, version=2, crcFailed=0, msgUsed=2, subType=0, refStation=0, msgType=4072)>
2026-06-07 14:59:51,505 - INFO - <NMEA(GLGSV, numMsg=2, msgNum=1, numSV=6, svid_01=69, elv_01=18.0, az_01=32, cno_01=41, svid_02=70, elv_02=70.0, az_02=25, cno_02=49, svid_03=71, elv_03=44.0, az_03=218, cno_03=42, svid_04=84, elv_04=31.0, az_04=128, cno_04=40, signalID=1)>
2026-06-07 14:59:51,506 - INFO - <NMEA(GLGSV, numMsg=2, msgNum=2, numSV=6, svid_01=85, elv_01=75.0, az_01=85, cno_01=49, svid_02=86, elv_02=30.0, az_02=326, cno_02=37, signalID=1)>
2026-06-07 14:59:51,507 - INFO - <NMEA(GLGSV, numMsg=2, msgNum=1, numSV=6, svid_01=69, elv_01=18.0, az_01=32, cno_01=35, svid_02=70, elv_02=70.0, az_02=25, cno_02=39, svid_03=71, elv_03=44.0, az_03=218, cno_03=40, svid_04=84, elv_04=31.0, az_04=128, cno_04=42, signalID=3)>
2026-06-07 14:59:51,508 - INFO - <NMEA(GLGSV, numMsg=2, msgNum=2, numSV=6, svid_01=85, elv_01=75.0, az_01=85, cno_01=39, svid_02=86, elv_02=30.0, az_02=326, cno_02=26, signalID=3)>
2026-06-07 14:59:51,509 - INFO - <NMEA(GAGSV, numMsg=3, msgNum=1, numSV=11, svid_01=3, elv_01=59.0, az_01=145, cno_01=39, svid_02=5, elv_02=41.0, az_02=57, cno_02=43, svid_03=8, elv_03=19.0, az_03=193, cno_03=36, svid_04=13, elv_04=14.0, az_04=300, cno_04=29, signalID=2)>
2026-06-07 14:59:51,510 - INFO - <NMEA(GAGSV, numMsg=3, msgNum=2, numSV=11, svid_01=15, elv_01=61.0, az_01=333, cno_01=47, svid_02=21, elv_02=8.0, az_02=309, cno_02=24, svid_03=27, elv_03=15.0, az_03=259, cno_03=35, svid_04=30, elv_04=5.0, az_04=213, cno_04=30, signalID=2)>
2026-06-07 14:59:51,511 - INFO - <NMEA(GAGSV, numMsg=3, msgNum=3, numSV=11, svid_01=32, elv_01=39.0, az_01=178, cno_01=40, svid_02=34, elv_02=51.0, az_02=86, cno_02=45, svid_03=36, elv_03=5.0, az_03=108, cno_03=38, signalID=2)>
2026-06-07 14:59:51,512 - INFO - <NMEA(GAGSV, numMsg=3, msgNum=1, numSV=9, svid_01=3, elv_01=59.0, az_01=145, cno_01=37, svid_02=5, elv_02=41.0, az_02=57, cno_02=47, svid_03=8, elv_03=19.0, az_03=193, cno_03=33, svid_04=15, elv_04=61.0, az_04=333, cno_04=45, signalID=7)>
2026-06-07 14:59:51,513 - INFO - <NMEA(GAGSV, numMsg=3, msgNum=2, numSV=9, svid_01=21, elv_01=8.0, az_01=309, cno_01=29, svid_02=27, elv_02=15.0, az_02=259, cno_02=32, svid_03=32, elv_03=39.0, az_03=178, cno_03=41, svid_04=34, elv_04=51.0, az_04=86, cno_04=47, signalID=7)>
2026-06-07 14:59:51,514 - INFO - <NMEA(GAGSV, numMsg=3, msgNum=3, numSV=9, svid_01=36, elv_01=5.0, az_01=108, cno_01=40, signalID=7)>
2026-06-07 14:59:51,516 - INFO - <NMEA(GBGSV, numMsg=2, msgNum=1, numSV=7, svid_01=13, elv_01=57.0, az_01=149, cno_01=39, svid_02=27, elv_02=43.0, az_02=311, cno_02=43, svid_03=28, elv_03=83.0, az_03=234, cno_03=47, svid_04=33, elv_04=71.0, az_04=38, cno_04=38, signalID=1)>
2026-06-07 14:59:51,517 - INFO - <NMEA(GBGSV, numMsg=2, msgNum=2, numSV=7, svid_01=38, elv_01=31.0, az_01=146, cno_01=42, svid_02=41, elv_02=55.0, az_02=231, cno_02=40, svid_03=42, elv_03=15.0, az_03=46, cno_03=40, signalID=1)>
2026-06-07 14:59:51,517 - INFO - <NMEA(GQGSV, numMsg=1, msgNum=1, numSV=0, signalID=0)>
2026-06-07 14:59:51,518 - INFO - <NMEA(GNGLL, lat=37.9008386667, NS=N, lon=-97.6641975, EW=W, time=19:59:51.400000, status=A, posMode=D)>
2026-06-07 14:59:51,520 - INFO - <UBX(NAV-RELPOSNED, version=1, reserved0=0, refStationID=0, iTOW=19:59:51.400000, relPosN=16.73, relPosE=56.43, relPosD=2.62, relPosLength=58.91, relPosHeading=73.48072, reserved1=0, accN=10.0, accE=10.0, accD=13.1, accLength=10.0, accHeading=0.97349, reserved2=0, gnssFixOK=1, diffSoln=1, relPosValid=1, carrSoln=2, isMoving=1, refPosMiss=0, refObsMiss=0, relPosHeadingValid=1, relPosNormalized=0)>
2026-06-07 14:59:51,521 - INFO - 2026-06-07 14:59:51 Initial Moving Baseline state: active
2026-06-07 14:59:51,521 - INFO - 2026-06-07 14:59:51 Initial carrier solution: fixed
2026-06-07 14:59:51,522 - INFO - 2026-06-07 14:59:51, current_target: {'timestamp': '2026-05-10 13:40:05', 'lat': 37.9008713333, 'lon': -97.66418, 'speed': 0.004629996, 'y_offset': 0.0, 'x_offset': 0.0, 'z_offset': 0.0, 'heading': 1.76477}, next_target: {'timestamp': '2026-05-10 13:40:06', 'lat': 37.9008713333, 'lon': -97.66418, 'speed': 0.00514444, 'y_offset': 0.0, 'x_offset': 0.0, 'z_offset': 0.0, 'heading': 1.76299}
2026-06-07 14:59:51,640 - INFO - <UBX(RXM-RTCM, version=2, crcFailed=0, msgUsed=2, subType=0, refStation=0, msgType=1074)>
2026-06-07 14:59:51,640 - INFO - 2026-06-07 14:59:51, current_target: {'timestamp': '2026-05-10 13:40:05', 'lat': 37.9008713333, 'lon': -97.66418, 'speed': 0.004629996, 'y_offset': 0.0, 'x_offset': 0.0, 'z_offset': 0.0, 'heading': 1.76477}, next_target: {'timestamp': '2026-05-10 13:40:06', 'lat': 37.9008713333, 'lon': -97.66418, 'speed': 0.00514444, 'y_offset': 0.0, 'x_offset': 0.0, 'z_offset': 0.0, 'heading': 1.76299}
2026-06-07 14:59:51,640 - INFO - 2026-06-07 14:59:51 [3.4 OBSERVED] current_turn_radius: infm
2026-06-07 14:59:51,640 - INFO - 2026-06-07 14:59:51 [3.4 OBSERVED] turn_direction: STRAIGHT
2026-06-07 14:59:51,640 - INFO - 2026-06-07 14:59:51 [3.4 OBSERVED] estimated left/right wheel speeds: 0.009, 0.009 rad/s
2026-06-07 14:59:51,643 - INFO - 2026-06-07 14:59:51 [STATE] Current state: NAVIGATING_TO_START
2026-06-07 14:59:51,643 - INFO - 2026-06-07 14:59:51 [NAV_TO_START] Phase: PIVOT_TO_BEARING, Dist: 3.939m, Bearing err: -50.5°, Heading diff: 71.7°, Elapsed: 0.4s
2026-06-07 14:59:51,643 - INFO - 2026-06-07 14:59:51 [NAV_TO_START] PIVOT_TO_BEARING LEFT: heading=73.5°, bearing=23.0°, error=-50.5°, force=aggressive
2026-06-07 14:59:51,657 - INFO - goto_positions: M1=1370, M2=830 [Pivot to bearing LEFT]
2026-06-07 14:59:51,657 - INFO - <UBX(RXM-RTCM, version=2, crcFailed=0, msgUsed=2, subType=0, refStation=0, msgType=1084)>
2026-06-07 14:59:51,657 - INFO - <UBX(RXM-RTCM, version=2, crcFailed=0, msgUsed=2, subType=0, refStation=0, msgType=1094)>
2026-06-07 14:59:51,657 - INFO - <UBX(RXM-RTCM, version=2, crcFailed=0, msgUsed=2, subType=0, refStation=0, msgType=1124)>
2026-06-07 14:59:51,657 - INFO - <UBX(RXM-RTCM, version=2, crcFailed=0, msgUsed=2, subType=0, refStation=0, msgType=1230)>
2026-06-07 14:59:51,683 - INFO - <UBX(NAV-PVT, iTOW=19:59:51.600000, year=2026, month=6, day=7, hour=19, min=59, second=51, validDate=1, validTime=1, fullyResolved=1, validMag=0, tAcc=22, nano=600187262, fixType=3, gnssFixOk=1, diffSoln=1, psmState=0, headVehValid=0, carrSoln=2, confirmedAvai=1, confirmedDate=1, confirmedTime=1, numSV=28, lon=-97.6641975, lat=37.9008386, height=409469, hMSL=435722, hAcc=29, vAcc=43, velN=-4, velE=-4, velD=8, gSpeed=6, headMot=59.78203, sAcc=76, headAcc=180.0, pDOP=0.91, invalidLlh=0, lastCorrectionAge=1, reserved0=860630572, headVeh=0.0, magDec=0.0, magAcc=0.0)>
2026-06-07 14:59:51,685 - INFO - <NMEA(GNRMC, time=19:59:51.600000, status=A, lat=37.9008386667, NS=N, lon=-97.6641975, EW=W, spd=0.011, cog=, date=2026-06-07, mv=, mvEW=, posMode=R, navStatus=V)>
2026-06-07 14:59:51,685 - INFO - <NMEA(GNVTG, cogt=, cogtUnit=T, cogm=, cogmUnit=M, sogn=0.011, sognUnit=N, sogk=0.02, sogkUnit=K, posMode=D)>
2026-06-07 14:59:51,687 - INFO - <NMEA(GNGGA, time=19:59:51.600000, lat=37.9008386667, NS=N, lon=-97.6641975, EW=W, quality=4, numSV=12, HDOP=0.52, alt=435.7, altUnit=M, sep=-26.3, sepUnit=M, diffAge=0.2, diffStation=0)>
2026-06-07 14:59:51,688 - INFO - <NMEA(GNGSA, opMode=M, navMode=3, svid_01=5, svid_02=10, svid_03=15, svid_04=18, svid_05=20, svid_06=23, svid_07=24, svid_08=29, svid_09=, svid_10=, svid_11=, svid_12=, PDOP=0.91, HDOP=0.52, VDOP=0.74, systemId=1)>
2026-06-07 14:59:51,688 - INFO - <NMEA(GNGSA, opMode=M, navMode=3, svid_01=70, svid_02=86, svid_03=69, svid_04=84, svid_05=85, svid_06=71, svid_07=, svid_08=, svid_09=, svid_10=, svid_11=, svid_12=, PDOP=0.91, HDOP=0.52, VDOP=0.74, systemId=2)>
2026-06-07 14:59:51,689 - INFO - <NMEA(GNGSA, opMode=M, navMode=3, svid_01=3, svid_02=5, svid_03=8, svid_04=13, svid_05=15, svid_06=27, svid_07=34, svid_08=, svid_09=, svid_10=, svid_11=, svid_12=, PDOP=0.91, HDOP=0.52, VDOP=0.74, systemId=3)>
2026-06-07 14:59:51,690 - INFO - <NMEA(GNGSA, opMode=M, navMode=3, svid_01=27, svid_02=28, svid_03=33, svid_04=38, svid_05=41, svid_06=42, svid_07=13, svid_08=, svid_09=, svid_10=, svid_11=, svid_12=, PDOP=0.91, HDOP=0.52, VDOP=0.74, systemId=4)>
2026-06-07 14:59:51,691 - INFO - <NMEA(GNGSA, opMode=M, navMode=3, svid_01=, svid_02=, svid_03=, svid_04=, svid_05=, svid_06=, svid_07=, svid_08=, svid_09=, svid_10=, svid_11=, svid_12=, PDOP=0.91, HDOP=0.52, VDOP=0.74, systemId=5)>
2026-06-07 14:59:51,693 - INFO - <NMEA(GPGSV, numMsg=4, msgNum=1, numSV=13, svid_01=5, elv_01=16.0, az_01=64, cno_01=45, svid_02=10, elv_02=25.0, az_02=263, cno_02=18, svid_03=15, elv_03=62.0, az_03=64, cno_03=48, svid_04=16, elv_04=7.0, az_04=288, cno_04=25, signalID=1)>
2026-06-07 14:59:51,694 - INFO - <NMEA(GPGSV, numMsg=4, msgNum=2, numSV=13, svid_01=18, elv_01=74.0, az_01=357, cno_01=44, svid_02=20, elv_02=35.0, az_02=49, cno_02=46, svid_03=23, elv_03=55.0, az_03=287, cno_03=37, svid_04=24, elv_04=18.0, az_04=130, cno_04=37, signalID=1)>
2026-06-07 14:59:51,695 - INFO - <NMEA(GPGSV, numMsg=4, msgNum=3, numSV=13, svid_01=27, elv_01=12.0, az_01=320, cno_01=29, svid_02=29, elv_02=36.0, az_02=180, cno_02=41, svid_03=44, elv_03=42.0, az_03=210, cno_03=37, svid_04=46, elv_04=35.0, az_04=225, cno_04=43, signalID=1)>
2026-06-07 14:59:51,695 - INFO - <NMEA(GPGSV, numMsg=4, msgNum=4, numSV=13, svid_01=48, elv_01=38.0, az_01=220, cno_01=40, signalID=1)>
2026-06-07 14:59:51,696 - INFO - <NMEA(GPGSV, numMsg=3, msgNum=1, numSV=9, svid_01=5, elv_01=16.0, az_01=64, cno_01=38, svid_02=10, elv_02=25.0, az_02=263, cno_02=34, svid_03=15, elv_03=62.0, az_03=64, cno_03=40, svid_04=18, elv_04=74.0, az_04=357, cno_04=35, signalID=6)>
2026-06-07 14:59:51,697 - INFO - <NMEA(GPGSV, numMsg=3, msgNum=2, numSV=9, svid_01=20, elv_01=35.0, az_01=49, cno_01=37, svid_02=23, elv_02=55.0, az_02=287, cno_02=41, svid_03=24, elv_03=18.0, az_03=130, cno_03=40, svid_04=27, elv_04=12.0, az_04=320, cno_04=26, signalID=6)>
2026-06-07 14:59:51,698 - INFO - <NMEA(GPGSV, numMsg=3, msgNum=3, numSV=9, svid_01=29, elv_01=36.0, az_01=180, cno_01=37, signalID=6)>
2026-06-07 14:59:51,700 - INFO - <NMEA(GLGSV, numMsg=2, msgNum=1, numSV=6, svid_01=69, elv_01=18.0, az_01=32, cno_01=41, svid_02=70, elv_02=70.0, az_02=25, cno_02=48, svid_03=71, elv_03=44.0, az_03=218, cno_03=42, svid_04=84, elv_04=31.0, az_04=128, cno_04=39, signalID=1)>
2026-06-07 14:59:51,701 - INFO - <NMEA(GLGSV, numMsg=2, msgNum=2, numSV=6, svid_01=85, elv_01=75.0, az_01=85, cno_01=49, svid_02=86, elv_02=30.0, az_02=326, cno_02=39, signalID=1)>
2026-06-07 14:59:51,703 - INFO - <NMEA(GLGSV, numMsg=2, msgNum=1, numSV=6, svid_01=69, elv_01=18.0, az_01=32, cno_01=35, svid_02=70, elv_02=70.0, az_02=25, cno_02=39, svid_03=71, elv_03=44.0, az_03=218, cno_03=40, svid_04=84, elv_04=31.0, az_04=128, cno_04=42, signalID=3)>
2026-06-07 14:59:51,704 - INFO - <NMEA(GLGSV, numMsg=2, msgNum=2, numSV=6, svid_01=85, elv_01=75.0, az_01=85, cno_01=39, svid_02=86, elv_02=30.0, az_02=326, cno_02=26, signalID=3)>
2026-06-07 14:59:51,706 - INFO - <NMEA(GAGSV, numMsg=3, msgNum=1, numSV=11, svid_01=3, elv_01=59.0, az_01=145, cno_01=39, svid_02=5, elv_02=41.0, az_02=57, cno_02=43, svid_03=8, elv_03=19.0, az_03=193, cno_03=36, svid_04=13, elv_04=14.0, az_04=300, cno_04=29, signalID=2)>
2026-06-07 14:59:51,707 - INFO - <NMEA(GAGSV, numMsg=3, msgNum=2, numSV=11, svid_01=15, elv_01=61.0, az_01=333, cno_01=47, svid_02=21, elv_02=8.0, az_02=309, cno_02=23, svid_03=27, elv_03=15.0, az_03=259, cno_03=35, svid_04=30, elv_04=5.0, az_04=213, cno_04=30, signalID=2)>
2026-06-07 14:59:51,708 - INFO - <NMEA(GAGSV, numMsg=3, msgNum=3, numSV=11, svid_01=32, elv_01=39.0, az_01=178, cno_01=40, svid_02=34, elv_02=51.0, az_02=86, cno_02=45, svid_03=36, elv_03=5.0, az_03=108, cno_03=38, signalID=2)>
2026-06-07 14:59:51,708 - INFO - <NMEA(GAGSV, numMsg=3, msgNum=1, numSV=9, svid_01=3, elv_01=59.0, az_01=145, cno_01=36, svid_02=5, elv_02=41.0, az_02=57, cno_02=47, svid_03=8, elv_03=19.0, az_03=193, cno_03=33, svid_04=15, elv_04=61.0, az_04=333, cno_04=45, signalID=7)>
2026-06-07 14:59:51,709 - INFO - <NMEA(GAGSV, numMsg=3, msgNum=2, numSV=9, svid_01=21, elv_01=8.0, az_01=309, cno_01=28, svid_02=27, elv_02=15.0, az_02=259, cno_02=31, svid_03=32, elv_03=39.0, az_03=178, cno_03=41, svid_04=34, elv_04=51.0, az_04=86, cno_04=47, signalID=7)>
2026-06-07 14:59:51,709 - INFO - <NMEA(GAGSV, numMsg=3, msgNum=3, numSV=9, svid_01=36, elv_01=5.0, az_01=108, cno_01=40, signalID=7)>
2026-06-07 14:59:51,709 - INFO - <NMEA(GBGSV, numMsg=2, msgNum=1, numSV=7, svid_01=13, elv_01=57.0, az_01=149, cno_01=39, svid_02=27, elv_02=43.0, az_02=311, cno_02=43, svid_03=28, elv_03=83.0, az_03=234, cno_03=47, svid_04=33, elv_04=71.0, az_04=38, cno_04=37, signalID=1)>
2026-06-07 14:59:51,710 - INFO - <NMEA(GBGSV, numMsg=2, msgNum=2, numSV=7, svid_01=38, elv_01=31.0, az_01=146, cno_01=42, svid_02=41, elv_02=55.0, az_02=231, cno_02=40, svid_03=42, elv_03=15.0, az_03=46, cno_03=40, signalID=1)>
2026-06-07 14:59:51,711 - INFO - <NMEA(GQGSV, numMsg=1, msgNum=1, numSV=0, signalID=0)>
2026-06-07 14:59:51,712 - INFO - <NMEA(GNGLL, lat=37.9008386667, NS=N, lon=-97.6641975, EW=W, time=19:59:51.600000, status=A, posMode=D)>
2026-06-07 14:59:51,714 - INFO - <UBX(NAV-RELPOSNED, version=1, reserved0=0, refStationID=0, iTOW=19:59:51.600000, relPosN=16.7, relPosE=56.41, relPosD=2.93, relPosLength=58.9, relPosHeading=73.51099, reserved1=0, accN=10.0, accE=10.0, accD=13.7, accLength=10.0, accHeading=0.97392, reserved2=0, gnssFixOK=1, diffSoln=1, relPosValid=1, carrSoln=2, isMoving=1, refPosMiss=0, refObsMiss=0, relPosHeadingValid=1, relPosNormalized=0)>
2026-06-07 14:59:51,715 - INFO - 2026-06-07 14:59:51, current_target: {'timestamp': '2026-05-10 13:40:05', 'lat': 37.9008713333, 'lon': -97.66418, 'speed': 0.004629996, 'y_offset': 0.0, 'x_offset': 0.0, 'z_offset': 0.0, 'heading': 1.76477}, next_target: {'timestamp': '2026-05-10 13:40:06', 'lat': 37.9008713333, 'lon': -97.66418, 'speed': 0.00514444, 'y_offset': 0.0, 'x_offset': 0.0, 'z_offset': 0.0, 'heading': 1.76299}
2026-06-07 14:59:51,715 - INFO - 2026-06-07 14:59:51 [3.4 OBSERVED] current_turn_radius: infm
2026-06-07 14:59:51,716 - INFO - 2026-06-07 14:59:51 [3.4 OBSERVED] turn_direction: RIGHT
2026-06-07 14:59:51,716 - INFO - 2026-06-07 14:59:51 [3.4 OBSERVED] estimated left/right wheel speeds: nan, nan rad/s
2026-06-07 14:59:51,720 - INFO - 2026-06-07 14:59:51 [STATE] Current state: NAVIGATING_TO_START
2026-06-07 14:59:51,720 - INFO - 2026-06-07 14:59:51 [NAV_TO_START] Phase: PIVOT_TO_BEARING, Dist: 3.939m, Bearing err: -50.5°, Heading diff: 71.7°, Elapsed: 0.4s
2026-06-07 14:59:51,720 - INFO - 2026-06-07 14:59:51 [NAV_TO_START] PIVOT_TO_BEARING LEFT: heading=73.5°, bearing=23.0°, error=-50.5°, force=aggressive
2026-06-07 14:59:51,737 - INFO - goto_positions: M1=1370, M2=830 [Pivot to bearing LEFT]
2026-06-07 14:59:51,737 - INFO - <UBX(RXM-RTCM, version=2, crcFailed=0, msgUsed=2, subType=0, refStation=0, msgType=4072)>
2026-06-07 14:59:51,847 - INFO - <UBX(RXM-RTCM, version=2, crcFailed=0, msgUsed=2, subType=0, refStation=0, msgType=1074)>
2026-06-07 14:59:51,849 - INFO - <UBX(RXM-RTCM, version=2, crcFailed=0, msgUsed=2, subType=0, refStation=0, msgType=1084)>
2026-06-07 14:59:51,852 - INFO - <UBX(RXM-RTCM, version=2, crcFailed=0, msgUsed=2, subType=0, refStation=0, msgType=1094)>
2026-06-07 14:59:51,855 - INFO - <UBX(RXM-RTCM, version=2, crcFailed=0, msgUsed=2, subType=0, refStation=0, msgType=1124)>
2026-06-07 14:59:51,856 - INFO - <UBX(RXM-RTCM, version=2, crcFailed=0, msgUsed=2, subType=0, refStation=0, msgType=1230)>
2026-06-07 14:59:51,890 - INFO - <UBX(NAV-PVT, iTOW=19:59:51.800000, year=2026, month=6, day=7, hour=19, min=59, second=51, validDate=1, validTime=1, fullyResolved=1, validMag=0, tAcc=22, nano=800187220, fixType=3, gnssFixOk=1, diffSoln=1, psmState=0, headVehValid=0, carrSoln=2, confirmedAvai=1, confirmedDate=1, confirmedTime=1, numSV=28, lon=-97.6641975, lat=37.9008386, height=409470, hMSL=435723, hAcc=28, vAcc=42, velN=5, velE=2, velD=1, gSpeed=5, headMot=59.78203, sAcc=73, headAcc=180.0, pDOP=0.91, invalidLlh=0, lastCorrectionAge=1, reserved0=860630572, headVeh=0.0, magDec=0.0, magAcc=0.0)>
2026-06-07 14:59:51,892 - INFO - <NMEA(GNRMC, time=19:59:51.800000, status=A, lat=37.9008386667, NS=N, lon=-97.6641975, EW=W, spd=0.01, cog=, date=2026-06-07, mv=, mvEW=, posMode=R, navStatus=V)>
2026-06-07 14:59:51,893 - INFO - <NMEA(GNVTG, cogt=, cogtUnit=T, cogm=, cogmUnit=M, sogn=0.01, sognUnit=N, sogk=0.019, sogkUnit=K, posMode=D)>
2026-06-07 14:59:51,895 - INFO - <NMEA(GNGGA, time=19:59:51.800000, lat=37.9008386667, NS=N, lon=-97.6641975, EW=W, quality=4, numSV=12, HDOP=0.52, alt=435.7, altUnit=M, sep=-26.3, sepUnit=M, diffAge=0.2, diffStation=0)>
2026-06-07 14:59:51,895 - INFO - <NMEA(GNGSA, opMode=M, navMode=3, svid_01=5, svid_02=10, svid_03=15, svid_04=18, svid_05=20, svid_06=23, svid_07=24, svid_08=29, svid_09=, svid_10=, svid_11=, svid_12=, PDOP=0.91, HDOP=0.52, VDOP=0.74, systemId=1)>
2026-06-07 14:59:51,896 - INFO - <NMEA(GNGSA, opMode=M, navMode=3, svid_01=70, svid_02=86, svid_03=69, svid_04=84, svid_05=85, svid_06=71, svid_07=, svid_08=, svid_09=, svid_10=, svid_11=, svid_12=, PDOP=0.91, HDOP=0.52, VDOP=0.74, systemId=2)>
2026-06-07 14:59:51,896 - INFO - <NMEA(GNGSA, opMode=M, navMode=3, svid_01=3, svid_02=5, svid_03=8, svid_04=13, svid_05=15, svid_06=27, svid_07=34, svid_08=, svid_09=, svid_10=, svid_11=, svid_12=, PDOP=0.91, HDOP=0.52, VDOP=0.74, systemId=3)>
2026-06-07 14:59:51,897 - INFO - <NMEA(GNGSA, opMode=M, navMode=3, svid_01=27, svid_02=28, svid_03=33, svid_04=38, svid_05=41, svid_06=42, svid_07=13, svid_08=, svid_09=, svid_10=, svid_11=, svid_12=, PDOP=0.91, HDOP=0.52, VDOP=0.74, systemId=4)>
2026-06-07 14:59:51,898 - INFO - <NMEA(GNGSA, opMode=M, navMode=3, svid_01=, svid_02=, svid_03=, svid_04=, svid_05=, svid_06=, svid_07=, svid_08=, svid_09=, svid_10=, svid_11=, svid_12=, PDOP=0.91, HDOP=0.52, VDOP=0.74, systemId=5)>
2026-06-07 14:59:51,900 - INFO - <NMEA(GPGSV, numMsg=4, msgNum=1, numSV=13, svid_01=5, elv_01=16.0, az_01=64, cno_01=45, svid_02=10, elv_02=25.0, az_02=263, cno_02=18, svid_03=15, elv_03=62.0, az_03=64, cno_03=48, svid_04=16, elv_04=7.0, az_04=288, cno_04=24, signalID=1)>
2026-06-07 14:59:51,902 - INFO - <NMEA(GPGSV, numMsg=4, msgNum=2, numSV=13, svid_01=18, elv_01=74.0, az_01=357, cno_01=45, svid_02=20, elv_02=35.0, az_02=49, cno_02=46, svid_03=23, elv_03=55.0, az_03=287, cno_03=38, svid_04=24, elv_04=18.0, az_04=130, cno_04=37, signalID=1)>
2026-06-07 14:59:51,904 - INFO - <NMEA(GPGSV, numMsg=4, msgNum=3, numSV=13, svid_01=27, elv_01=12.0, az_01=320, cno_01=29, svid_02=29, elv_02=36.0, az_02=180, cno_02=41, svid_03=44, elv_03=42.0, az_03=210, cno_03=37, svid_04=46, elv_04=35.0, az_04=225, cno_04=43, signalID=1)>
2026-06-07 14:59:51,905 - INFO - <NMEA(GPGSV, numMsg=4, msgNum=4, numSV=13, svid_01=48, elv_01=38.0, az_01=220, cno_01=40, signalID=1)>
2026-06-07 14:59:51,907 - INFO - <NMEA(GPGSV, numMsg=3, msgNum=1, numSV=9, svid_01=5, elv_01=16.0, az_01=64, cno_01=38, svid_02=10, elv_02=25.0, az_02=263, cno_02=34, svid_03=15, elv_03=62.0, az_03=64, cno_03=40, svid_04=18, elv_04=74.0, az_04=357, cno_04=35, signalID=6)>
2026-06-07 14:59:51,908 - INFO - <NMEA(GPGSV, numMsg=3, msgNum=2, numSV=9, svid_01=20, elv_01=35.0, az_01=49, cno_01=37, svid_02=23, elv_02=55.0, az_02=287, cno_02=41, svid_03=24, elv_03=18.0, az_03=130, cno_03=40, svid_04=27, elv_04=12.0, az_04=320, cno_04=26, signalID=6)>
2026-06-07 14:59:51,908 - INFO - <NMEA(GPGSV, numMsg=3, msgNum=3, numSV=9, svid_01=29, elv_01=36.0, az_01=180, cno_01=37, signalID=6)>
2026-06-07 14:59:51,908 - INFO - <NMEA(GLGSV, numMsg=2, msgNum=1, numSV=6, svid_01=69, elv_01=18.0, az_01=32, cno_01=41, svid_02=70, elv_02=70.0, az_02=25, cno_02=48, svid_03=71, elv_03=44.0, az_03=218, cno_03=42, svid_04=84, elv_04=31.0, az_04=128, cno_04=39, signalID=1)>
2026-06-07 14:59:51,909 - INFO - <NMEA(GLGSV, numMsg=2, msgNum=2, numSV=6, svid_01=85, elv_01=75.0, az_01=85, cno_01=49, svid_02=86, elv_02=30.0, az_02=326, cno_02=39, signalID=1)>
2026-06-07 14:59:51,909 - INFO - <NMEA(GLGSV, numMsg=2, msgNum=1, numSV=6, svid_01=69, elv_01=18.0, az_01=32, cno_01=35, svid_02=70, elv_02=70.0, az_02=25, cno_02=39, svid_03=71, elv_03=44.0, az_03=218, cno_03=40, svid_04=84, elv_04=31.0, az_04=128, cno_04=42, signalID=3)>
2026-06-07 14:59:51,910 - INFO - <NMEA(GLGSV, numMsg=2, msgNum=2, numSV=6, svid_01=85, elv_01=75.0, az_01=85, cno_01=39, svid_02=86, elv_02=30.0, az_02=326, cno_02=26, signalID=3)>
2026-06-07 14:59:51,912 - INFO - <NMEA(GAGSV, numMsg=3, msgNum=1, numSV=11, svid_01=3, elv_01=59.0, az_01=145, cno_01=40, svid_02=5, elv_02=41.0, az_02=57, cno_02=43, svid_03=8, elv_03=19.0, az_03=193, cno_03=36, svid_04=13, elv_04=14.0, az_04=300, cno_04=29, signalID=2)>
2026-06-07 14:59:51,914 - INFO - <NMEA(GAGSV, numMsg=3, msgNum=2, numSV=11, svid_01=15, elv_01=61.0, az_01=333, cno_01=47, svid_02=21, elv_02=8.0, az_02=309, cno_02=22, svid_03=27, elv_03=15.0, az_03=259, cno_03=35, svid_04=30, elv_04=5.0, az_04=213, cno_04=30, signalID=2)>
2026-06-07 14:59:51,915 - INFO - <NMEA(GAGSV, numMsg=3, msgNum=3, numSV=11, svid_01=32, elv_01=39.0, az_01=178, cno_01=40, svid_02=34, elv_02=51.0, az_02=86, cno_02=45, svid_03=36, elv_03=5.0, az_03=108, cno_03=38, signalID=2)>
2026-06-07 14:59:51,917 - INFO - <NMEA(GAGSV, numMsg=3, msgNum=1, numSV=9, svid_01=3, elv_01=59.0, az_01=145, cno_01=36, svid_02=5, elv_02=41.0, az_02=57, cno_02=47, svid_03=8, elv_03=19.0, az_03=193, cno_03=33, svid_04=15, elv_04=61.0, az_04=333, cno_04=45, signalID=7)>
2026-06-07 14:59:51,919 - INFO - <NMEA(GAGSV, numMsg=3, msgNum=2, numSV=9, svid_01=21, elv_01=8.0, az_01=309, cno_01=28, svid_02=27, elv_02=15.0, az_02=259, cno_02=31, svid_03=32, elv_03=39.0, az_03=178, cno_03=41, svid_04=34, elv_04=51.0, az_04=86, cno_04=47, signalID=7)>
2026-06-07 14:59:51,919 - INFO - <NMEA(GAGSV, numMsg=3, msgNum=3, numSV=9, svid_01=36, elv_01=5.0, az_01=108, cno_01=40, signalID=7)>
2026-06-07 14:59:51,920 - INFO - <NMEA(GBGSV, numMsg=2, msgNum=1, numSV=7, svid_01=13, elv_01=57.0, az_01=149, cno_01=39, svid_02=27, elv_02=43.0, az_02=311, cno_02=42, svid_03=28, elv_03=83.0, az_03=234, cno_03=47, svid_04=33, elv_04=71.0, az_04=38, cno_04=38, signalID=1)>
2026-06-07 14:59:51,920 - INFO - <NMEA(GBGSV, numMsg=2, msgNum=2, numSV=7, svid_01=38, elv_01=31.0, az_01=146, cno_01=42, svid_02=41, elv_02=55.0, az_02=231, cno_02=40, svid_03=42, elv_03=15.0, az_03=46, cno_03=40, signalID=1)>
2026-06-07 14:59:51,921 - INFO - <NMEA(GQGSV, numMsg=1, msgNum=1, numSV=0, signalID=0)>
2026-06-07 14:59:51,922 - INFO - <NMEA(GNGLL, lat=37.9008386667, NS=N, lon=-97.6641975, EW=W, time=19:59:51.800000, status=A, posMode=D)>
2026-06-07 14:59:51,924 - INFO - <UBX(NAV-RELPOSNED, version=1, reserved0=0, refStationID=0, iTOW=19:59:51.800000, relPosN=16.81, relPosE=56.46, relPosD=2.64, relPosLength=58.96, relPosHeading=73.42261, reserved1=0, accN=10.0, accE=10.0, accD=13.5, accLength=10.0, accHeading=0.97271, reserved2=0, gnssFixOK=1, diffSoln=1, relPosValid=1, carrSoln=2, isMoving=1, refPosMiss=0, refObsMiss=0, relPosHeadingValid=1, relPosNormalized=0)>
2026-06-07 14:59:51,925 - INFO - 2026-06-07 14:59:51, current_target: {'timestamp': '2026-05-10 13:40:05', 'lat': 37.9008713333, 'lon': -97.66418, 'speed': 0.004629996, 'y_offset': 0.0, 'x_offset': 0.0, 'z_offset': 0.0, 'heading': 1.76477}, next_target: {'timestamp': '2026-05-10 13:40:06', 'lat': 37.9008713333, 'lon': -97.66418, 'speed': 0.00514444, 'y_offset': 0.0, 'x_offset': 0.0, 'z_offset': 0.0, 'heading': 1.76299}
2026-06-07 14:59:51,925 - INFO - 2026-06-07 14:59:51 [3.4 OBSERVED] current_turn_radius: infm
2026-06-07 14:59:51,925 - INFO - 2026-06-07 14:59:51 [3.4 OBSERVED] turn_direction: LEFT
2026-06-07 14:59:51,925 - INFO - 2026-06-07 14:59:51 [3.4 OBSERVED] estimated left/right wheel speeds: nan, nan rad/s
2026-06-07 14:59:51,929 - INFO - 2026-06-07 14:59:51 [STATE] Current state: NAVIGATING_TO_START
2026-06-07 14:59:51,929 - INFO - 2026-06-07 14:59:51 [NAV_TO_START] Phase: PIVOT_TO_BEARING, Dist: 3.939m, Bearing err: -50.4°, Heading diff: 71.7°, Elapsed: 0.6s
2026-06-07 14:59:51,929 - INFO - 2026-06-07 14:59:51 [NAV_TO_START] PIVOT_TO_BEARING LEFT: heading=73.4°, bearing=23.0°, error=-50.4°, force=aggressive
2026-06-07 14:59:51,944 - INFO - goto_positions: M1=1370, M2=830 [Pivot to bearing LEFT]
2026-06-07 14:59:51,944 - INFO - <UBX(RXM-RTCM, version=2, crcFailed=0, msgUsed=2, subType=0, refStation=0, msgType=4072)>
2026-06-07 14:59:52,041 - INFO - <UBX(RXM-RTCM, version=2, crcFailed=0, msgUsed=2, subType=0, refStation=0, msgType=1074)>
2026-06-07 14:59:52,044 - INFO - <UBX(RXM-RTCM, version=2, crcFailed=0, msgUsed=2, subType=0, refStation=0, msgType=1084)>
2026-06-07 14:59:52,047 - INFO - <UBX(RXM-RTCM, version=2, crcFailed=0, msgUsed=2, subType=0, refStation=0, msgType=1094)>
2026-06-07 14:59:52,049 - INFO - <UBX(RXM-RTCM, version=2, crcFailed=0, msgUsed=2, subType=0, refStation=0, msgType=1124)>
2026-06-07 14:59:52,050 - INFO - <UBX(RXM-RTCM, version=2, crcFailed=0, msgUsed=2, subType=0, refStation=0, msgType=1230)>
2026-06-07 14:59:52,107 - INFO - <UBX(NAV-PVT, iTOW=19:59:52, year=2026, month=6, day=7, hour=19, min=59, second=52, validDate=1, validTime=1, fullyResolved=1, validMag=0, tAcc=22, nano=187179, fixType=3, gnssFixOk=1, diffSoln=1, psmState=0, headVehValid=0, carrSoln=2, confirmedAvai=1, confirmedDate=1, confirmedTime=1, numSV=28, lon=-97.6641975, lat=37.9008386, height=409469, hMSL=435722, hAcc=28, vAcc=41, velN=-3, velE=-7, velD=6, gSpeed=7, headMot=59.78203, sAcc=73, headAcc=180.0, pDOP=0.91, invalidLlh=0, lastCorrectionAge=1, reserved0=860630572, headVeh=0.0, magDec=0.0, magAcc=0.0)>
2026-06-07 14:59:52,108 - INFO - <NMEA(GNRMC, time=19:59:52, status=A, lat=37.9008386667, NS=N, lon=-97.6641975, EW=W, spd=0.014, cog=, date=2026-06-07, mv=, mvEW=, posMode=R, navStatus=V)>
2026-06-07 14:59:52,108 - INFO - <NMEA(GNVTG, cogt=, cogtUnit=T, cogm=, cogmUnit=M, sogn=0.014, sognUnit=N, sogk=0.026, sogkUnit=K, posMode=D)>
2026-06-07 14:59:52,109 - INFO - <NMEA(GNGGA, time=19:59:52, lat=37.9008386667, NS=N, lon=-97.6641975, EW=W, quality=4, numSV=12, HDOP=0.52, alt=435.7, altUnit=M, sep=-26.3, sepUnit=M, diffAge=0.2, diffStation=0)>
2026-06-07 14:59:52,109 - INFO - <NMEA(GNGSA, opMode=M, navMode=3, svid_01=5, svid_02=10, svid_03=15, svid_04=18, svid_05=20, svid_06=23, svid_07=24, svid_08=29, svid_09=, svid_10=, svid_11=, svid_12=, PDOP=0.91, HDOP=0.52, VDOP=0.74, systemId=1)>
2026-06-07 14:59:52,110 - INFO - <NMEA(GNGSA, opMode=M, navMode=3, svid_01=70, svid_02=86, svid_03=69, svid_04=84, svid_05=85, svid_06=71, svid_07=, svid_08=, svid_09=, svid_10=, svid_11=, svid_12=, PDOP=0.91, HDOP=0.52, VDOP=0.74, systemId=2)>
2026-06-07 14:59:52,110 - INFO - <NMEA(GNGSA, opMode=M, navMode=3, svid_01=3, svid_02=5, svid_03=8, svid_04=13, svid_05=15, svid_06=27, svid_07=34, svid_08=, svid_09=, svid_10=, svid_11=, svid_12=, PDOP=0.91, HDOP=0.52, VDOP=0.74, systemId=3)>
2026-06-07 14:59:52,111 - INFO - <NMEA(GNGSA, opMode=M, navMode=3, svid_01=27, svid_02=28, svid_03=33, svid_04=38, svid_05=41, svid_06=42, svid_07=13, svid_08=, svid_09=, svid_10=, svid_11=, svid_12=, PDOP=0.91, HDOP=0.52, VDOP=0.74, systemId=4)>
2026-06-07 14:59:52,112 - INFO - <NMEA(GNGSA, opMode=M, navMode=3, svid_01=, svid_02=, svid_03=, svid_04=, svid_05=, svid_06=, svid_07=, svid_08=, svid_09=, svid_10=, svid_11=, svid_12=, PDOP=0.91, HDOP=0.52, VDOP=0.74, systemId=5)>
2026-06-07 14:59:52,113 - INFO - <NMEA(GPGSV, numMsg=4, msgNum=1, numSV=13, svid_01=5, elv_01=16.0, az_01=64, cno_01=45, svid_02=10, elv_02=25.0, az_02=263, cno_02=19, svid_03=15, elv_03=62.0, az_03=64, cno_03=48, svid_04=16, elv_04=7.0, az_04=288, cno_04=24, signalID=1)>
2026-06-07 14:59:52,114 - INFO - <NMEA(GPGSV, numMsg=4, msgNum=2, numSV=13, svid_01=18, elv_01=74.0, az_01=357, cno_01=45, svid_02=20, elv_02=35.0, az_02=49, cno_02=46, svid_03=23, elv_03=55.0, az_03=287, cno_03=38, svid_04=24, elv_04=18.0, az_04=130, cno_04=38, signalID=1)>
2026-06-07 14:59:52,115 - INFO - <NMEA(GPGSV, numMsg=4, msgNum=3, numSV=13, svid_01=27, elv_01=12.0, az_01=320, cno_01=29, svid_02=29, elv_02=36.0, az_02=180, cno_02=41, svid_03=44, elv_03=42.0, az_03=210, cno_03=38, svid_04=46, elv_04=35.0, az_04=225, cno_04=43, signalID=1)>
2026-06-07 14:59:52,115 - INFO - <NMEA(GPGSV, numMsg=4, msgNum=4, numSV=13, svid_01=48, elv_01=38.0, az_01=220, cno_01=40, signalID=1)>
2026-06-07 14:59:52,117 - INFO - <NMEA(GPGSV, numMsg=3, msgNum=1, numSV=9, svid_01=5, elv_01=16.0, az_01=64, cno_01=38, svid_02=10, elv_02=25.0, az_02=263, cno_02=34, svid_03=15, elv_03=62.0, az_03=64, cno_03=40, svid_04=18, elv_04=74.0, az_04=357, cno_04=35, signalID=6)>
2026-06-07 14:59:52,119 - INFO - <NMEA(GPGSV, numMsg=3, msgNum=2, numSV=9, svid_01=20, elv_01=35.0, az_01=49, cno_01=37, svid_02=23, elv_02=55.0, az_02=287, cno_02=41, svid_03=24, elv_03=18.0, az_03=130, cno_03=40, svid_04=27, elv_04=12.0, az_04=320, cno_04=25, signalID=6)>
2026-06-07 14:59:52,120 - INFO - <NMEA(GPGSV, numMsg=3, msgNum=3, numSV=9, svid_01=29, elv_01=36.0, az_01=180, cno_01=37, signalID=6)>
2026-06-07 14:59:52,121 - INFO - <NMEA(GLGSV, numMsg=2, msgNum=1, numSV=6, svid_01=69, elv_01=18.0, az_01=32, cno_01=41, svid_02=70, elv_02=70.0, az_02=25, cno_02=48, svid_03=71, elv_03=44.0, az_03=218, cno_03=42, svid_04=84, elv_04=31.0, az_04=128, cno_04=39, signalID=1)>
2026-06-07 14:59:52,121 - INFO - <NMEA(GLGSV, numMsg=2, msgNum=2, numSV=6, svid_01=85, elv_01=75.0, az_01=85, cno_01=49, svid_02=86, elv_02=30.0, az_02=326, cno_02=39, signalID=1)>
2026-06-07 14:59:52,122 - INFO - <NMEA(GLGSV, numMsg=2, msgNum=1, numSV=6, svid_01=69, elv_01=18.0, az_01=32, cno_01=36, svid_02=70, elv_02=70.0, az_02=25, cno_02=39, svid_03=71, elv_03=44.0, az_03=218, cno_03=40, svid_04=84, elv_04=31.0, az_04=128, cno_04=42, signalID=3)>
2026-06-07 14:59:52,122 - INFO - <NMEA(GLGSV, numMsg=2, msgNum=2, numSV=6, svid_01=85, elv_01=75.0, az_01=85, cno_01=39, svid_02=86, elv_02=30.0, az_02=326, cno_02=26, signalID=3)>
2026-06-07 14:59:52,123 - INFO - <NMEA(GAGSV, numMsg=3, msgNum=1, numSV=11, svid_01=3, elv_01=59.0, az_01=145, cno_01=40, svid_02=5, elv_02=41.0, az_02=57, cno_02=43, svid_03=8, elv_03=19.0, az_03=193, cno_03=36, svid_04=13, elv_04=14.0, az_04=300, cno_04=28, signalID=2)>
2026-06-07 14:59:52,123 - INFO - <NMEA(GAGSV, numMsg=3, msgNum=2, numSV=11, svid_01=15, elv_01=61.0, az_01=333, cno_01=47, svid_02=21, elv_02=8.0, az_02=309, cno_02=22, svid_03=27, elv_03=15.0, az_03=259, cno_03=35, svid_04=30, elv_04=5.0, az_04=213, cno_04=30, signalID=2)>
2026-06-07 14:59:52,124 - INFO - <NMEA(GAGSV, numMsg=3, msgNum=3, numSV=11, svid_01=32, elv_01=39.0, az_01=178, cno_01=40, svid_02=34, elv_02=51.0, az_02=86, cno_02=45, svid_03=36, elv_03=5.0, az_03=108, cno_03=38, signalID=2)>
2026-06-07 14:59:52,124 - INFO - <NMEA(GAGSV, numMsg=3, msgNum=1, numSV=9, svid_01=3, elv_01=59.0, az_01=145, cno_01=36, svid_02=5, elv_02=41.0, az_02=57, cno_02=47, svid_03=8, elv_03=19.0, az_03=193, cno_03=33, svid_04=15, elv_04=61.0, az_04=333, cno_04=45, signalID=7)>
2026-06-07 14:59:52,125 - INFO - <NMEA(GAGSV, numMsg=3, msgNum=2, numSV=9, svid_01=21, elv_01=8.0, az_01=309, cno_01=28, svid_02=27, elv_02=15.0, az_02=259, cno_02=31, svid_03=32, elv_03=39.0, az_03=178, cno_03=41, svid_04=34, elv_04=51.0, az_04=86, cno_04=47, signalID=7)>
2026-06-07 14:59:52,126 - INFO - <NMEA(GAGSV, numMsg=3, msgNum=3, numSV=9, svid_01=36, elv_01=5.0, az_01=108, cno_01=40, signalID=7)>
2026-06-07 14:59:52,127 - INFO - <NMEA(GBGSV, numMsg=2, msgNum=1, numSV=7, svid_01=13, elv_01=57.0, az_01=149, cno_01=39, svid_02=27, elv_02=43.0, az_02=311, cno_02=42, svid_03=28, elv_03=83.0, az_03=234, cno_03=47, svid_04=33, elv_04=71.0, az_04=38, cno_04=38, signalID=1)>
2026-06-07 14:59:52,128 - INFO - <NMEA(GBGSV, numMsg=2, msgNum=2, numSV=7, svid_01=38, elv_01=31.0, az_01=146, cno_01=42, svid_02=41, elv_02=55.0, az_02=231, cno_02=40, svid_03=42, elv_03=15.0, az_03=46, cno_03=40, signalID=1)>
2026-06-07 14:59:52,128 - INFO - <NMEA(GQGSV, numMsg=1, msgNum=1, numSV=0, signalID=0)>
2026-06-07 14:59:52,129 - INFO - <NMEA(GNGLL, lat=37.9008386667, NS=N, lon=-97.6641975, EW=W, time=19:59:52, status=A, posMode=D)>
2026-06-07 14:59:52,130 - INFO - <UBX(NAV-RELPOSNED, version=1, reserved0=0, refStationID=0, iTOW=19:59:52, relPosN=16.59, relPosE=56.49, relPosD=2.91, relPosLength=58.95, relPosHeading=73.6373, reserved1=0, accN=10.0, accE=10.0, accD=13.1, accLength=10.0, accHeading=0.97321, reserved2=0, gnssFixOK=1, diffSoln=1, relPosValid=1, carrSoln=2, isMoving=1, refPosMiss=0, refObsMiss=0, relPosHeadingValid=1, relPosNormalized=0)>
2026-06-07 14:59:52,131 - INFO - 2026-06-07 14:59:52, current_target: {'timestamp': '2026-05-10 13:40:05', 'lat': 37.9008713333, 'lon': -97.66418, 'speed': 0.004629996, 'y_offset': 0.0, 'x_offset': 0.0, 'z_offset': 0.0, 'heading': 1.76477}, next_target: {'timestamp': '2026-05-10 13:40:06', 'lat': 37.9008713333, 'lon': -97.66418, 'speed': 0.00514444, 'y_offset': 0.0, 'x_offset': 0.0, 'z_offset': 0.0, 'heading': 1.76299}
2026-06-07 14:59:52,132 - INFO - 2026-06-07 14:59:52 [3.4 OBSERVED] current_turn_radius: infm
2026-06-07 14:59:52,132 - INFO - 2026-06-07 14:59:52 [3.4 OBSERVED] turn_direction: RIGHT
2026-06-07 14:59:52,132 - INFO - 2026-06-07 14:59:52 [3.4 OBSERVED] estimated left/right wheel speeds: nan, nan rad/s
2026-06-07 14:59:52,136 - INFO - 2026-06-07 14:59:52 [STATE] Current state: NAVIGATING_TO_START
2026-06-07 14:59:52,136 - INFO - 2026-06-07 14:59:52 [NAV_TO_START] Phase: PIVOT_TO_BEARING, Dist: 3.939m, Bearing err: -50.6°, Heading diff: 71.9°, Elapsed: 0.9s
2026-06-07 14:59:52,136 - INFO - 2026-06-07 14:59:52 [NAV_TO_START] PIVOT_TO_BEARING LEFT: heading=73.6°, bearing=23.0°, error=-50.6°, force=aggressive
2026-06-07 14:59:52,149 - INFO - goto_positions: M1=1370, M2=830 [Pivot to bearing LEFT]
2026-06-07 14:59:52,149 - INFO - <UBX(RXM-RTCM, version=2, crcFailed=0, msgUsed=2, subType=0, refStation=0, msgType=4072)>
2026-06-07 14:59:52,242 - INFO - <UBX(RXM-RTCM, version=2, crcFailed=0, msgUsed=2, subType=0, refStation=0, msgType=1074)>
2026-06-07 14:59:52,245 - INFO - <UBX(RXM-RTCM, version=2, crcFailed=0, msgUsed=2, subType=0, refStation=0, msgType=1084)>
2026-06-07 14:59:52,249 - INFO - <UBX(RXM-RTCM, version=2, crcFailed=0, msgUsed=2, subType=0, refStation=0, msgType=1094)>
2026-06-07 14:59:52,250 - INFO - <UBX(RXM-RTCM, version=2, crcFailed=0, msgUsed=2, subType=0, refStation=0, msgType=1124)>
2026-06-07 14:59:52,251 - INFO - <UBX(RXM-RTCM, version=2, crcFailed=0, msgUsed=2, subType=0, refStation=0, msgType=1230)>
2026-06-07 14:59:52,291 - INFO - <UBX(NAV-PVT, iTOW=19:59:52.200000, year=2026, month=6, day=7, hour=19, min=59, second=52, validDate=1, validTime=1, fullyResolved=1, validMag=0, tAcc=22, nano=200187137, fixType=3, gnssFixOk=1, diffSoln=1, psmState=0, headVehValid=0, carrSoln=2, confirmedAvai=1, confirmedDate=1, confirmedTime=1, numSV=28, lon=-97.6641975, lat=37.9008385, height=409471, hMSL=435724, hAcc=28, vAcc=41, velN=-48, velE=-15, velD=2, gSpeed=50, headMot=59.78203, sAcc=71, headAcc=82.25148, pDOP=0.91, invalidLlh=0, lastCorrectionAge=1, reserved0=860630572, headVeh=0.0, magDec=0.0, magAcc=0.0)>
2026-06-07 14:59:52,293 - INFO - <NMEA(GNRMC, time=19:59:52.200000, status=A, lat=37.9008385, NS=N, lon=-97.6641975, EW=W, spd=0.098, cog=, date=2026-06-07, mv=, mvEW=, posMode=R, navStatus=V)>
2026-06-07 14:59:52,294 - INFO - <NMEA(GNVTG, cogt=, cogtUnit=T, cogm=, cogmUnit=M, sogn=0.098, sognUnit=N, sogk=0.182, sogkUnit=K, posMode=D)>
2026-06-07 14:59:52,295 - INFO - <NMEA(GNGGA, time=19:59:52.200000, lat=37.9008385, NS=N, lon=-97.6641975, EW=W, quality=4, numSV=12, HDOP=0.52, alt=435.7, altUnit=M, sep=-26.3, sepUnit=M, diffAge=0.2, diffStation=0)>
2026-06-07 14:59:52,295 - INFO - <NMEA(GNGSA, opMode=M, navMode=3, svid_01=5, svid_02=10, svid_03=15, svid_04=18, svid_05=20, svid_06=23, svid_07=24, svid_08=29, svid_09=, svid_10=, svid_11=, svid_12=, PDOP=0.91, HDOP=0.52, VDOP=0.74, systemId=1)>
2026-06-07 14:59:52,296 - INFO - <NMEA(GNGSA, opMode=M, navMode=3, svid_01=70, svid_02=86, svid_03=69, svid_04=84, svid_05=85, svid_06=71, svid_07=, svid_08=, svid_09=, svid_10=, svid_11=, svid_12=, PDOP=0.91, HDOP=0.52, VDOP=0.74, systemId=2)>
2026-06-07 14:59:52,297 - INFO - <NMEA(GNGSA, opMode=M, navMode=3, svid_01=3, svid_02=5, svid_03=8, svid_04=13, svid_05=15, svid_06=27, svid_07=34, svid_08=, svid_09=, svid_10=, svid_11=, svid_12=, PDOP=0.91, HDOP=0.52, VDOP=0.74, systemId=3)>
2026-06-07 14:59:52,298 - INFO - <NMEA(GNGSA, opMode=M, navMode=3, svid_01=27, svid_02=28, svid_03=33, svid_04=38, svid_05=41, svid_06=42, svid_07=13, svid_08=, svid_09=, svid_10=, svid_11=, svid_12=, PDOP=0.91, HDOP=0.52, VDOP=0.74, systemId=4)>
2026-06-07 14:59:52,299 - INFO - <NMEA(GNGSA, opMode=M, navMode=3, svid_01=, svid_02=, svid_03=, svid_04=, svid_05=, svid_06=, svid_07=, svid_08=, svid_09=, svid_10=, svid_11=, svid_12=, PDOP=0.91, HDOP=0.52, VDOP=0.74, systemId=5)>
2026-06-07 14:59:52,300 - INFO - <NMEA(GPGSV, numMsg=4, msgNum=1, numSV=13, svid_01=5, elv_01=16.0, az_01=64, cno_01=46, svid_02=10, elv_02=25.0, az_02=263, cno_02=18, svid_03=15, elv_03=62.0, az_03=64, cno_03=48, svid_04=16, elv_04=7.0, az_04=288, cno_04=23, signalID=1)>
2026-06-07 14:59:52,302 - INFO - <NMEA(GPGSV, numMsg=4, msgNum=2, numSV=13, svid_01=18, elv_01=74.0, az_01=357, cno_01=46, svid_02=20, elv_02=35.0, az_02=49, cno_02=46, svid_03=23, elv_03=55.0, az_03=287, cno_03=38, svid_04=24, elv_04=18.0, az_04=130, cno_04=38, signalID=1)>
2026-06-07 14:59:52,304 - INFO - <NMEA(GPGSV, numMsg=4, msgNum=3, numSV=13, svid_01=27, elv_01=12.0, az_01=320, cno_01=30, svid_02=29, elv_02=36.0, az_02=180, cno_02=41, svid_03=44, elv_03=42.0, az_03=210, cno_03=38, svid_04=46, elv_04=35.0, az_04=225, cno_04=43, signalID=1)>
2026-06-07 14:59:52,305 - INFO - <NMEA(GPGSV, numMsg=4, msgNum=4, numSV=13, svid_01=48, elv_01=38.0, az_01=220, cno_01=39, signalID=1)>
2026-06-07 14:59:52,307 - INFO - <NMEA(GPGSV, numMsg=3, msgNum=1, numSV=9, svid_01=5, elv_01=16.0, az_01=64, cno_01=38, svid_02=10, elv_02=25.0, az_02=263, cno_02=34, svid_03=15, elv_03=62.0, az_03=64, cno_03=40, svid_04=18, elv_04=74.0, az_04=357, cno_04=35, signalID=6)>
2026-06-07 14:59:52,309 - INFO - <NMEA(GPGSV, numMsg=3, msgNum=2, numSV=9, svid_01=20, elv_01=35.0, az_01=49, cno_01=37, svid_02=23, elv_02=55.0, az_02=287, cno_02=41, svid_03=24, elv_03=18.0, az_03=130, cno_03=40, svid_04=27, elv_04=12.0, az_04=320, cno_04=25, signalID=6)>
2026-06-07 14:59:52,310 - INFO - <NMEA(GPGSV, numMsg=3, msgNum=3, numSV=9, svid_01=29, elv_01=36.0, az_01=180, cno_01=37, signalID=6)>
2026-06-07 14:59:52,312 - INFO - <NMEA(GLGSV, numMsg=2, msgNum=1, numSV=6, svid_01=69, elv_01=18.0, az_01=32, cno_01=41, svid_02=70, elv_02=70.0, az_02=25, cno_02=48, svid_03=71, elv_03=44.0, az_03=218, cno_03=42, svid_04=84, elv_04=31.0, az_04=128, cno_04=39, signalID=1)>
2026-06-07 14:59:52,313 - INFO - <NMEA(GLGSV, numMsg=2, msgNum=2, numSV=6, svid_01=85, elv_01=75.0, az_01=85, cno_01=49, svid_02=86, elv_02=30.0, az_02=326, cno_02=39, signalID=1)>
2026-06-07 14:59:52,314 - INFO - <NMEA(GLGSV, numMsg=2, msgNum=1, numSV=6, svid_01=69, elv_01=18.0, az_01=32, cno_01=36, svid_02=70, elv_02=70.0, az_02=25, cno_02=39, svid_03=71, elv_03=44.0, az_03=218, cno_03=40, svid_04=84, elv_04=31.0, az_04=128, cno_04=42, signalID=3)>
2026-06-07 14:59:52,315 - INFO - <NMEA(GLGSV, numMsg=2, msgNum=2, numSV=6, svid_01=85, elv_01=75.0, az_01=85, cno_01=39, svid_02=86, elv_02=30.0, az_02=326, cno_02=27, signalID=3)>
2026-06-07 14:59:52,315 - INFO - <NMEA(GAGSV, numMsg=3, msgNum=1, numSV=11, svid_01=3, elv_01=59.0, az_01=145, cno_01=40, svid_02=5, elv_02=41.0, az_02=57, cno_02=43, svid_03=8, elv_03=19.0, az_03=193, cno_03=36, svid_04=13, elv_04=14.0, az_04=300, cno_04=28, signalID=2)>
2026-06-07 14:59:52,317 - INFO - <NMEA(GAGSV, numMsg=3, msgNum=2, numSV=11, svid_01=15, elv_01=61.0, az_01=333, cno_01=47, svid_02=21, elv_02=8.0, az_02=309, cno_02=21, svid_03=27, elv_03=15.0, az_03=259, cno_03=35, svid_04=30, elv_04=5.0, az_04=213, cno_04=30, signalID=2)>
2026-06-07 14:59:52,318 - INFO - <NMEA(GAGSV, numMsg=3, msgNum=3, numSV=11, svid_01=32, elv_01=39.0, az_01=178, cno_01=39, svid_02=34, elv_02=51.0, az_02=86, cno_02=45, svid_03=36, elv_03=5.0, az_03=108, cno_03=38, signalID=2)>
2026-06-07 14:59:52,320 - INFO - <NMEA(GAGSV, numMsg=3, msgNum=1, numSV=9, svid_01=3, elv_01=59.0, az_01=145, cno_01=36, svid_02=5, elv_02=41.0, az_02=57, cno_02=47, svid_03=8, elv_03=19.0, az_03=193, cno_03=33, svid_04=15, elv_04=61.0, az_04=333, cno_04=45, signalID=7)>
2026-06-07 14:59:52,322 - INFO - <NMEA(GAGSV, numMsg=3, msgNum=2, numSV=9, svid_01=21, elv_01=8.0, az_01=309, cno_01=28, svid_02=27, elv_02=15.0, az_02=259, cno_02=31, svid_03=32, elv_03=39.0, az_03=178, cno_03=41, svid_04=34, elv_04=51.0, az_04=86, cno_04=47, signalID=7)>
2026-06-07 14:59:52,323 - INFO - <NMEA(GAGSV, numMsg=3, msgNum=3, numSV=9, svid_01=36, elv_01=5.0, az_01=108, cno_01=40, signalID=7)>
2026-06-07 14:59:52,325 - INFO - <NMEA(GBGSV, numMsg=2, msgNum=1, numSV=7, svid_01=13, elv_01=57.0, az_01=149, cno_01=39, svid_02=27, elv_02=43.0, az_02=311, cno_02=42, svid_03=28, elv_03=83.0, az_03=234, cno_03=47, svid_04=33, elv_04=71.0, az_04=38, cno_04=38, signalID=1)>
2026-06-07 14:59:52,326 - INFO - <NMEA(GBGSV, numMsg=2, msgNum=2, numSV=7, svid_01=38, elv_01=31.0, az_01=146, cno_01=42, svid_02=41, elv_02=55.0, az_02=231, cno_02=40, svid_03=42, elv_03=15.0, az_03=46, cno_03=40, signalID=1)>
2026-06-07 14:59:52,327 - INFO - <NMEA(GQGSV, numMsg=1, msgNum=1, numSV=0, signalID=0)>
2026-06-07 14:59:52,327 - INFO - <NMEA(GNGLL, lat=37.9008385, NS=N, lon=-97.6641975, EW=W, time=19:59:52.200000, status=A, posMode=D)>
2026-06-07 14:59:52,328 - INFO - <UBX(NAV-RELPOSNED, version=1, reserved0=0, refStationID=0, iTOW=19:59:52.200000, relPosN=16.25, relPosE=56.64, relPosD=2.65, relPosLength=58.98, relPosHeading=73.98737, reserved1=0, accN=10.0, accE=10.0, accD=13.3, accLength=10.0, accHeading=0.97236, reserved2=0, gnssFixOK=1, diffSoln=1, relPosValid=1, carrSoln=2, isMoving=1, refPosMiss=0, refObsMiss=0, relPosHeadingValid=1, relPosNormalized=0)>
2026-06-07 14:59:52,329 - INFO - 2026-06-07 14:59:52, current_target: {'timestamp': '2026-05-10 13:40:05', 'lat': 37.9008713333, 'lon': -97.66418, 'speed': 0.004629996, 'y_offset': 0.0, 'x_offset': 0.0, 'z_offset': 0.0, 'heading': 1.76477}, next_target: {'timestamp': '2026-05-10 13:40:06', 'lat': 37.9008713333, 'lon': -97.66418, 'speed': 0.00514444, 'y_offset': 0.0, 'x_offset': 0.0, 'z_offset': 0.0, 'heading': 1.76299}
2026-06-07 14:59:52,329 - INFO - 2026-06-07 14:59:52 [3.4 OBSERVED] current_turn_radius: infm
2026-06-07 14:59:52,329 - INFO - 2026-06-07 14:59:52 [3.4 OBSERVED] turn_direction: RIGHT
2026-06-07 14:59:52,329 - INFO - 2026-06-07 14:59:52 [3.4 OBSERVED] estimated left/right wheel speeds: nan, nan rad/s
2026-06-07 14:59:52,332 - INFO - 2026-06-07 14:59:52 [STATE] Current state: NAVIGATING_TO_START
2026-06-07 14:59:52,332 - INFO - 2026-06-07 14:59:52 [NAV_TO_START] Phase: PIVOT_TO_BEARING, Dist: 3.956m, Bearing err: -51.1°, Heading diff: 72.2°, Elapsed: 1.1s
2026-06-07 14:59:52,332 - INFO - 2026-06-07 14:59:52 [NAV_TO_START] PIVOT_TO_BEARING LEFT: heading=74.0°, bearing=22.9°, error=-51.1°, force=aggressive
2026-06-07 14:59:52,344 - INFO - goto_positions: M1=1370, M2=830 [Pivot to bearing LEFT]
2026-06-07 14:59:52,344 - INFO - <UBX(RXM-RTCM, version=2, crcFailed=0, msgUsed=2, subType=0, refStation=0, msgType=4072)>
2026-06-07 14:59:52,442 - INFO - <UBX(RXM-RTCM, version=2, crcFailed=0, msgUsed=2, subType=0, refStation=0, msgType=1074)>
2026-06-07 14:59:52,443 - INFO - <UBX(RXM-RTCM, version=2, crcFailed=0, msgUsed=2, subType=0, refStation=0, msgType=1084)>
2026-06-07 14:59:52,447 - INFO - <UBX(RXM-RTCM, version=2, crcFailed=0, msgUsed=2, subType=0, refStation=0, msgType=1094)>
2026-06-07 14:59:52,449 - INFO - <UBX(RXM-RTCM, version=2, crcFailed=0, msgUsed=2, subType=0, refStation=0, msgType=1124)>
2026-06-07 14:59:52,450 - INFO - <UBX(RXM-RTCM, version=2, crcFailed=0, msgUsed=2, subType=0, refStation=0, msgType=1230)>
2026-06-07 14:59:52,490 - INFO - <UBX(NAV-PVT, iTOW=19:59:52.400000, year=2026, month=6, day=7, hour=19, min=59, second=52, validDate=1, validTime=1, fullyResolved=1, validMag=0, tAcc=22, nano=400187095, fixType=3, gnssFixOk=1, diffSoln=1, psmState=0, headVehValid=0, carrSoln=2, confirmedAvai=1, confirmedDate=1, confirmedTime=1, numSV=28, lon=-97.6641977, lat=37.9008383, height=409471, hMSL=435724, hAcc=28, vAcc=42, velN=-103, velE=-75, velD=-7, gSpeed=127, headMot=216.34012, sAcc=64, headAcc=33.9037, pDOP=0.91, invalidLlh=0, lastCorrectionAge=1, reserved0=860630572, headVeh=0.0, magDec=0.0, magAcc=0.0)>
2026-06-07 14:59:52,492 - INFO - <NMEA(GNRMC, time=19:59:52.400000, status=A, lat=37.9008383333, NS=N, lon=-97.6641976667, EW=W, spd=0.248, cog=216.34, date=2026-06-07, mv=, mvEW=, posMode=R, navStatus=V)>
2026-06-07 14:59:52,493 - INFO - <NMEA(GNVTG, cogt=216.34, cogtUnit=T, cogm=, cogmUnit=M, sogn=0.248, sognUnit=N, sogk=0.459, sogkUnit=K, posMode=D)>
2026-06-07 14:59:52,495 - INFO - <NMEA(GNGGA, time=19:59:52.400000, lat=37.9008383333, NS=N, lon=-97.6641976667, EW=W, quality=4, numSV=12, HDOP=0.52, alt=435.7, altUnit=M, sep=-26.3, sepUnit=M, diffAge=0.2, diffStation=0)>
2026-06-07 14:59:52,495 - INFO - <NMEA(GNGSA, opMode=M, navMode=3, svid_01=5, svid_02=10, svid_03=15, svid_04=18, svid_05=20, svid_06=23, svid_07=24, svid_08=29, svid_09=, svid_10=, svid_11=, svid_12=, PDOP=0.91, HDOP=0.52, VDOP=0.74, systemId=1)>
2026-06-07 14:59:52,495 - INFO - <NMEA(GNGSA, opMode=M, navMode=3, svid_01=70, svid_02=86, svid_03=69, svid_04=84, svid_05=85, svid_06=71, svid_07=, svid_08=, svid_09=, svid_10=, svid_11=, svid_12=, PDOP=0.91, HDOP=0.52, VDOP=0.74, systemId=2)>
2026-06-07 14:59:52,496 - INFO - <NMEA(GNGSA, opMode=M, navMode=3, svid_01=3, svid_02=5, svid_03=8, svid_04=13, svid_05=15, svid_06=27, svid_07=34, svid_08=, svid_09=, svid_10=, svid_11=, svid_12=, PDOP=0.91, HDOP=0.52, VDOP=0.74, systemId=3)>
2026-06-07 14:59:52,496 - INFO - <NMEA(GNGSA, opMode=M, navMode=3, svid_01=27, svid_02=28, svid_03=33, svid_04=38, svid_05=41, svid_06=42, svid_07=13, svid_08=, svid_09=, svid_10=, svid_11=, svid_12=, PDOP=0.91, HDOP=0.52, VDOP=0.74, systemId=4)>
2026-06-07 14:59:52,497 - INFO - <NMEA(GNGSA, opMode=M, navMode=3, svid_01=, svid_02=, svid_03=, svid_04=, svid_05=, svid_06=, svid_07=, svid_08=, svid_09=, svid_10=, svid_11=, svid_12=, PDOP=0.91, HDOP=0.52, VDOP=0.74, systemId=5)>
2026-06-07 14:59:52,498 - INFO - <NMEA(GPGSV, numMsg=3, msgNum=1, numSV=12, svid_01=5, elv_01=16.0, az_01=64, cno_01=48, svid_02=10, elv_02=25.0, az_02=263, cno_02=19, svid_03=15, elv_03=62.0, az_03=64, cno_03=47, svid_04=18, elv_04=74.0, az_04=357, cno_04=46, signalID=1)>
2026-06-07 14:59:52,499 - INFO - <NMEA(GPGSV, numMsg=3, msgNum=2, numSV=12, svid_01=20, elv_01=35.0, az_01=49, cno_01=47, svid_02=23, elv_02=55.0, az_02=287, cno_02=38, svid_03=24, elv_03=18.0, az_03=130, cno_03=38, svid_04=27, elv_04=12.0, az_04=320, cno_04=30, signalID=1)>
2026-06-07 14:59:52,500 - INFO - <NMEA(GPGSV, numMsg=3, msgNum=3, numSV=12, svid_01=29, elv_01=36.0, az_01=180, cno_01=40, svid_02=44, elv_02=42.0, az_02=210, cno_02=38, svid_03=46, elv_03=35.0, az_03=225, cno_03=43, svid_04=48, elv_04=38.0, az_04=220, cno_04=38, signalID=1)>
2026-06-07 14:59:52,500 - INFO - <NMEA(GPGSV, numMsg=3, msgNum=1, numSV=9, svid_01=5, elv_01=16.0, az_01=64, cno_01=38, svid_02=10, elv_02=25.0, az_02=263, cno_02=34, svid_03=15, elv_03=62.0, az_03=64, cno_03=40, svid_04=18, elv_04=74.0, az_04=357, cno_04=35, signalID=6)>
2026-06-07 14:59:52,501 - INFO - <NMEA(GPGSV, numMsg=3, msgNum=2, numSV=9, svid_01=20, elv_01=35.0, az_01=49, cno_01=37, svid_02=23, elv_02=55.0, az_02=287, cno_02=41, svid_03=24, elv_03=18.0, az_03=130, cno_03=40, svid_04=27, elv_04=12.0, az_04=320, cno_04=24, signalID=6)>
2026-06-07 14:59:52,502 - INFO - <NMEA(GPGSV, numMsg=3, msgNum=3, numSV=9, svid_01=29, elv_01=36.0, az_01=180, cno_01=37, signalID=6)>
2026-06-07 14:59:52,503 - INFO - <NMEA(GPGSV, numMsg=1, msgNum=1, numSV=1, svid_01=16, elv_01=7.0, az_01=288, cno_01=, signalID=0)>
2026-06-07 14:59:52,505 - INFO - <NMEA(GLGSV, numMsg=2, msgNum=1, numSV=6, svid_01=69, elv_01=18.0, az_01=32, cno_01=46, svid_02=70, elv_02=70.0, az_02=25, cno_02=48, svid_03=71, elv_03=44.0, az_03=218, cno_03=41, svid_04=84, elv_04=31.0, az_04=128, cno_04=39, signalID=1)>
2026-06-07 14:59:52,506 - INFO - <NMEA(GLGSV, numMsg=2, msgNum=2, numSV=6, svid_01=85, elv_01=75.0, az_01=85, cno_01=49, svid_02=86, elv_02=30.0, az_02=326, cno_02=39, signalID=1)>
2026-06-07 14:59:52,507 - INFO - <NMEA(GLGSV, numMsg=2, msgNum=1, numSV=6, svid_01=69, elv_01=18.0, az_01=32, cno_01=36, svid_02=70, elv_02=70.0, az_02=25, cno_02=39, svid_03=71, elv_03=44.0, az_03=218, cno_03=40, svid_04=84, elv_04=31.0, az_04=128, cno_04=42, signalID=3)>
2026-06-07 14:59:52,508 - INFO - <NMEA(GLGSV, numMsg=2, msgNum=2, numSV=6, svid_01=85, elv_01=75.0, az_01=85, cno_01=39, svid_02=86, elv_02=30.0, az_02=326, cno_02=27, signalID=3)>
2026-06-07 14:59:52,508 - INFO - <NMEA(GAGSV, numMsg=3, msgNum=1, numSV=11, svid_01=3, elv_01=59.0, az_01=145, cno_01=40, svid_02=5, elv_02=41.0, az_02=57, cno_02=43, svid_03=8, elv_03=19.0, az_03=193, cno_03=36, svid_04=13, elv_04=14.0, az_04=300, cno_04=28, signalID=2)>
2026-06-07 14:59:52,509 - INFO - <NMEA(GAGSV, numMsg=3, msgNum=2, numSV=11, svid_01=15, elv_01=61.0, az_01=333, cno_01=47, svid_02=21, elv_02=8.0, az_02=309, cno_02=21, svid_03=27, elv_03=15.0, az_03=259, cno_03=35, svid_04=30, elv_04=5.0, az_04=213, cno_04=31, signalID=2)>
2026-06-07 14:59:52,509 - INFO - <NMEA(GAGSV, numMsg=3, msgNum=3, numSV=11, svid_01=32, elv_01=39.0, az_01=178, cno_01=39, svid_02=34, elv_02=51.0, az_02=86, cno_02=45, svid_03=36, elv_03=5.0, az_03=108, cno_03=40, signalID=2)>
2026-06-07 14:59:52,510 - INFO - <NMEA(GAGSV, numMsg=3, msgNum=1, numSV=9, svid_01=3, elv_01=59.0, az_01=145, cno_01=36, svid_02=5, elv_02=41.0, az_02=57, cno_02=47, svid_03=8, elv_03=19.0, az_03=193, cno_03=33, svid_04=15, elv_04=61.0, az_04=333, cno_04=45, signalID=7)>
2026-06-07 14:59:52,510 - INFO - <NMEA(GAGSV, numMsg=3, msgNum=2, numSV=9, svid_01=21, elv_01=8.0, az_01=309, cno_01=28, svid_02=27, elv_02=15.0, az_02=259, cno_02=31, svid_03=32, elv_03=39.0, az_03=178, cno_03=41, svid_04=34, elv_04=51.0, az_04=86, cno_04=47, signalID=7)>
2026-06-07 14:59:52,510 - INFO - <NMEA(GAGSV, numMsg=3, msgNum=3, numSV=9, svid_01=36, elv_01=5.0, az_01=108, cno_01=41, signalID=7)>
2026-06-07 14:59:52,511 - INFO - <NMEA(GBGSV, numMsg=2, msgNum=1, numSV=7, svid_01=13, elv_01=57.0, az_01=149, cno_01=39, svid_02=27, elv_02=43.0, az_02=311, cno_02=42, svid_03=28, elv_03=83.0, az_03=234, cno_03=47, svid_04=33, elv_04=71.0, az_04=38, cno_04=40, signalID=1)>
2026-06-07 14:59:52,512 - INFO - <NMEA(GBGSV, numMsg=2, msgNum=2, numSV=7, svid_01=38, elv_01=31.0, az_01=146, cno_01=40, svid_02=41, elv_02=55.0, az_02=231, cno_02=38, svid_03=42, elv_03=15.0, az_03=46, cno_03=43, signalID=1)>
2026-06-07 14:59:52,512 - INFO - <NMEA(GQGSV, numMsg=1, msgNum=1, numSV=0, signalID=0)>
2026-06-07 14:59:52,512 - INFO - <NMEA(GNGLL, lat=37.9008383333, NS=N, lon=-97.6641976667, EW=W, time=19:59:52.400000, status=A, posMode=D)>
2026-06-07 14:59:52,513 - INFO - <UBX(NAV-RELPOSNED, version=1, reserved0=0, refStationID=0, iTOW=19:59:52.400000, relPosN=17.96, relPosE=56.34, relPosD=0.5, relPosLength=59.13, relPosHeading=72.32131, reserved1=0, accN=10.0, accE=10.0, accD=13.4, accLength=10.0, accHeading=0.96902, reserved2=0, gnssFixOK=1, diffSoln=1, relPosValid=1, carrSoln=2, isMoving=1, refPosMiss=0, refObsMiss=0, relPosHeadingValid=1, relPosNormalized=0)>
2026-06-07 14:59:52,514 - INFO - 2026-06-07 14:59:52, current_target: {'timestamp': '2026-05-10 13:40:05', 'lat': 37.9008713333, 'lon': -97.66418, 'speed': 0.004629996, 'y_offset': 0.0, 'x_offset': 0.0, 'z_offset': 0.0, 'heading': 1.76477}, next_target: {'timestamp': '2026-05-10 13:40:06', 'lat': 37.9008713333, 'lon': -97.66418, 'speed': 0.00514444, 'y_offset': 0.0, 'x_offset': 0.0, 'z_offset': 0.0, 'heading': 1.76299}
2026-06-07 14:59:52,515 - INFO - 2026-06-07 14:59:52 [3.4 OBSERVED] current_turn_radius: 0.81m
2026-06-07 14:59:52,515 - INFO - 2026-06-07 14:59:52 [3.4 OBSERVED] turn_direction: LEFT
2026-06-07 14:59:52,515 - INFO - 2026-06-07 14:59:52 [3.4 OBSERVED] estimated left/right wheel speeds: 0.135, 0.257 rad/s
2026-06-07 14:59:52,519 - INFO - 2026-06-07 14:59:52 [STATE] Current state: NAVIGATING_TO_START
2026-06-07 14:59:52,519 - INFO - 2026-06-07 14:59:52 [NAV_TO_START] Phase: PIVOT_TO_BEARING, Dist: 3.979m, Bearing err: -49.3°, Heading diff: 70.6°, Elapsed: 1.2s
2026-06-07 14:59:52,519 - INFO - 2026-06-07 14:59:52 [NAV_TO_START] PIVOT_TO_BEARING LEFT: heading=72.3°, bearing=23.0°, error=-49.3°, force=aggressive
2026-06-07 14:59:52,532 - INFO - goto_positions: M1=1370, M2=830 [Pivot to bearing LEFT]
2026-06-07 14:59:52,532 - INFO - <UBX(RXM-RTCM, version=2, crcFailed=0, msgUsed=2, subType=0, refStation=0, msgType=4072)>
2026-06-07 14:59:52,641 - INFO - <UBX(RXM-RTCM, version=2, crcFailed=0, msgUsed=2, subType=0, refStation=0, msgType=1074)>
2026-06-07 14:59:52,644 - INFO - <UBX(RXM-RTCM, version=2, crcFailed=0, msgUsed=2, subType=0, refStation=0, msgType=1084)>
2026-06-07 14:59:52,647 - INFO - <UBX(RXM-RTCM, version=2, crcFailed=0, msgUsed=2, subType=0, refStation=0, msgType=1094)>
2026-06-07 14:59:52,649 - INFO - <UBX(RXM-RTCM, version=2, crcFailed=0, msgUsed=2, subType=0, refStation=0, msgType=1124)>
