2026-07-05 14:05:47,206 - INFO - Logging initialized to /home/dali/Documents/ReMow-Rover-Tests/Repeat/Logs/readRecordedRun-2026-07-05_14-05-47.log
2026-07-05 14:05:47,207 - INFO - RoboClaw opened successfully on /dev/serial/by-id/usb-Basicmicro_Inc._USB_Roboclaw_2x15A-if00
2026-07-05 14:05:47,510 - INFO - Encoders reset to zero
2026-07-05 14:05:47,511 - INFO - Starting readRecordedRun with combination: 55
2026-07-05 14:05:47,511 - INFO - Selected most recent recording: 55_20260510-134004_GPSData.csv
2026-07-05 14:05:47,515 - INFO - GREEN_LED initialized on GPIO 17
2026-07-05 14:05:47,520 - INFO - ENU origin from first waypoint: 37.9008713333, -97.66418
2026-07-05 14:05:47,575 - INFO - goto_positions: M1=1100, M2=1100 [Startup - ensuring neutral position]
2026-07-05 14:05:47,575 - INFO - Actuators initialized to neutral (1100)
2026-07-05 14:05:47,575 - INFO - === STATE MACHINE INITIALIZED ===
2026-07-05 14:05:47,575 - INFO - Start waypoint: East=0.000m, North=0.000m, Heading=1.8°
2026-07-05 14:05:47,575 - INFO - Initial state: NAVIGATING_TO_START
2026-07-05 14:05:47,575 - INFO - Navigation timeout: 300.0s
2026-07-05 14:05:47,575 - INFO - === WAITING FOR GPS RTK FIX ===
2026-07-05 14:05:47,575 - INFO - Need: relPosValid=1, carrSoln=2, relPosHeadingValid=1 (timeout: 60.0s)
2026-07-05 14:05:47,698 - INFO - GPS status: relPosValid=1, carrSoln=2, headingValid=1 (0.1s)
2026-07-05 14:05:47,698 - INFO - === GPS RTK FIXED — ready to navigate (0.1s) ===
2026-07-05 14:05:47,699 - INFO - <UBX(RXM-RTCM, version=2, crcFailed=0, msgUsed=2, subType=0, refStation=0, msgType=4072)>
2026-07-05 14:05:47,699 - INFO - Using persisted heading from driving to work area: 208.17° (captured at 2026-07-05 14:04:54)
2026-07-05 14:05:47,846 - INFO - <UBX(RXM-RTCM, version=2, crcFailed=0, msgUsed=2, subType=0, refStation=0, msgType=1074)>
2026-07-05 14:05:47,848 - INFO - <UBX(RXM-RTCM, version=2, crcFailed=0, msgUsed=2, subType=0, refStation=0, msgType=1084)>
2026-07-05 14:05:47,852 - INFO - <UBX(RXM-RTCM, version=2, crcFailed=0, msgUsed=2, subType=0, refStation=0, msgType=1094)>
2026-07-05 14:05:47,853 - INFO - <UBX(RXM-RTCM, version=2, crcFailed=0, msgUsed=2, subType=0, refStation=0, msgType=1124)>
2026-07-05 14:05:47,854 - INFO - <UBX(RXM-RTCM, version=2, crcFailed=0, msgUsed=2, subType=0, refStation=0, msgType=1230)>
2026-07-05 14:05:47,890 - INFO - <UBX(NAV-PVT, iTOW=19:05:47.800000, year=2026, month=7, day=5, hour=19, min=5, second=47, validDate=1, validTime=1, fullyResolved=1, validMag=0, tAcc=1001, nano=799831661, fixType=3, gnssFixOk=1, diffSoln=1, psmState=0, headVehValid=0, carrSoln=2, confirmedAvai=1, confirmedDate=1, confirmedTime=1, numSV=24, lon=-97.6641909, lat=37.9008693, height=407836, hMSL=434089, hAcc=1043, vAcc=1562, velN=-7, velE=-11, velD=19, gSpeed=13, headMot=0.0, sAcc=89, headAcc=180.0, pDOP=1.19, invalidLlh=0, lastCorrectionAge=1, reserved0=860630572, headVeh=0.0, magDec=0.0, magAcc=0.0)>
2026-07-05 14:05:47,891 - INFO - <NMEA(GNRMC, time=19:05:47.800000, status=A, lat=37.9008693333, NS=N, lon=-97.6641908333, EW=W, spd=0.025, cog=, date=2026-07-05, mv=, mvEW=, posMode=R, navStatus=V)>
2026-07-05 14:05:47,891 - INFO - <NMEA(GNVTG, cogt=, cogtUnit=T, cogm=, cogmUnit=M, sogn=0.025, sognUnit=N, sogk=0.047, sogkUnit=K, posMode=D)>
2026-07-05 14:05:47,892 - INFO - <NMEA(GNGGA, time=19:05:47.800000, lat=37.9008693333, NS=N, lon=-97.6641908333, EW=W, quality=4, numSV=12, HDOP=0.73, alt=434.1, altUnit=M, sep=-26.3, sepUnit=M, diffAge=0.2, diffStation=0)>
2026-07-05 14:05:47,892 - INFO - <NMEA(GNGSA, opMode=M, navMode=3, svid_01=10, svid_02=32, svid_03=18, svid_04=24, svid_05=23, svid_06=15, svid_07=20, svid_08=, svid_09=, svid_10=, svid_11=, svid_12=, PDOP=1.19, HDOP=0.73, VDOP=0.94, systemId=1)>
2026-07-05 14:05:47,893 - INFO - <NMEA(GNGSA, opMode=M, navMode=3, svid_01=82, svid_02=81, svid_03=66, svid_04=68, svid_05=67, svid_06=, svid_07=, svid_08=, svid_09=, svid_10=, svid_11=, svid_12=, PDOP=1.19, HDOP=0.73, VDOP=0.94, systemId=2)>
2026-07-05 14:05:47,893 - INFO - <NMEA(GNGSA, opMode=M, navMode=3, svid_01=19, svid_02=9, svid_03=4, svid_04=6, svid_05=28, svid_06=10, svid_07=11, svid_08=12, svid_09=, svid_10=, svid_11=, svid_12=, PDOP=1.19, HDOP=0.73, VDOP=0.94, systemId=3)>
2026-07-05 14:05:47,894 - INFO - <NMEA(GNGSA, opMode=M, navMode=3, svid_01=13, svid_02=41, svid_03=33, svid_04=28, svid_05=, svid_06=, svid_07=, svid_08=, svid_09=, svid_10=, svid_11=, svid_12=, PDOP=1.19, HDOP=0.73, VDOP=0.94, systemId=4)>
2026-07-05 14:05:47,894 - INFO - <NMEA(GNGSA, opMode=M, navMode=3, svid_01=, svid_02=, svid_03=, svid_04=, svid_05=, svid_06=, svid_07=, svid_08=, svid_09=, svid_10=, svid_11=, svid_12=, PDOP=1.19, HDOP=0.73, VDOP=0.94, systemId=5)>
2026-07-05 14:05:47,894 - INFO - <NMEA(GPGSV, numMsg=3, msgNum=1, numSV=11, svid_01=10, elv_01=42.0, az_01=289, cno_01=45, svid_02=15, elv_02=37.0, az_02=48, cno_02=50, svid_03=18, elv_03=70.0, az_03=119, cno_03=47, svid_04=20, elv_04=11.0, az_04=44, cno_04=44, signalID=1)>
2026-07-05 14:05:47,895 - INFO - <NMEA(GPGSV, numMsg=3, msgNum=2, numSV=11, svid_01=23, elv_01=65.0, az_01=342, cno_01=44, svid_02=24, elv_02=35.0, az_02=103, cno_02=42, svid_03=29, elv_03=9.0, az_03=176, cno_03=25, svid_04=32, elv_04=18.0, az_04=218, cno_04=26, signalID=1)>
2026-07-05 14:05:47,895 - INFO - <NMEA(GPGSV, numMsg=3, msgNum=3, numSV=11, svid_01=44, elv_01=42.0, az_01=210, cno_01=36, svid_02=46, elv_02=35.0, az_02=225, cno_02=42, svid_03=48, elv_03=38.0, az_03=220, cno_03=37, signalID=1)>
2026-07-05 14:05:47,896 - INFO - <NMEA(GPGSV, numMsg=2, msgNum=1, numSV=8, svid_01=10, elv_01=42.0, az_01=289, cno_01=44, svid_02=15, elv_02=37.0, az_02=48, cno_02=40, svid_03=18, elv_03=70.0, az_03=119, cno_03=45, svid_04=20, elv_04=11.0, az_04=44, cno_04=39, signalID=6)>
2026-07-05 14:05:47,896 - INFO - <NMEA(GPGSV, numMsg=2, msgNum=2, numSV=8, svid_01=23, elv_01=65.0, az_01=342, cno_01=45, svid_02=24, elv_02=35.0, az_02=103, cno_02=43, svid_03=29, elv_03=9.0, az_03=176, cno_03=22, svid_04=32, elv_04=18.0, az_04=218, cno_04=28, signalID=6)>
2026-07-05 14:05:47,896 - INFO - <NMEA(GPGSV, numMsg=1, msgNum=1, numSV=1, svid_01=8, elv_01=5.0, az_01=324, cno_01=, signalID=0)>
2026-07-05 14:05:47,897 - INFO - <NMEA(GLGSV, numMsg=2, msgNum=1, numSV=7, svid_01=66, elv_01=41.0, az_01=29, cno_01=48, svid_02=67, elv_02=68.0, az_02=270, cno_02=43, svid_03=68, elv_03=21.0, az_03=232, cno_03=38, svid_04=75, elv_04=1.0, az_04=34, cno_04=47, signalID=1)>
2026-07-05 14:05:47,897 - INFO - <NMEA(GLGSV, numMsg=2, msgNum=2, numSV=7, svid_01=81, elv_01=61.0, az_01=151, cno_01=49, svid_02=82, elv_02=66.0, az_02=328, cno_02=42, svid_03=88, elv_03=7.0, az_03=149, cno_03=40, signalID=1)>
2026-07-05 14:05:47,898 - INFO - <NMEA(GLGSV, numMsg=2, msgNum=1, numSV=7, svid_01=66, elv_01=41.0, az_01=29, cno_01=42, svid_02=67, elv_02=68.0, az_02=270, cno_02=30, svid_03=68, elv_03=21.0, az_03=232, cno_03=30, svid_04=75, elv_04=1.0, az_04=34, cno_04=25, signalID=3)>
2026-07-05 14:05:47,898 - INFO - <NMEA(GLGSV, numMsg=2, msgNum=2, numSV=7, svid_01=81, elv_01=61.0, az_01=151, cno_01=35, svid_02=82, elv_02=66.0, az_02=328, cno_02=41, svid_03=88, elv_03=7.0, az_03=149, cno_03=37, signalID=3)>
2026-07-05 14:05:47,899 - INFO - <NMEA(GAGSV, numMsg=3, msgNum=1, numSV=9, svid_01=4, elv_01=74.0, az_01=132, cno_01=40, svid_02=6, elv_02=56.0, az_02=189, cno_02=28, svid_03=9, elv_03=32.0, az_03=203, cno_03=41, svid_04=10, elv_04=72.0, az_04=83, cno_04=47, signalID=2)>
2026-07-05 14:05:47,899 - INFO - <NMEA(GAGSV, numMsg=3, msgNum=2, numSV=9, svid_01=11, elv_01=69.0, az_01=338, cno_01=42, svid_02=12, elv_02=49.0, az_02=109, cno_02=41, svid_03=19, elv_03=33.0, az_03=46, cno_03=39, svid_04=28, elv_04=60.0, az_04=68, cno_04=47, signalID=2)>
2026-07-05 14:05:47,899 - INFO - <NMEA(GAGSV, numMsg=3, msgNum=3, numSV=9, svid_01=36, elv_01=21.0, az_01=310, cno_01=34, signalID=2)>
2026-07-05 14:05:47,900 - INFO - <NMEA(GAGSV, numMsg=3, msgNum=1, numSV=9, svid_01=4, elv_01=74.0, az_01=132, cno_01=43, svid_02=6, elv_02=56.0, az_02=189, cno_02=33, svid_03=9, elv_03=32.0, az_03=203, cno_03=38, svid_04=10, elv_04=72.0, az_04=83, cno_04=47, signalID=7)>
2026-07-05 14:05:47,900 - INFO - <NMEA(GAGSV, numMsg=3, msgNum=2, numSV=9, svid_01=11, elv_01=69.0, az_01=338, cno_01=42, svid_02=12, elv_02=49.0, az_02=109, cno_02=38, svid_03=19, elv_03=33.0, az_03=46, cno_03=44, svid_04=28, elv_04=60.0, az_04=68, cno_04=43, signalID=7)>
2026-07-05 14:05:47,901 - INFO - <NMEA(GAGSV, numMsg=3, msgNum=3, numSV=9, svid_01=36, elv_01=21.0, az_01=310, cno_01=22, signalID=7)>
2026-07-05 14:05:47,901 - INFO - <NMEA(GBGSV, numMsg=2, msgNum=1, numSV=6, svid_01=13, elv_01=32.0, az_01=160, cno_01=36, svid_02=28, elv_02=59.0, az_02=182, cno_02=38, svid_03=32, elv_03=, az_03=, cno_03=31, svid_04=33, elv_04=47.0, az_04=43, cno_04=49, signalID=1)>
2026-07-05 14:05:47,901 - INFO - <NMEA(GBGSV, numMsg=2, msgNum=2, numSV=6, svid_01=41, elv_01=73.0, az_01=284, cno_01=42, svid_02=58, elv_02=, az_02=, cno_02=44, signalID=1)>
2026-07-05 14:05:47,902 - INFO - <NMEA(GQGSV, numMsg=1, msgNum=1, numSV=1, svid_01=5, elv_01=, az_01=, cno_01=22, signalID=1)>
2026-07-05 14:05:47,902 - INFO - <NMEA(GNGLL, lat=37.9008693333, NS=N, lon=-97.6641908333, EW=W, time=19:05:47.800000, status=A, posMode=D)>
2026-07-05 14:05:47,902 - INFO - <UBX(NAV-RELPOSNED, version=1, reserved0=0, refStationID=0, iTOW=19:05:47.800000, relPosN=26.48, relPosE=54.11, relPosD=2.26, relPosLength=60.28, relPosHeading=63.92807, reserved1=0, accN=10.0, accE=10.0, accD=10.8, accLength=10.0, accHeading=0.9511, reserved2=0, gnssFixOK=1, diffSoln=1, relPosValid=1, carrSoln=2, isMoving=1, refPosMiss=0, refObsMiss=0, relPosHeadingValid=1, relPosNormalized=0)>
2026-07-05 14:05:47,903 - INFO - 2026-07-05 14:05:47 Initial Moving Baseline state: active
2026-07-05 14:05:47,903 - INFO - 2026-07-05 14:05:47 Initial carrier solution: fixed
2026-07-05 14:05:47,903 - INFO - 2026-07-05 14:05:47, current_target: {'timestamp': '2026-05-10 13:40:05', 'lat': 37.9008713333, 'lon': -97.66418, 'speed': 0.004629996, 'y_offset': 0.0, 'x_offset': 0.0, 'z_offset': 0.0, 'heading': 1.76477}, next_target: {'timestamp': '2026-05-10 13:40:06', 'lat': 37.9008713333, 'lon': -97.66418, 'speed': 0.00514444, 'y_offset': 0.0, 'x_offset': 0.0, 'z_offset': 0.0, 'heading': 1.76299}
2026-07-05 14:05:47,904 - INFO - <UBX(RXM-RTCM, version=2, crcFailed=0, msgUsed=2, subType=0, refStation=0, msgType=4072)>
2026-07-05 14:05:47,904 - INFO - 2026-07-05 14:05:47, current_target: {'timestamp': '2026-05-10 13:40:05', 'lat': 37.9008713333, 'lon': -97.66418, 'speed': 0.004629996, 'y_offset': 0.0, 'x_offset': 0.0, 'z_offset': 0.0, 'heading': 1.76477}, next_target: {'timestamp': '2026-05-10 13:40:06', 'lat': 37.9008713333, 'lon': -97.66418, 'speed': 0.00514444, 'y_offset': 0.0, 'x_offset': 0.0, 'z_offset': 0.0, 'heading': 1.76299}
2026-07-05 14:05:47,904 - INFO - 2026-07-05 14:05:47 [3.4 OBSERVED] current_turn_radius: infm
2026-07-05 14:05:47,904 - INFO - 2026-07-05 14:05:47 [3.4 OBSERVED] turn_direction: STRAIGHT
2026-07-05 14:05:47,904 - INFO - 2026-07-05 14:05:47 [3.4 OBSERVED] estimated left/right wheel speeds: 0.013, 0.013 m/s
2026-07-05 14:05:47,907 - INFO - 2026-07-05 14:05:47 [STATE] Current state: NAVIGATING_TO_START
2026-07-05 14:05:47,907 - INFO - 2026-07-05 14:05:47 [NAV_TO_START] Phase: DRIVE_TO_START, Dist: 0.978m, Bearing err: 13.0°, Heading diff: 62.2°, Elapsed: 0.3s
2026-07-05 14:05:47,908 - INFO - 2026-07-05 14:05:47 [NAV_TO_START] DRIVE: bearing=76.9°, dist=0.98m, turn=RIGHT, geometric_R=1.64m → commanded_R=0.82m (gain=2.0, floor=0.6m), speed=0.50
2026-07-05 14:05:47,908 - INFO - 2026-07-05 14:05:47 Turn: RIGHT, R: 0.82m, v_L: 0.71 m/s, v_R: 0.29 m/s
2026-07-05 14:05:47,908 - INFO - 2026-07-05 14:05:47 left_actuator_position: 743 (counts) from v_L 0.714 m/s
2026-07-05 14:05:47,908 - INFO - 2026-07-05 14:05:47 right_actuator_position: 950 (counts) from v_R 0.286 m/s
2026-07-05 14:05:47,921 - INFO - Sent actuator positions to RoboClaw → M1 (left): 743, M2 (right): 950 (counts)
2026-07-05 14:05:47,921 - INFO - 2026-07-05 14:05:47 APPLY → left_pos: 743, right_pos: 950 (counts), v_L: 0.71 m/s, v_R: 0.29 m/s
2026-07-05 14:05:48,046 - INFO - <UBX(RXM-RTCM, version=2, crcFailed=0, msgUsed=2, subType=0, refStation=0, msgType=1074)>
2026-07-05 14:05:48,048 - INFO - <UBX(RXM-RTCM, version=2, crcFailed=0, msgUsed=2, subType=0, refStation=0, msgType=1084)>
2026-07-05 14:05:48,051 - INFO - <UBX(RXM-RTCM, version=2, crcFailed=0, msgUsed=2, subType=0, refStation=0, msgType=1094)>
2026-07-05 14:05:48,052 - INFO - <UBX(RXM-RTCM, version=2, crcFailed=0, msgUsed=2, subType=0, refStation=0, msgType=1124)>
2026-07-05 14:05:48,052 - INFO - <UBX(RXM-RTCM, version=2, crcFailed=0, msgUsed=2, subType=0, refStation=0, msgType=1230)>
2026-07-05 14:05:48,101 - INFO - <UBX(NAV-PVT, iTOW=19:05:48, year=2026, month=7, day=5, hour=19, min=5, second=48, validDate=1, validTime=1, fullyResolved=1, validMag=0, tAcc=1001, nano=-168384, fixType=3, gnssFixOk=1, diffSoln=1, psmState=0, headVehValid=0, carrSoln=2, confirmedAvai=1, confirmedDate=1, confirmedTime=1, numSV=24, lon=-97.6641909, lat=37.9008693, height=407829, hMSL=434082, hAcc=989, vAcc=1479, velN=-7, velE=4, velD=0, gSpeed=8, headMot=0.0, sAcc=78, headAcc=180.0, pDOP=1.19, invalidLlh=0, lastCorrectionAge=1, reserved0=860630572, headVeh=0.0, magDec=0.0, magAcc=0.0)>
2026-07-05 14:05:48,102 - INFO - <NMEA(GNRMC, time=19:05:48, status=A, lat=37.9008693333, NS=N, lon=-97.6641908333, EW=W, spd=0.016, cog=, date=2026-07-05, mv=, mvEW=, posMode=R, navStatus=V)>
2026-07-05 14:05:48,102 - INFO - <NMEA(GNVTG, cogt=, cogtUnit=T, cogm=, cogmUnit=M, sogn=0.016, sognUnit=N, sogk=0.03, sogkUnit=K, posMode=D)>
2026-07-05 14:05:48,102 - INFO - <NMEA(GNGGA, time=19:05:48, lat=37.9008693333, NS=N, lon=-97.6641908333, EW=W, quality=4, numSV=12, HDOP=0.73, alt=434.1, altUnit=M, sep=-26.3, sepUnit=M, diffAge=0.2, diffStation=0)>
2026-07-05 14:05:48,103 - INFO - <NMEA(GNGSA, opMode=M, navMode=3, svid_01=10, svid_02=32, svid_03=18, svid_04=24, svid_05=23, svid_06=15, svid_07=20, svid_08=, svid_09=, svid_10=, svid_11=, svid_12=, PDOP=1.19, HDOP=0.73, VDOP=0.94, systemId=1)>
2026-07-05 14:05:48,103 - INFO - <NMEA(GNGSA, opMode=M, navMode=3, svid_01=82, svid_02=81, svid_03=66, svid_04=68, svid_05=67, svid_06=, svid_07=, svid_08=, svid_09=, svid_10=, svid_11=, svid_12=, PDOP=1.19, HDOP=0.73, VDOP=0.94, systemId=2)>
2026-07-05 14:05:48,104 - INFO - <NMEA(GNGSA, opMode=M, navMode=3, svid_01=19, svid_02=9, svid_03=4, svid_04=6, svid_05=28, svid_06=10, svid_07=11, svid_08=12, svid_09=, svid_10=, svid_11=, svid_12=, PDOP=1.19, HDOP=0.73, VDOP=0.94, systemId=3)>
2026-07-05 14:05:48,104 - INFO - <NMEA(GNGSA, opMode=M, navMode=3, svid_01=13, svid_02=41, svid_03=33, svid_04=28, svid_05=, svid_06=, svid_07=, svid_08=, svid_09=, svid_10=, svid_11=, svid_12=, PDOP=1.19, HDOP=0.73, VDOP=0.94, systemId=4)>
2026-07-05 14:05:48,104 - INFO - <NMEA(GNGSA, opMode=M, navMode=3, svid_01=, svid_02=, svid_03=, svid_04=, svid_05=, svid_06=, svid_07=, svid_08=, svid_09=, svid_10=, svid_11=, svid_12=, PDOP=1.19, HDOP=0.73, VDOP=0.94, systemId=5)>
2026-07-05 14:05:48,105 - INFO - <NMEA(GPGSV, numMsg=3, msgNum=1, numSV=11, svid_01=10, elv_01=42.0, az_01=289, cno_01=45, svid_02=15, elv_02=37.0, az_02=48, cno_02=50, svid_03=18, elv_03=70.0, az_03=119, cno_03=47, svid_04=20, elv_04=11.0, az_04=44, cno_04=44, signalID=1)>
2026-07-05 14:05:48,107 - INFO - <NMEA(GPGSV, numMsg=3, msgNum=2, numSV=11, svid_01=23, elv_01=65.0, az_01=342, cno_01=45, svid_02=24, elv_02=35.0, az_02=103, cno_02=42, svid_03=29, elv_03=9.0, az_03=176, cno_03=24, svid_04=32, elv_04=18.0, az_04=218, cno_04=26, signalID=1)>
2026-07-05 14:05:48,107 - INFO - <NMEA(GPGSV, numMsg=3, msgNum=3, numSV=11, svid_01=44, elv_01=42.0, az_01=210, cno_01=36, svid_02=46, elv_02=35.0, az_02=225, cno_02=42, svid_03=48, elv_03=38.0, az_03=220, cno_03=37, signalID=1)>
2026-07-05 14:05:48,108 - INFO - <NMEA(GPGSV, numMsg=2, msgNum=1, numSV=8, svid_01=10, elv_01=42.0, az_01=289, cno_01=44, svid_02=15, elv_02=37.0, az_02=48, cno_02=40, svid_03=18, elv_03=70.0, az_03=119, cno_03=45, svid_04=20, elv_04=11.0, az_04=44, cno_04=39, signalID=6)>
2026-07-05 14:05:48,108 - INFO - <NMEA(GPGSV, numMsg=2, msgNum=2, numSV=8, svid_01=23, elv_01=65.0, az_01=342, cno_01=44, svid_02=24, elv_02=35.0, az_02=103, cno_02=43, svid_03=29, elv_03=9.0, az_03=176, cno_03=22, svid_04=32, elv_04=18.0, az_04=218, cno_04=28, signalID=6)>
2026-07-05 14:05:48,109 - INFO - <NMEA(GPGSV, numMsg=1, msgNum=1, numSV=1, svid_01=8, elv_01=5.0, az_01=324, cno_01=, signalID=0)>
2026-07-05 14:05:48,109 - INFO - <NMEA(GLGSV, numMsg=2, msgNum=1, numSV=7, svid_01=66, elv_01=41.0, az_01=29, cno_01=48, svid_02=67, elv_02=68.0, az_02=270, cno_02=43, svid_03=68, elv_03=21.0, az_03=232, cno_03=38, svid_04=75, elv_04=1.0, az_04=34, cno_04=47, signalID=1)>
2026-07-05 14:05:48,109 - INFO - <NMEA(GLGSV, numMsg=2, msgNum=2, numSV=7, svid_01=81, elv_01=61.0, az_01=151, cno_01=49, svid_02=82, elv_02=66.0, az_02=328, cno_02=42, svid_03=88, elv_03=7.0, az_03=149, cno_03=39, signalID=1)>
2026-07-05 14:05:48,110 - INFO - <NMEA(GLGSV, numMsg=2, msgNum=1, numSV=7, svid_01=66, elv_01=41.0, az_01=29, cno_01=42, svid_02=67, elv_02=68.0, az_02=270, cno_02=30, svid_03=68, elv_03=21.0, az_03=232, cno_03=30, svid_04=75, elv_04=1.0, az_04=34, cno_04=25, signalID=3)>
2026-07-05 14:05:48,110 - INFO - <NMEA(GLGSV, numMsg=2, msgNum=2, numSV=7, svid_01=81, elv_01=61.0, az_01=151, cno_01=36, svid_02=82, elv_02=66.0, az_02=328, cno_02=41, svid_03=88, elv_03=7.0, az_03=149, cno_03=37, signalID=3)>
2026-07-05 14:05:48,111 - INFO - <NMEA(GAGSV, numMsg=3, msgNum=1, numSV=9, svid_01=4, elv_01=74.0, az_01=132, cno_01=40, svid_02=6, elv_02=56.0, az_02=189, cno_02=28, svid_03=9, elv_03=32.0, az_03=203, cno_03=41, svid_04=10, elv_04=72.0, az_04=83, cno_04=47, signalID=2)>
2026-07-05 14:05:48,111 - INFO - <NMEA(GAGSV, numMsg=3, msgNum=2, numSV=9, svid_01=11, elv_01=69.0, az_01=338, cno_01=42, svid_02=12, elv_02=49.0, az_02=109, cno_02=41, svid_03=19, elv_03=33.0, az_03=46, cno_03=39, svid_04=28, elv_04=60.0, az_04=68, cno_04=47, signalID=2)>
2026-07-05 14:05:48,111 - INFO - <NMEA(GAGSV, numMsg=3, msgNum=3, numSV=9, svid_01=36, elv_01=21.0, az_01=310, cno_01=34, signalID=2)>
2026-07-05 14:05:48,112 - INFO - <NMEA(GAGSV, numMsg=3, msgNum=1, numSV=9, svid_01=4, elv_01=74.0, az_01=132, cno_01=43, svid_02=6, elv_02=56.0, az_02=189, cno_02=33, svid_03=9, elv_03=32.0, az_03=203, cno_03=38, svid_04=10, elv_04=72.0, az_04=83, cno_04=47, signalID=7)>
2026-07-05 14:05:48,112 - INFO - <NMEA(GAGSV, numMsg=3, msgNum=2, numSV=9, svid_01=11, elv_01=69.0, az_01=338, cno_01=42, svid_02=12, elv_02=49.0, az_02=109, cno_02=38, svid_03=19, elv_03=33.0, az_03=46, cno_03=44, svid_04=28, elv_04=60.0, az_04=68, cno_04=43, signalID=7)>
2026-07-05 14:05:48,113 - INFO - <NMEA(GAGSV, numMsg=3, msgNum=3, numSV=9, svid_01=36, elv_01=21.0, az_01=310, cno_01=21, signalID=7)>
2026-07-05 14:05:48,113 - INFO - <NMEA(GBGSV, numMsg=2, msgNum=1, numSV=6, svid_01=13, elv_01=32.0, az_01=160, cno_01=36, svid_02=28, elv_02=59.0, az_02=182, cno_02=38, svid_03=32, elv_03=, az_03=, cno_03=31, svid_04=33, elv_04=47.0, az_04=43, cno_04=49, signalID=1)>
2026-07-05 14:05:48,113 - INFO - <NMEA(GBGSV, numMsg=2, msgNum=2, numSV=6, svid_01=41, elv_01=73.0, az_01=284, cno_01=42, svid_02=58, elv_02=, az_02=, cno_02=44, signalID=1)>
2026-07-05 14:05:48,114 - INFO - <NMEA(GQGSV, numMsg=1, msgNum=1, numSV=0, signalID=0)>
2026-07-05 14:05:48,114 - INFO - <NMEA(GNGLL, lat=37.9008693333, NS=N, lon=-97.6641908333, EW=W, time=19:05:48, status=A, posMode=D)>
2026-07-05 14:05:48,114 - INFO - <UBX(NAV-RELPOSNED, version=1, reserved0=0, refStationID=0, iTOW=19:05:48, relPosN=26.37, relPosE=54.21, relPosD=2.71, relPosLength=60.34, relPosHeading=64.06401, reserved1=0, accN=10.0, accE=10.0, accD=10.4, accLength=10.0, accHeading=0.95045, reserved2=0, gnssFixOK=1, diffSoln=1, relPosValid=1, carrSoln=2, isMoving=1, refPosMiss=0, refObsMiss=0, relPosHeadingValid=1, relPosNormalized=0)>
2026-07-05 14:05:48,115 - INFO - 2026-07-05 14:05:48, current_target: {'timestamp': '2026-05-10 13:40:05', 'lat': 37.9008713333, 'lon': -97.66418, 'speed': 0.004629996, 'y_offset': 0.0, 'x_offset': 0.0, 'z_offset': 0.0, 'heading': 1.76477}, next_target: {'timestamp': '2026-05-10 13:40:06', 'lat': 37.9008713333, 'lon': -97.66418, 'speed': 0.00514444, 'y_offset': 0.0, 'x_offset': 0.0, 'z_offset': 0.0, 'heading': 1.76299}
2026-07-05 14:05:48,115 - INFO - 2026-07-05 14:05:48 [3.4 OBSERVED] current_turn_radius: infm
2026-07-05 14:05:48,115 - INFO - 2026-07-05 14:05:48 [3.4 OBSERVED] turn_direction: RIGHT
2026-07-05 14:05:48,115 - INFO - 2026-07-05 14:05:48 [3.4 OBSERVED] estimated left/right wheel speeds: nan, nan m/s
2026-07-05 14:05:48,118 - INFO - 2026-07-05 14:05:48 [STATE] Current state: NAVIGATING_TO_START
2026-07-05 14:05:48,118 - INFO - 2026-07-05 14:05:48 [NAV_TO_START] Phase: DRIVE_TO_START, Dist: 0.978m, Bearing err: 12.8°, Heading diff: 62.3°, Elapsed: 0.6s
2026-07-05 14:05:48,118 - INFO - 2026-07-05 14:05:48 [NAV_TO_START] DRIVE: bearing=76.9°, dist=0.98m, turn=RIGHT, geometric_R=1.65m → commanded_R=0.83m (gain=2.0, floor=0.6m), speed=0.50
2026-07-05 14:05:48,119 - INFO - 2026-07-05 14:05:48 Turn: RIGHT, R: 0.83m, v_L: 0.71 m/s, v_R: 0.29 m/s
2026-07-05 14:05:48,119 - INFO - 2026-07-05 14:05:48 left_actuator_position: 744 (counts) from v_L 0.712 m/s
2026-07-05 14:05:48,119 - INFO - 2026-07-05 14:05:48 right_actuator_position: 950 (counts) from v_R 0.288 m/s
2026-07-05 14:05:48,134 - INFO - Sent actuator positions to RoboClaw → M1 (left): 744, M2 (right): 950 (counts)
2026-07-05 14:05:48,134 - INFO - 2026-07-05 14:05:48 APPLY → left_pos: 744, right_pos: 950 (counts), v_L: 0.71 m/s, v_R: 0.29 m/s
2026-07-05 14:05:48,135 - INFO - <UBX(RXM-RTCM, version=2, crcFailed=0, msgUsed=2, subType=0, refStation=0, msgType=4072)>
2026-07-05 14:05:48,245 - INFO - <UBX(RXM-RTCM, version=2, crcFailed=0, msgUsed=2, subType=0, refStation=0, msgType=1074)>
2026-07-05 14:05:48,247 - INFO - <UBX(RXM-RTCM, version=2, crcFailed=0, msgUsed=2, subType=0, refStation=0, msgType=1084)>
2026-07-05 14:05:48,252 - INFO - <UBX(RXM-RTCM, version=2, crcFailed=0, msgUsed=2, subType=0, refStation=0, msgType=1094)>
2026-07-05 14:05:48,252 - INFO - <UBX(RXM-RTCM, version=2, crcFailed=0, msgUsed=2, subType=0, refStation=0, msgType=1124)>
2026-07-05 14:05:48,252 - INFO - <UBX(RXM-RTCM, version=2, crcFailed=0, msgUsed=2, subType=0, refStation=0, msgType=1230)>
2026-07-05 14:05:48,288 - INFO - <UBX(NAV-PVT, iTOW=19:05:48.200000, year=2026, month=7, day=5, hour=19, min=5, second=48, validDate=1, validTime=1, fullyResolved=1, validMag=0, tAcc=1001, nano=199831570, fixType=3, gnssFixOk=1, diffSoln=1, psmState=0, headVehValid=0, carrSoln=2, confirmedAvai=1, confirmedDate=1, confirmedTime=1, numSV=25, lon=-97.6641909, lat=37.9008693, height=407825, hMSL=434077, hAcc=968, vAcc=1448, velN=0, velE=-4, velD=6, gSpeed=4, headMot=0.0, sAcc=75, headAcc=180.0, pDOP=1.19, invalidLlh=0, lastCorrectionAge=1, reserved0=860630572, headVeh=0.0, magDec=0.0, magAcc=0.0)>
2026-07-05 14:05:48,289 - INFO - <NMEA(GNRMC, time=19:05:48.200000, status=A, lat=37.9008693333, NS=N, lon=-97.6641908333, EW=W, spd=0.007, cog=, date=2026-07-05, mv=, mvEW=, posMode=R, navStatus=V)>
2026-07-05 14:05:48,289 - INFO - <NMEA(GNVTG, cogt=, cogtUnit=T, cogm=, cogmUnit=M, sogn=0.007, sognUnit=N, sogk=0.013, sogkUnit=K, posMode=D)>
2026-07-05 14:05:48,289 - INFO - <NMEA(GNGGA, time=19:05:48.200000, lat=37.9008693333, NS=N, lon=-97.6641908333, EW=W, quality=4, numSV=12, HDOP=0.73, alt=434.1, altUnit=M, sep=-26.3, sepUnit=M, diffAge=0.2, diffStation=0)>
2026-07-05 14:05:48,290 - INFO - <NMEA(GNGSA, opMode=M, navMode=3, svid_01=10, svid_02=32, svid_03=18, svid_04=24, svid_05=23, svid_06=15, svid_07=20, svid_08=, svid_09=, svid_10=, svid_11=, svid_12=, PDOP=1.19, HDOP=0.73, VDOP=0.94, systemId=1)>
2026-07-05 14:05:48,290 - INFO - <NMEA(GNGSA, opMode=M, navMode=3, svid_01=82, svid_02=81, svid_03=66, svid_04=68, svid_05=67, svid_06=, svid_07=, svid_08=, svid_09=, svid_10=, svid_11=, svid_12=, PDOP=1.19, HDOP=0.73, VDOP=0.94, systemId=2)>
2026-07-05 14:05:48,291 - INFO - <NMEA(GNGSA, opMode=M, navMode=3, svid_01=19, svid_02=9, svid_03=4, svid_04=6, svid_05=28, svid_06=10, svid_07=36, svid_08=11, svid_09=12, svid_10=, svid_11=, svid_12=, PDOP=1.19, HDOP=0.73, VDOP=0.94, systemId=3)>
2026-07-05 14:05:48,291 - INFO - <NMEA(GNGSA, opMode=M, navMode=3, svid_01=13, svid_02=41, svid_03=33, svid_04=28, svid_05=, svid_06=, svid_07=, svid_08=, svid_09=, svid_10=, svid_11=, svid_12=, PDOP=1.19, HDOP=0.73, VDOP=0.94, systemId=4)>
2026-07-05 14:05:48,291 - INFO - <NMEA(GNGSA, opMode=M, navMode=3, svid_01=, svid_02=, svid_03=, svid_04=, svid_05=, svid_06=, svid_07=, svid_08=, svid_09=, svid_10=, svid_11=, svid_12=, PDOP=1.19, HDOP=0.73, VDOP=0.94, systemId=5)>
2026-07-05 14:05:48,292 - INFO - <NMEA(GPGSV, numMsg=3, msgNum=1, numSV=11, svid_01=10, elv_01=42.0, az_01=289, cno_01=45, svid_02=15, elv_02=37.0, az_02=48, cno_02=50, svid_03=18, elv_03=70.0, az_03=119, cno_03=47, svid_04=20, elv_04=11.0, az_04=44, cno_04=44, signalID=1)>
2026-07-05 14:05:48,292 - INFO - <NMEA(GPGSV, numMsg=3, msgNum=2, numSV=11, svid_01=23, elv_01=65.0, az_01=342, cno_01=45, svid_02=24, elv_02=35.0, az_02=103, cno_02=42, svid_03=29, elv_03=9.0, az_03=176, cno_03=24, svid_04=32, elv_04=18.0, az_04=218, cno_04=26, signalID=1)>
2026-07-05 14:05:48,293 - INFO - <NMEA(GPGSV, numMsg=3, msgNum=3, numSV=11, svid_01=44, elv_01=42.0, az_01=210, cno_01=36, svid_02=46, elv_02=35.0, az_02=225, cno_02=42, svid_03=48, elv_03=38.0, az_03=220, cno_03=37, signalID=1)>
2026-07-05 14:05:48,293 - INFO - <NMEA(GPGSV, numMsg=2, msgNum=1, numSV=8, svid_01=10, elv_01=42.0, az_01=289, cno_01=43, svid_02=15, elv_02=37.0, az_02=48, cno_02=40, svid_03=18, elv_03=70.0, az_03=119, cno_03=44, svid_04=20, elv_04=11.0, az_04=44, cno_04=39, signalID=6)>
2026-07-05 14:05:48,294 - INFO - <NMEA(GPGSV, numMsg=2, msgNum=2, numSV=8, svid_01=23, elv_01=65.0, az_01=342, cno_01=44, svid_02=24, elv_02=35.0, az_02=103, cno_02=43, svid_03=29, elv_03=9.0, az_03=176, cno_03=22, svid_04=32, elv_04=18.0, az_04=218, cno_04=28, signalID=6)>
2026-07-05 14:05:48,294 - INFO - <NMEA(GPGSV, numMsg=1, msgNum=1, numSV=1, svid_01=8, elv_01=5.0, az_01=324, cno_01=, signalID=0)>
2026-07-05 14:05:48,294 - INFO - <NMEA(GLGSV, numMsg=2, msgNum=1, numSV=7, svid_01=66, elv_01=41.0, az_01=29, cno_01=48, svid_02=67, elv_02=68.0, az_02=270, cno_02=43, svid_03=68, elv_03=21.0, az_03=232, cno_03=38, svid_04=75, elv_04=1.0, az_04=34, cno_04=47, signalID=1)>
2026-07-05 14:05:48,295 - INFO - <NMEA(GLGSV, numMsg=2, msgNum=2, numSV=7, svid_01=81, elv_01=61.0, az_01=151, cno_01=49, svid_02=82, elv_02=66.0, az_02=328, cno_02=42, svid_03=88, elv_03=7.0, az_03=149, cno_03=39, signalID=1)>
2026-07-05 14:05:48,295 - INFO - <NMEA(GLGSV, numMsg=2, msgNum=1, numSV=7, svid_01=66, elv_01=41.0, az_01=29, cno_01=42, svid_02=67, elv_02=68.0, az_02=270, cno_02=31, svid_03=68, elv_03=21.0, az_03=232, cno_03=30, svid_04=75, elv_04=1.0, az_04=34, cno_04=25, signalID=3)>
2026-07-05 14:05:48,296 - INFO - <NMEA(GLGSV, numMsg=2, msgNum=2, numSV=7, svid_01=81, elv_01=61.0, az_01=151, cno_01=36, svid_02=82, elv_02=66.0, az_02=328, cno_02=41, svid_03=88, elv_03=7.0, az_03=149, cno_03=37, signalID=3)>
2026-07-05 14:05:48,296 - INFO - <NMEA(GAGSV, numMsg=3, msgNum=1, numSV=9, svid_01=4, elv_01=74.0, az_01=132, cno_01=40, svid_02=6, elv_02=56.0, az_02=189, cno_02=27, svid_03=9, elv_03=32.0, az_03=203, cno_03=41, svid_04=10, elv_04=72.0, az_04=83, cno_04=47, signalID=2)>
2026-07-05 14:05:48,297 - INFO - <NMEA(GAGSV, numMsg=3, msgNum=2, numSV=9, svid_01=11, elv_01=69.0, az_01=338, cno_01=42, svid_02=12, elv_02=49.0, az_02=109, cno_02=41, svid_03=19, elv_03=33.0, az_03=46, cno_03=39, svid_04=28, elv_04=60.0, az_04=68, cno_04=47, signalID=2)>
2026-07-05 14:05:48,297 - INFO - <NMEA(GAGSV, numMsg=3, msgNum=3, numSV=9, svid_01=36, elv_01=21.0, az_01=310, cno_01=34, signalID=2)>
2026-07-05 14:05:48,297 - INFO - <NMEA(GAGSV, numMsg=3, msgNum=1, numSV=9, svid_01=4, elv_01=74.0, az_01=132, cno_01=43, svid_02=6, elv_02=56.0, az_02=189, cno_02=32, svid_03=9, elv_03=32.0, az_03=203, cno_03=38, svid_04=10, elv_04=72.0, az_04=83, cno_04=47, signalID=7)>
2026-07-05 14:05:48,298 - INFO - <NMEA(GAGSV, numMsg=3, msgNum=2, numSV=9, svid_01=11, elv_01=69.0, az_01=338, cno_01=42, svid_02=12, elv_02=49.0, az_02=109, cno_02=38, svid_03=19, elv_03=33.0, az_03=46, cno_03=44, svid_04=28, elv_04=60.0, az_04=68, cno_04=43, signalID=7)>
2026-07-05 14:05:48,298 - INFO - <NMEA(GAGSV, numMsg=3, msgNum=3, numSV=9, svid_01=36, elv_01=21.0, az_01=310, cno_01=21, signalID=7)>
2026-07-05 14:05:48,298 - INFO - <NMEA(GBGSV, numMsg=2, msgNum=1, numSV=6, svid_01=13, elv_01=32.0, az_01=160, cno_01=36, svid_02=28, elv_02=59.0, az_02=182, cno_02=38, svid_03=32, elv_03=, az_03=, cno_03=31, svid_04=33, elv_04=47.0, az_04=43, cno_04=49, signalID=1)>
2026-07-05 14:05:48,299 - INFO - <NMEA(GBGSV, numMsg=2, msgNum=2, numSV=6, svid_01=41, elv_01=73.0, az_01=284, cno_01=42, svid_02=58, elv_02=, az_02=, cno_02=44, signalID=1)>
2026-07-05 14:05:48,299 - INFO - <NMEA(GQGSV, numMsg=1, msgNum=1, numSV=0, signalID=0)>
2026-07-05 14:05:48,299 - INFO - <NMEA(GNGLL, lat=37.9008693333, NS=N, lon=-97.6641908333, EW=W, time=19:05:48.200000, status=A, posMode=D)>
2026-07-05 14:05:48,300 - INFO - <UBX(NAV-RELPOSNED, version=1, reserved0=0, refStationID=0, iTOW=19:05:48.200000, relPosN=26.34, relPosE=54.09, relPosD=2.98, relPosLength=60.24, relPosHeading=64.03666, reserved1=0, accN=10.0, accE=10.0, accD=10.2, accLength=10.0, accHeading=0.95235, reserved2=0, gnssFixOK=1, diffSoln=1, relPosValid=1, carrSoln=2, isMoving=1, refPosMiss=0, refObsMiss=0, relPosHeadingValid=1, relPosNormalized=0)>
2026-07-05 14:05:48,301 - INFO - 2026-07-05 14:05:48, current_target: {'timestamp': '2026-05-10 13:40:05', 'lat': 37.9008713333, 'lon': -97.66418, 'speed': 0.004629996, 'y_offset': 0.0, 'x_offset': 0.0, 'z_offset': 0.0, 'heading': 1.76477}, next_target: {'timestamp': '2026-05-10 13:40:06', 'lat': 37.9008713333, 'lon': -97.66418, 'speed': 0.00514444, 'y_offset': 0.0, 'x_offset': 0.0, 'z_offset': 0.0, 'heading': 1.76299}
2026-07-05 14:05:48,301 - INFO - 2026-07-05 14:05:48 [3.4 OBSERVED] current_turn_radius: infm
2026-07-05 14:05:48,301 - INFO - 2026-07-05 14:05:48 [3.4 OBSERVED] turn_direction: LEFT
2026-07-05 14:05:48,301 - INFO - 2026-07-05 14:05:48 [3.4 OBSERVED] estimated left/right wheel speeds: nan, nan m/s
2026-07-05 14:05:48,304 - INFO - 2026-07-05 14:05:48 [STATE] Current state: NAVIGATING_TO_START
2026-07-05 14:05:48,304 - INFO - 2026-07-05 14:05:48 [NAV_TO_START] Phase: DRIVE_TO_START, Dist: 0.978m, Bearing err: 12.8°, Heading diff: 62.3°, Elapsed: 0.7s
2026-07-05 14:05:48,304 - INFO - 2026-07-05 14:05:48 [NAV_TO_START] DRIVE: bearing=76.9°, dist=0.98m, turn=RIGHT, geometric_R=1.65m → commanded_R=0.82m (gain=2.0, floor=0.6m), speed=0.50
2026-07-05 14:05:48,305 - INFO - 2026-07-05 14:05:48 Turn: RIGHT, R: 0.82m, v_L: 0.71 m/s, v_R: 0.29 m/s
2026-07-05 14:05:48,305 - INFO - 2026-07-05 14:05:48 left_actuator_position: 744 (counts) from v_L 0.712 m/s
2026-07-05 14:05:48,305 - INFO - 2026-07-05 14:05:48 right_actuator_position: 950 (counts) from v_R 0.288 m/s
2026-07-05 14:05:48,318 - INFO - Sent actuator positions to RoboClaw → M1 (left): 744, M2 (right): 950 (counts)
2026-07-05 14:05:48,319 - INFO - 2026-07-05 14:05:48 APPLY → left_pos: 744, right_pos: 950 (counts), v_L: 0.71 m/s, v_R: 0.29 m/s
2026-07-05 14:05:48,319 - INFO - <UBX(RXM-RTCM, version=2, crcFailed=0, msgUsed=2, subType=0, refStation=0, msgType=4072)>
2026-07-05 14:05:48,441 - INFO - <UBX(RXM-RTCM, version=2, crcFailed=0, msgUsed=2, subType=0, refStation=0, msgType=1074)>
2026-07-05 14:05:48,445 - INFO - <UBX(RXM-RTCM, version=2, crcFailed=0, msgUsed=2, subType=0, refStation=0, msgType=1084)>
2026-07-05 14:05:48,448 - INFO - <UBX(RXM-RTCM, version=2, crcFailed=0, msgUsed=2, subType=0, refStation=0, msgType=1094)>
2026-07-05 14:05:48,448 - INFO - <UBX(RXM-RTCM, version=2, crcFailed=0, msgUsed=2, subType=0, refStation=0, msgType=1124)>
2026-07-05 14:05:48,448 - INFO - <UBX(RXM-RTCM, version=2, crcFailed=0, msgUsed=2, subType=0, refStation=0, msgType=1230)>
2026-07-05 14:05:48,482 - INFO - <UBX(NAV-PVT, iTOW=19:05:48.400000, year=2026, month=7, day=5, hour=19, min=5, second=48, validDate=1, validTime=1, fullyResolved=1, validMag=0, tAcc=1001, nano=399831524, fixType=3, gnssFixOk=1, diffSoln=1, psmState=0, headVehValid=0, carrSoln=2, confirmedAvai=1, confirmedDate=1, confirmedTime=1, numSV=25, lon=-97.6641909, lat=37.9008693, height=407819, hMSL=434072, hAcc=1139, vAcc=1704, velN=13, velE=-8, velD=17, gSpeed=16, headMot=0.0, sAcc=82, headAcc=180.0, pDOP=1.19, invalidLlh=0, lastCorrectionAge=1, reserved0=860630572, headVeh=0.0, magDec=0.0, magAcc=0.0)>
2026-07-05 14:05:48,482 - INFO - <NMEA(GNRMC, time=19:05:48.400000, status=A, lat=37.9008693333, NS=N, lon=-97.664191, EW=W, spd=0.03, cog=, date=2026-07-05, mv=, mvEW=, posMode=R, navStatus=V)>
2026-07-05 14:05:48,483 - INFO - <NMEA(GNVTG, cogt=, cogtUnit=T, cogm=, cogmUnit=M, sogn=0.03, sognUnit=N, sogk=0.056, sogkUnit=K, posMode=D)>
2026-07-05 14:05:48,483 - INFO - <NMEA(GNGGA, time=19:05:48.400000, lat=37.9008693333, NS=N, lon=-97.664191, EW=W, quality=4, numSV=12, HDOP=0.73, alt=434.1, altUnit=M, sep=-26.3, sepUnit=M, diffAge=0.2, diffStation=0)>
2026-07-05 14:05:48,484 - INFO - <NMEA(GNGSA, opMode=M, navMode=3, svid_01=10, svid_02=32, svid_03=18, svid_04=24, svid_05=23, svid_06=15, svid_07=20, svid_08=, svid_09=, svid_10=, svid_11=, svid_12=, PDOP=1.19, HDOP=0.73, VDOP=0.94, systemId=1)>
2026-07-05 14:05:48,484 - INFO - <NMEA(GNGSA, opMode=M, navMode=3, svid_01=82, svid_02=81, svid_03=66, svid_04=68, svid_05=67, svid_06=, svid_07=, svid_08=, svid_09=, svid_10=, svid_11=, svid_12=, PDOP=1.19, HDOP=0.73, VDOP=0.94, systemId=2)>
2026-07-05 14:05:48,484 - INFO - <NMEA(GNGSA, opMode=M, navMode=3, svid_01=19, svid_02=9, svid_03=4, svid_04=6, svid_05=28, svid_06=10, svid_07=36, svid_08=11, svid_09=12, svid_10=, svid_11=, svid_12=, PDOP=1.19, HDOP=0.73, VDOP=0.94, systemId=3)>
2026-07-05 14:05:48,485 - INFO - <NMEA(GNGSA, opMode=M, navMode=3, svid_01=13, svid_02=41, svid_03=33, svid_04=28, svid_05=, svid_06=, svid_07=, svid_08=, svid_09=, svid_10=, svid_11=, svid_12=, PDOP=1.19, HDOP=0.73, VDOP=0.94, systemId=4)>
2026-07-05 14:05:48,485 - INFO - <NMEA(GNGSA, opMode=M, navMode=3, svid_01=, svid_02=, svid_03=, svid_04=, svid_05=, svid_06=, svid_07=, svid_08=, svid_09=, svid_10=, svid_11=, svid_12=, PDOP=1.19, HDOP=0.73, VDOP=0.94, systemId=5)>
2026-07-05 14:05:48,486 - INFO - <NMEA(GPGSV, numMsg=3, msgNum=1, numSV=11, svid_01=10, elv_01=42.0, az_01=289, cno_01=45, svid_02=15, elv_02=37.0, az_02=48, cno_02=50, svid_03=18, elv_03=70.0, az_03=119, cno_03=47, svid_04=20, elv_04=11.0, az_04=44, cno_04=44, signalID=1)>
2026-07-05 14:05:48,486 - INFO - <NMEA(GPGSV, numMsg=3, msgNum=2, numSV=11, svid_01=23, elv_01=65.0, az_01=342, cno_01=45, svid_02=24, elv_02=35.0, az_02=103, cno_02=42, svid_03=29, elv_03=9.0, az_03=176, cno_03=24, svid_04=32, elv_04=18.0, az_04=218, cno_04=26, signalID=1)>
2026-07-05 14:05:48,486 - INFO - <NMEA(GPGSV, numMsg=3, msgNum=3, numSV=11, svid_01=44, elv_01=42.0, az_01=210, cno_01=36, svid_02=46, elv_02=35.0, az_02=225, cno_02=42, svid_03=48, elv_03=38.0, az_03=220, cno_03=36, signalID=1)>
2026-07-05 14:05:48,487 - INFO - <NMEA(GPGSV, numMsg=2, msgNum=1, numSV=8, svid_01=10, elv_01=42.0, az_01=289, cno_01=43, svid_02=15, elv_02=37.0, az_02=48, cno_02=40, svid_03=18, elv_03=70.0, az_03=119, cno_03=44, svid_04=20, elv_04=11.0, az_04=44, cno_04=39, signalID=6)>
2026-07-05 14:05:48,487 - INFO - <NMEA(GPGSV, numMsg=2, msgNum=2, numSV=8, svid_01=23, elv_01=65.0, az_01=342, cno_01=44, svid_02=24, elv_02=35.0, az_02=103, cno_02=43, svid_03=29, elv_03=9.0, az_03=176, cno_03=22, svid_04=32, elv_04=18.0, az_04=218, cno_04=28, signalID=6)>
2026-07-05 14:05:48,488 - INFO - <NMEA(GPGSV, numMsg=1, msgNum=1, numSV=1, svid_01=8, elv_01=5.0, az_01=324, cno_01=, signalID=0)>
2026-07-05 14:05:48,488 - INFO - <NMEA(GLGSV, numMsg=2, msgNum=1, numSV=7, svid_01=66, elv_01=41.0, az_01=29, cno_01=49, svid_02=67, elv_02=68.0, az_02=270, cno_02=44, svid_03=68, elv_03=21.0, az_03=232, cno_03=39, svid_04=75, elv_04=1.0, az_04=34, cno_04=47, signalID=1)>
2026-07-05 14:05:48,489 - INFO - <NMEA(GLGSV, numMsg=2, msgNum=2, numSV=7, svid_01=81, elv_01=61.0, az_01=151, cno_01=49, svid_02=82, elv_02=66.0, az_02=328, cno_02=43, svid_03=88, elv_03=7.0, az_03=149, cno_03=39, signalID=1)>
2026-07-05 14:05:48,489 - INFO - <NMEA(GLGSV, numMsg=2, msgNum=1, numSV=7, svid_01=66, elv_01=41.0, az_01=29, cno_01=42, svid_02=67, elv_02=68.0, az_02=270, cno_02=31, svid_03=68, elv_03=21.0, az_03=232, cno_03=30, svid_04=75, elv_04=1.0, az_04=34, cno_04=25, signalID=3)>
2026-07-05 14:05:48,489 - INFO - <NMEA(GLGSV, numMsg=2, msgNum=2, numSV=7, svid_01=81, elv_01=61.0, az_01=151, cno_01=35, svid_02=82, elv_02=66.0, az_02=328, cno_02=41, svid_03=88, elv_03=7.0, az_03=149, cno_03=37, signalID=3)>
2026-07-05 14:05:48,490 - INFO - <NMEA(GAGSV, numMsg=3, msgNum=1, numSV=9, svid_01=4, elv_01=74.0, az_01=132, cno_01=40, svid_02=6, elv_02=56.0, az_02=189, cno_02=27, svid_03=9, elv_03=32.0, az_03=203, cno_03=41, svid_04=10, elv_04=72.0, az_04=83, cno_04=47, signalID=2)>
2026-07-05 14:05:48,490 - INFO - <NMEA(GAGSV, numMsg=3, msgNum=2, numSV=9, svid_01=11, elv_01=69.0, az_01=338, cno_01=42, svid_02=12, elv_02=49.0, az_02=109, cno_02=41, svid_03=19, elv_03=33.0, az_03=46, cno_03=39, svid_04=28, elv_04=60.0, az_04=68, cno_04=47, signalID=2)>
2026-07-05 14:05:48,491 - INFO - <NMEA(GAGSV, numMsg=3, msgNum=3, numSV=9, svid_01=36, elv_01=21.0, az_01=310, cno_01=33, signalID=2)>
2026-07-05 14:05:48,491 - INFO - <NMEA(GAGSV, numMsg=3, msgNum=1, numSV=9, svid_01=4, elv_01=74.0, az_01=132, cno_01=43, svid_02=6, elv_02=56.0, az_02=189, cno_02=32, svid_03=9, elv_03=32.0, az_03=203, cno_03=38, svid_04=10, elv_04=72.0, az_04=83, cno_04=46, signalID=7)>
2026-07-05 14:05:48,492 - INFO - <NMEA(GAGSV, numMsg=3, msgNum=2, numSV=9, svid_01=11, elv_01=69.0, az_01=338, cno_01=42, svid_02=12, elv_02=49.0, az_02=109, cno_02=38, svid_03=19, elv_03=33.0, az_03=46, cno_03=44, svid_04=28, elv_04=60.0, az_04=68, cno_04=43, signalID=7)>
2026-07-05 14:05:48,492 - INFO - <NMEA(GAGSV, numMsg=3, msgNum=3, numSV=9, svid_01=36, elv_01=21.0, az_01=310, cno_01=21, signalID=7)>
2026-07-05 14:05:48,492 - INFO - <NMEA(GBGSV, numMsg=2, msgNum=1, numSV=7, svid_01=13, elv_01=32.0, az_01=160, cno_01=35, svid_02=27, elv_02=, az_02=, cno_02=16, svid_03=28, elv_03=59.0, az_03=182, cno_03=38, svid_04=32, elv_04=, az_04=, cno_04=31, signalID=1)>
2026-07-05 14:05:48,493 - INFO - <NMEA(GBGSV, numMsg=2, msgNum=2, numSV=7, svid_01=33, elv_01=47.0, az_01=43, cno_01=49, svid_02=41, elv_02=73.0, az_02=284, cno_02=42, svid_03=58, elv_03=, az_03=, cno_03=44, signalID=1)>
2026-07-05 14:05:48,493 - INFO - <UBX(RXM-RTCM, version=2, crcFailed=0, msgUsed=2, subType=0, refStation=0, msgType=4072)>
2026-07-05 14:05:48,493 - INFO - <NMEA(GQGSV, numMsg=1, msgNum=1, numSV=0, signalID=0)>
2026-07-05 14:05:48,493 - INFO - <NMEA(GNGLL, lat=37.9008693333, NS=N, lon=-97.664191, EW=W, time=19:05:48.400000, status=A, posMode=D)>
2026-07-05 14:05:48,493 - INFO - <UBX(NAV-RELPOSNED, version=1, reserved0=0, refStationID=0, iTOW=19:05:48.400000, relPosN=26.25, relPosE=53.71, relPosD=3.27, relPosLength=59.87, relPosHeading=63.9562, reserved1=0, accN=10.0, accE=10.0, accD=12.1, accLength=10.0, accHeading=0.95845, reserved2=0, gnssFixOK=1, diffSoln=1, relPosValid=1, carrSoln=2, isMoving=1, refPosMiss=0, refObsMiss=0, relPosHeadingValid=1, relPosNormalized=0)>
2026-07-05 14:05:48,495 - INFO - 2026-07-05 14:05:48, current_target: {'timestamp': '2026-05-10 13:40:05', 'lat': 37.9008713333, 'lon': -97.66418, 'speed': 0.004629996, 'y_offset': 0.0, 'x_offset': 0.0, 'z_offset': 0.0, 'heading': 1.76477}, next_target: {'timestamp': '2026-05-10 13:40:06', 'lat': 37.9008713333, 'lon': -97.66418, 'speed': 0.00514444, 'y_offset': 0.0, 'x_offset': 0.0, 'z_offset': 0.0, 'heading': 1.76299}
2026-07-05 14:05:48,495 - INFO - 2026-07-05 14:05:48 [3.4 OBSERVED] current_turn_radius: infm
2026-07-05 14:05:48,495 - INFO - 2026-07-05 14:05:48 [3.4 OBSERVED] turn_direction: LEFT
2026-07-05 14:05:48,495 - INFO - 2026-07-05 14:05:48 [3.4 OBSERVED] estimated left/right wheel speeds: nan, nan m/s
2026-07-05 14:05:48,498 - INFO - 2026-07-05 14:05:48 [STATE] Current state: NAVIGATING_TO_START
2026-07-05 14:05:48,498 - INFO - 2026-07-05 14:05:48 [NAV_TO_START] Phase: DRIVE_TO_START, Dist: 0.993m, Bearing err: 13.1°, Heading diff: 62.2°, Elapsed: 0.9s
2026-07-05 14:05:48,498 - INFO - 2026-07-05 14:05:48 [NAV_TO_START] DRIVE: bearing=77.1°, dist=0.99m, turn=RIGHT, geometric_R=1.64m → commanded_R=0.82m (gain=2.0, floor=0.6m), speed=0.50
2026-07-05 14:05:48,498 - INFO - 2026-07-05 14:05:48 Turn: RIGHT, R: 0.82m, v_L: 0.71 m/s, v_R: 0.29 m/s
2026-07-05 14:05:48,498 - INFO - 2026-07-05 14:05:48 left_actuator_position: 743 (counts) from v_L 0.713 m/s
2026-07-05 14:05:48,498 - INFO - 2026-07-05 14:05:48 right_actuator_position: 950 (counts) from v_R 0.287 m/s
2026-07-05 14:05:48,511 - INFO - Sent actuator positions to RoboClaw → M1 (left): 743, M2 (right): 950 (counts)
2026-07-05 14:05:48,511 - INFO - 2026-07-05 14:05:48 APPLY → left_pos: 743, right_pos: 950 (counts), v_L: 0.71 m/s, v_R: 0.29 m/s
2026-07-05 14:05:48,646 - INFO - <UBX(RXM-RTCM, version=2, crcFailed=0, msgUsed=2, subType=0, refStation=0, msgType=1074)>
2026-07-05 14:05:48,648 - INFO - <UBX(RXM-RTCM, version=2, crcFailed=0, msgUsed=2, subType=0, refStation=0, msgType=1084)>
2026-07-05 14:05:48,651 - INFO - <UBX(RXM-RTCM, version=2, crcFailed=0, msgUsed=2, subType=0, refStation=0, msgType=1094)>
2026-07-05 14:05:48,652 - INFO - <UBX(RXM-RTCM, version=2, crcFailed=0, msgUsed=2, subType=0, refStation=0, msgType=1124)>
2026-07-05 14:05:48,652 - INFO - <UBX(RXM-RTCM, version=2, crcFailed=0, msgUsed=2, subType=0, refStation=0, msgType=1230)>
2026-07-05 14:05:48,689 - INFO - <UBX(NAV-PVT, iTOW=19:05:48.600000, year=2026, month=7, day=5, hour=19, min=5, second=48, validDate=1, validTime=1, fullyResolved=1, validMag=0, tAcc=1002, nano=599831479, fixType=3, gnssFixOk=1, diffSoln=1, psmState=0, headVehValid=0, carrSoln=2, confirmedAvai=1, confirmedDate=1, confirmedTime=1, numSV=25, lon=-97.6641909, lat=37.9008695, height=407804, hMSL=434057, hAcc=1422, vAcc=2126, velN=51, velE=19, velD=18, gSpeed=54, headMot=0.0, sAcc=64, headAcc=84.46998, pDOP=1.19, invalidLlh=0, lastCorrectionAge=1, reserved0=860630572, headVeh=0.0, magDec=0.0, magAcc=0.0)>
2026-07-05 14:05:48,690 - INFO - <NMEA(GNRMC, time=19:05:48.600000, status=A, lat=37.9008695, NS=N, lon=-97.664191, EW=W, spd=0.105, cog=, date=2026-07-05, mv=, mvEW=, posMode=R, navStatus=V)>
2026-07-05 14:05:48,690 - INFO - <NMEA(GNVTG, cogt=, cogtUnit=T, cogm=, cogmUnit=M, sogn=0.105, sognUnit=N, sogk=0.194, sogkUnit=K, posMode=D)>
2026-07-05 14:05:48,690 - INFO - <NMEA(GNGGA, time=19:05:48.600000, lat=37.9008695, NS=N, lon=-97.664191, EW=W, quality=4, numSV=12, HDOP=0.73, alt=434.1, altUnit=M, sep=-26.3, sepUnit=M, diffAge=0.2, diffStation=0)>
2026-07-05 14:05:48,691 - INFO - <NMEA(GNGSA, opMode=M, navMode=3, svid_01=10, svid_02=32, svid_03=18, svid_04=24, svid_05=23, svid_06=15, svid_07=20, svid_08=, svid_09=, svid_10=, svid_11=, svid_12=, PDOP=1.19, HDOP=0.73, VDOP=0.94, systemId=1)>
2026-07-05 14:05:48,691 - INFO - <NMEA(GNGSA, opMode=M, navMode=3, svid_01=82, svid_02=81, svid_03=66, svid_04=68, svid_05=67, svid_06=, svid_07=, svid_08=, svid_09=, svid_10=, svid_11=, svid_12=, PDOP=1.19, HDOP=0.73, VDOP=0.94, systemId=2)>
2026-07-05 14:05:48,692 - INFO - <NMEA(GNGSA, opMode=M, navMode=3, svid_01=19, svid_02=9, svid_03=4, svid_04=6, svid_05=28, svid_06=10, svid_07=36, svid_08=11, svid_09=12, svid_10=, svid_11=, svid_12=, PDOP=1.19, HDOP=0.73, VDOP=0.94, systemId=3)>
2026-07-05 14:05:48,692 - INFO - <NMEA(GNGSA, opMode=M, navMode=3, svid_01=13, svid_02=41, svid_03=33, svid_04=28, svid_05=, svid_06=, svid_07=, svid_08=, svid_09=, svid_10=, svid_11=, svid_12=, PDOP=1.19, HDOP=0.73, VDOP=0.94, systemId=4)>
2026-07-05 14:05:48,692 - INFO - <NMEA(GNGSA, opMode=M, navMode=3, svid_01=, svid_02=, svid_03=, svid_04=, svid_05=, svid_06=, svid_07=, svid_08=, svid_09=, svid_10=, svid_11=, svid_12=, PDOP=1.19, HDOP=0.73, VDOP=0.94, systemId=5)>
2026-07-05 14:05:48,693 - INFO - <NMEA(GPGSV, numMsg=3, msgNum=1, numSV=11, svid_01=10, elv_01=42.0, az_01=289, cno_01=45, svid_02=15, elv_02=37.0, az_02=48, cno_02=49, svid_03=18, elv_03=70.0, az_03=119, cno_03=47, svid_04=20, elv_04=11.0, az_04=44, cno_04=43, signalID=1)>
2026-07-05 14:05:48,693 - INFO - <NMEA(GPGSV, numMsg=3, msgNum=2, numSV=11, svid_01=23, elv_01=65.0, az_01=342, cno_01=45, svid_02=24, elv_02=35.0, az_02=103, cno_02=42, svid_03=29, elv_03=9.0, az_03=176, cno_03=24, svid_04=32, elv_04=18.0, az_04=218, cno_04=26, signalID=1)>
2026-07-05 14:05:48,694 - INFO - <NMEA(GPGSV, numMsg=3, msgNum=3, numSV=11, svid_01=44, elv_01=42.0, az_01=210, cno_01=36, svid_02=46, elv_02=35.0, az_02=225, cno_02=42, svid_03=48, elv_03=38.0, az_03=220, cno_03=36, signalID=1)>
2026-07-05 14:05:48,694 - INFO - <NMEA(GPGSV, numMsg=2, msgNum=1, numSV=8, svid_01=10, elv_01=42.0, az_01=289, cno_01=43, svid_02=15, elv_02=37.0, az_02=48, cno_02=40, svid_03=18, elv_03=70.0, az_03=119, cno_03=44, svid_04=20, elv_04=11.0, az_04=44, cno_04=39, signalID=6)>
2026-07-05 14:05:48,695 - INFO - <NMEA(GPGSV, numMsg=2, msgNum=2, numSV=8, svid_01=23, elv_01=65.0, az_01=342, cno_01=44, svid_02=24, elv_02=35.0, az_02=103, cno_02=43, svid_03=29, elv_03=9.0, az_03=176, cno_03=22, svid_04=32, elv_04=18.0, az_04=218, cno_04=28, signalID=6)>
2026-07-05 14:05:48,695 - INFO - <NMEA(GPGSV, numMsg=1, msgNum=1, numSV=1, svid_01=8, elv_01=5.0, az_01=324, cno_01=, signalID=0)>
2026-07-05 14:05:48,695 - INFO - <NMEA(GLGSV, numMsg=2, msgNum=1, numSV=7, svid_01=66, elv_01=41.0, az_01=29, cno_01=48, svid_02=67, elv_02=68.0, az_02=270, cno_02=44, svid_03=68, elv_03=21.0, az_03=232, cno_03=33, svid_04=75, elv_04=1.0, az_04=34, cno_04=44, signalID=1)>
2026-07-05 14:05:48,696 - INFO - <NMEA(GLGSV, numMsg=2, msgNum=2, numSV=7, svid_01=81, elv_01=61.0, az_01=151, cno_01=49, svid_02=82, elv_02=66.0, az_02=328, cno_02=43, svid_03=88, elv_03=7.0, az_03=149, cno_03=40, signalID=1)>
2026-07-05 14:05:48,696 - INFO - <NMEA(GLGSV, numMsg=2, msgNum=1, numSV=7, svid_01=66, elv_01=41.0, az_01=29, cno_01=42, svid_02=67, elv_02=68.0, az_02=270, cno_02=31, svid_03=68, elv_03=21.0, az_03=232, cno_03=30, svid_04=75, elv_04=1.0, az_04=34, cno_04=25, signalID=3)>
2026-07-05 14:05:48,697 - INFO - <NMEA(GLGSV, numMsg=2, msgNum=2, numSV=7, svid_01=81, elv_01=61.0, az_01=151, cno_01=35, svid_02=82, elv_02=66.0, az_02=328, cno_02=41, svid_03=88, elv_03=7.0, az_03=149, cno_03=37, signalID=3)>
2026-07-05 14:05:48,697 - INFO - <NMEA(GAGSV, numMsg=3, msgNum=1, numSV=9, svid_01=4, elv_01=74.0, az_01=132, cno_01=40, svid_02=6, elv_02=56.0, az_02=189, cno_02=26, svid_03=9, elv_03=32.0, az_03=203, cno_03=41, svid_04=10, elv_04=72.0, az_04=83, cno_04=47, signalID=2)>
2026-07-05 14:05:48,698 - INFO - <NMEA(GAGSV, numMsg=3, msgNum=2, numSV=9, svid_01=11, elv_01=69.0, az_01=338, cno_01=42, svid_02=12, elv_02=49.0, az_02=109, cno_02=41, svid_03=19, elv_03=33.0, az_03=46, cno_03=39, svid_04=28, elv_04=60.0, az_04=68, cno_04=47, signalID=2)>
2026-07-05 14:05:48,698 - INFO - <NMEA(GAGSV, numMsg=3, msgNum=3, numSV=9, svid_01=36, elv_01=21.0, az_01=310, cno_01=33, signalID=2)>
2026-07-05 14:05:48,698 - INFO - <NMEA(GAGSV, numMsg=3, msgNum=1, numSV=9, svid_01=4, elv_01=74.0, az_01=132, cno_01=43, svid_02=6, elv_02=56.0, az_02=189, cno_02=31, svid_03=9, elv_03=32.0, az_03=203, cno_03=37, svid_04=10, elv_04=72.0, az_04=83, cno_04=46, signalID=7)>
2026-07-05 14:05:48,699 - INFO - <NMEA(GAGSV, numMsg=3, msgNum=2, numSV=9, svid_01=11, elv_01=69.0, az_01=338, cno_01=42, svid_02=12, elv_02=49.0, az_02=109, cno_02=38, svid_03=19, elv_03=33.0, az_03=46, cno_03=44, svid_04=28, elv_04=60.0, az_04=68, cno_04=43, signalID=7)>
2026-07-05 14:05:48,699 - INFO - <NMEA(GAGSV, numMsg=3, msgNum=3, numSV=9, svid_01=36, elv_01=21.0, az_01=310, cno_01=20, signalID=7)>
2026-07-05 14:05:48,699 - INFO - <NMEA(GBGSV, numMsg=2, msgNum=1, numSV=7, svid_01=13, elv_01=32.0, az_01=160, cno_01=36, svid_02=27, elv_02=, az_02=, cno_02=16, svid_03=28, elv_03=59.0, az_03=182, cno_03=38, svid_04=32, elv_04=, az_04=, cno_04=31, signalID=1)>
2026-07-05 14:05:48,700 - INFO - <NMEA(GBGSV, numMsg=2, msgNum=2, numSV=7, svid_01=33, elv_01=47.0, az_01=43, cno_01=49, svid_02=41, elv_02=73.0, az_02=284, cno_02=42, svid_03=58, elv_03=, az_03=, cno_03=44, signalID=1)>
2026-07-05 14:05:48,700 - INFO - <NMEA(GQGSV, numMsg=1, msgNum=1, numSV=0, signalID=0)>
2026-07-05 14:05:48,700 - INFO - <NMEA(GNGLL, lat=37.9008695, NS=N, lon=-97.664191, EW=W, time=19:05:48.600000, status=A, posMode=D)>
2026-07-05 14:05:48,701 - INFO - <UBX(NAV-RELPOSNED, version=1, reserved0=0, refStationID=0, iTOW=19:05:48.600000, relPosN=25.94, relPosE=53.36, relPosD=3.46, relPosLength=59.43, relPosHeading=64.07314, reserved1=0, accN=10.0, accE=10.0, accD=15.4, accLength=10.0, accHeading=0.96569, reserved2=0, gnssFixOK=1, diffSoln=1, relPosValid=1, carrSoln=2, isMoving=1, refPosMiss=0, refObsMiss=0, relPosHeadingValid=1, relPosNormalized=0)>
2026-07-05 14:05:48,702 - INFO - 2026-07-05 14:05:48, current_target: {'timestamp': '2026-05-10 13:40:05', 'lat': 37.9008713333, 'lon': -97.66418, 'speed': 0.004629996, 'y_offset': 0.0, 'x_offset': 0.0, 'z_offset': 0.0, 'heading': 1.76477}, next_target: {'timestamp': '2026-05-10 13:40:06', 'lat': 37.9008713333, 'lon': -97.66418, 'speed': 0.00514444, 'y_offset': 0.0, 'x_offset': 0.0, 'z_offset': 0.0, 'heading': 1.76299}
2026-07-05 14:05:48,702 - INFO - 2026-07-05 14:05:48 [3.4 OBSERVED] current_turn_radius: infm
2026-07-05 14:05:48,702 - INFO - 2026-07-05 14:05:48 [3.4 OBSERVED] turn_direction: RIGHT
2026-07-05 14:05:48,702 - INFO - 2026-07-05 14:05:48 [3.4 OBSERVED] estimated left/right wheel speeds: nan, nan m/s
2026-07-05 14:05:48,705 - INFO - 2026-07-05 14:05:48 [STATE] Current state: NAVIGATING_TO_START
2026-07-05 14:05:48,705 - INFO - 2026-07-05 14:05:48 [NAV_TO_START] Phase: DRIVE_TO_START, Dist: 0.989m, Bearing err: 14.0°, Heading diff: 62.3°, Elapsed: 1.1s
2026-07-05 14:05:48,706 - INFO - 2026-07-05 14:05:48 [NAV_TO_START] DRIVE: bearing=78.1°, dist=0.99m, turn=RIGHT, geometric_R=1.53m → commanded_R=0.76m (gain=2.0, floor=0.6m), speed=0.50
2026-07-05 14:05:48,706 - INFO - 2026-07-05 14:05:48 Turn: RIGHT, R: 0.76m, v_L: 0.73 m/s, v_R: 0.27 m/s
2026-07-05 14:05:48,706 - INFO - 2026-07-05 14:05:48 left_actuator_position: 735 (counts) from v_L 0.729 m/s
2026-07-05 14:05:48,706 - INFO - 2026-07-05 14:05:48 right_actuator_position: 950 (counts) from v_R 0.271 m/s
2026-07-05 14:05:48,718 - INFO - Sent actuator positions to RoboClaw → M1 (left): 735, M2 (right): 950 (counts)
2026-07-05 14:05:48,718 - INFO - 2026-07-05 14:05:48 APPLY → left_pos: 735, right_pos: 950 (counts), v_L: 0.73 m/s, v_R: 0.27 m/s
2026-07-05 14:05:48,719 - INFO - <UBX(RXM-RTCM, version=2, crcFailed=0, msgUsed=2, subType=0, refStation=0, msgType=4072)>
2026-07-05 14:05:48,844 - INFO - <UBX(RXM-RTCM, version=2, crcFailed=0, msgUsed=2, subType=0, refStation=0, msgType=1074)>
2026-07-05 14:05:48,847 - INFO - <UBX(RXM-RTCM, version=2, crcFailed=0, msgUsed=2, subType=0, refStation=0, msgType=1084)>
2026-07-05 14:05:48,849 - INFO - <UBX(RXM-RTCM, version=2, crcFailed=0, msgUsed=2, subType=0, refStation=0, msgType=1094)>
2026-07-05 14:05:48,851 - INFO - <UBX(RXM-RTCM, version=2, crcFailed=0, msgUsed=2, subType=0, refStation=0, msgType=1124)>
2026-07-05 14:05:48,851 - INFO - <UBX(RXM-RTCM, version=2, crcFailed=0, msgUsed=2, subType=0, refStation=0, msgType=1230)>
2026-07-05 14:05:48,893 - INFO - <UBX(NAV-PVT, iTOW=19:05:48.800000, year=2026, month=7, day=5, hour=19, min=5, second=48, validDate=1, validTime=1, fullyResolved=1, validMag=0, tAcc=1001, nano=799831433, fixType=3, gnssFixOk=1, diffSoln=1, psmState=0, headVehValid=0, carrSoln=2, confirmedAvai=1, confirmedDate=1, confirmedTime=1, numSV=25, lon=-97.6641902, lat=37.9008698, height=407857, hMSL=434110, hAcc=1208, vAcc=1806, velN=104, velE=218, velD=50, gSpeed=242, headMot=64.5582, sAcc=70, headAcc=18.94223, pDOP=1.19, invalidLlh=0, lastCorrectionAge=1, reserved0=860630572, headVeh=0.0, magDec=0.0, magAcc=0.0)>
2026-07-05 14:05:48,894 - INFO - <NMEA(GNRMC, time=19:05:48.800000, status=A, lat=37.9008698333, NS=N, lon=-97.6641901667, EW=W, spd=0.47, cog=64.56, date=2026-07-05, mv=, mvEW=, posMode=R, navStatus=V)>
2026-07-05 14:05:48,894 - INFO - <NMEA(GNVTG, cogt=64.56, cogtUnit=T, cogm=, cogmUnit=M, sogn=0.47, sognUnit=N, sogk=0.87, sogkUnit=K, posMode=D)>
2026-07-05 14:05:48,896 - INFO - <NMEA(GNGGA, time=19:05:48.800000, lat=37.9008698333, NS=N, lon=-97.6641901667, EW=W, quality=4, numSV=12, HDOP=0.73, alt=434.1, altUnit=M, sep=-26.3, sepUnit=M, diffAge=0.2, diffStation=0)>
2026-07-05 14:05:48,897 - INFO - <NMEA(GNGSA, opMode=M, navMode=3, svid_01=10, svid_02=32, svid_03=18, svid_04=24, svid_05=23, svid_06=15, svid_07=20, svid_08=, svid_09=, svid_10=, svid_11=, svid_12=, PDOP=1.19, HDOP=0.73, VDOP=0.94, systemId=1)>
2026-07-05 14:05:48,897 - INFO - <NMEA(GNGSA, opMode=M, navMode=3, svid_01=82, svid_02=81, svid_03=66, svid_04=68, svid_05=67, svid_06=, svid_07=, svid_08=, svid_09=, svid_10=, svid_11=, svid_12=, PDOP=1.19, HDOP=0.73, VDOP=0.94, systemId=2)>
2026-07-05 14:05:48,898 - INFO - <NMEA(GNGSA, opMode=M, navMode=3, svid_01=19, svid_02=9, svid_03=4, svid_04=6, svid_05=28, svid_06=10, svid_07=36, svid_08=11, svid_09=12, svid_10=, svid_11=, svid_12=, PDOP=1.19, HDOP=0.73, VDOP=0.94, systemId=3)>
2026-07-05 14:05:48,898 - INFO - <NMEA(GNGSA, opMode=M, navMode=3, svid_01=13, svid_02=41, svid_03=33, svid_04=28, svid_05=, svid_06=, svid_07=, svid_08=, svid_09=, svid_10=, svid_11=, svid_12=, PDOP=1.19, HDOP=0.73, VDOP=0.94, systemId=4)>
2026-07-05 14:05:48,898 - INFO - <NMEA(GNGSA, opMode=M, navMode=3, svid_01=, svid_02=, svid_03=, svid_04=, svid_05=, svid_06=, svid_07=, svid_08=, svid_09=, svid_10=, svid_11=, svid_12=, PDOP=1.19, HDOP=0.73, VDOP=0.94, systemId=5)>
2026-07-05 14:05:48,899 - INFO - <NMEA(GPGSV, numMsg=3, msgNum=1, numSV=11, svid_01=10, elv_01=42.0, az_01=289, cno_01=45, svid_02=15, elv_02=37.0, az_02=48, cno_02=46, svid_03=18, elv_03=70.0, az_03=119, cno_03=48, svid_04=20, elv_04=11.0, az_04=44, cno_04=39, signalID=1)>
2026-07-05 14:05:48,899 - INFO - <NMEA(GPGSV, numMsg=3, msgNum=2, numSV=11, svid_01=23, elv_01=65.0, az_01=342, cno_01=45, svid_02=24, elv_02=35.0, az_02=103, cno_02=42, svid_03=29, elv_03=9.0, az_03=176, cno_03=24, svid_04=32, elv_04=18.0, az_04=218, cno_04=26, signalID=1)>
2026-07-05 14:05:48,900 - INFO - <NMEA(GPGSV, numMsg=3, msgNum=3, numSV=11, svid_01=44, elv_01=42.0, az_01=210, cno_01=33, svid_02=46, elv_02=35.0, az_02=225, cno_02=42, svid_03=48, elv_03=38.0, az_03=220, cno_03=36, signalID=1)>
2026-07-05 14:05:48,900 - INFO - <NMEA(GPGSV, numMsg=2, msgNum=1, numSV=8, svid_01=10, elv_01=42.0, az_01=289, cno_01=43, svid_02=15, elv_02=37.0, az_02=48, cno_02=40, svid_03=18, elv_03=70.0, az_03=119, cno_03=44, svid_04=20, elv_04=11.0, az_04=44, cno_04=35, signalID=6)>
2026-07-05 14:05:48,901 - INFO - <NMEA(GPGSV, numMsg=2, msgNum=2, numSV=8, svid_01=23, elv_01=65.0, az_01=342, cno_01=44, svid_02=24, elv_02=35.0, az_02=103, cno_02=43, svid_03=29, elv_03=9.0, az_03=176, cno_03=22, svid_04=32, elv_04=18.0, az_04=218, cno_04=28, signalID=6)>
2026-07-05 14:05:48,901 - INFO - <NMEA(GPGSV, numMsg=1, msgNum=1, numSV=1, svid_01=8, elv_01=5.0, az_01=324, cno_01=, signalID=0)>
2026-07-05 14:05:48,901 - INFO - <NMEA(GLGSV, numMsg=2, msgNum=1, numSV=7, svid_01=66, elv_01=41.0, az_01=29, cno_01=49, svid_02=67, elv_02=68.0, az_02=270, cno_02=44, svid_03=68, elv_03=21.0, az_03=232, cno_03=36, svid_04=75, elv_04=1.0, az_04=34, cno_04=44, signalID=1)>
2026-07-05 14:05:48,902 - INFO - <NMEA(GLGSV, numMsg=2, msgNum=2, numSV=7, svid_01=81, elv_01=61.0, az_01=151, cno_01=48, svid_02=82, elv_02=66.0, az_02=328, cno_02=43, svid_03=88, elv_03=7.0, az_03=149, cno_03=40, signalID=1)>
2026-07-05 14:05:48,902 - INFO - <NMEA(GLGSV, numMsg=2, msgNum=1, numSV=7, svid_01=66, elv_01=41.0, az_01=29, cno_01=42, svid_02=67, elv_02=68.0, az_02=270, cno_02=32, svid_03=68, elv_03=21.0, az_03=232, cno_03=22, svid_04=75, elv_04=1.0, az_04=34, cno_04=26, signalID=3)>
2026-07-05 14:05:48,903 - INFO - <NMEA(GLGSV, numMsg=2, msgNum=2, numSV=7, svid_01=81, elv_01=61.0, az_01=151, cno_01=35, svid_02=82, elv_02=66.0, az_02=328, cno_02=41, svid_03=88, elv_03=7.0, az_03=149, cno_03=37, signalID=3)>
2026-07-05 14:05:48,903 - INFO - <NMEA(GAGSV, numMsg=3, msgNum=1, numSV=9, svid_01=4, elv_01=74.0, az_01=132, cno_01=40, svid_02=6, elv_02=56.0, az_02=189, cno_02=26, svid_03=9, elv_03=32.0, az_03=203, cno_03=41, svid_04=10, elv_04=72.0, az_04=83, cno_04=47, signalID=2)>
2026-07-05 14:05:48,904 - INFO - <NMEA(GAGSV, numMsg=3, msgNum=2, numSV=9, svid_01=11, elv_01=69.0, az_01=338, cno_01=42, svid_02=12, elv_02=49.0, az_02=109, cno_02=41, svid_03=19, elv_03=33.0, az_03=46, cno_03=39, svid_04=28, elv_04=60.0, az_04=68, cno_04=47, signalID=2)>
2026-07-05 14:05:48,904 - INFO - <NMEA(GAGSV, numMsg=3, msgNum=3, numSV=9, svid_01=36, elv_01=21.0, az_01=310, cno_01=33, signalID=2)>
2026-07-05 14:05:48,904 - INFO - <NMEA(GAGSV, numMsg=3, msgNum=1, numSV=9, svid_01=4, elv_01=74.0, az_01=132, cno_01=43, svid_02=6, elv_02=56.0, az_02=189, cno_02=25, svid_03=9, elv_03=32.0, az_03=203, cno_03=32, svid_04=10, elv_04=72.0, az_04=83, cno_04=46, signalID=7)>
2026-07-05 14:05:48,905 - INFO - <NMEA(GAGSV, numMsg=3, msgNum=2, numSV=9, svid_01=11, elv_01=69.0, az_01=338, cno_01=42, svid_02=12, elv_02=49.0, az_02=109, cno_02=35, svid_03=19, elv_03=33.0, az_03=46, cno_03=44, svid_04=28, elv_04=60.0, az_04=68, cno_04=43, signalID=7)>
2026-07-05 14:05:48,905 - INFO - <NMEA(GAGSV, numMsg=3, msgNum=3, numSV=9, svid_01=36, elv_01=21.0, az_01=310, cno_01=19, signalID=7)>
2026-07-05 14:05:48,905 - INFO - <NMEA(GBGSV, numMsg=2, msgNum=1, numSV=7, svid_01=13, elv_01=32.0, az_01=160, cno_01=36, svid_02=27, elv_02=, az_02=, cno_02=16, svid_03=28, elv_03=59.0, az_03=182, cno_03=40, svid_04=32, elv_04=, az_04=, cno_04=35, signalID=1)>
2026-07-05 14:05:48,906 - INFO - <NMEA(GBGSV, numMsg=2, msgNum=2, numSV=7, svid_01=33, elv_01=47.0, az_01=43, cno_01=49, svid_02=41, elv_02=73.0, az_02=284, cno_02=42, svid_03=58, elv_03=, az_03=, cno_03=43, signalID=1)>
2026-07-05 14:05:48,906 - INFO - <NMEA(GQGSV, numMsg=1, msgNum=1, numSV=0, signalID=0)>
2026-07-05 14:05:48,906 - INFO - <NMEA(GNGLL, lat=37.9008698333, NS=N, lon=-97.6641901667, EW=W, time=19:05:48.800000, status=A, posMode=D)>
2026-07-05 14:05:48,907 - INFO - <UBX(NAV-RELPOSNED, version=1, reserved0=0, refStationID=0, iTOW=19:05:48.800000, relPosN=26.34, relPosE=56.26, relPosD=-1.69, relPosLength=62.15, relPosHeading=64.91401, reserved1=0, accN=10.0, accE=10.0, accD=15.4, accLength=10.0, accHeading=0.92227, reserved2=0, gnssFixOK=1, diffSoln=1, relPosValid=1, carrSoln=2, isMoving=1, refPosMiss=0, refObsMiss=0, relPosHeadingValid=1, relPosNormalized=0)>
2026-07-05 14:05:48,908 - INFO - 2026-07-05 14:05:48, current_target: {'timestamp': '2026-05-10 13:40:05', 'lat': 37.9008713333, 'lon': -97.66418, 'speed': 0.004629996, 'y_offset': 0.0, 'x_offset': 0.0, 'z_offset': 0.0, 'heading': 1.76477}, next_target: {'timestamp': '2026-05-10 13:40:06', 'lat': 37.9008713333, 'lon': -97.66418, 'speed': 0.00514444, 'y_offset': 0.0, 'x_offset': 0.0, 'z_offset': 0.0, 'heading': 1.76299}
2026-07-05 14:05:48,908 - INFO - 2026-07-05 14:05:48 [3.4 OBSERVED] current_turn_radius: 3.39m
2026-07-05 14:05:48,908 - INFO - 2026-07-05 14:05:48 [3.4 OBSERVED] turn_direction: RIGHT
2026-07-05 14:05:48,908 - INFO - 2026-07-05 14:05:48 [3.4 OBSERVED] estimated left/right wheel speeds: 0.267, 0.217 m/s
