2026-07-05 15:41:31,593 - INFO - Logging initialized to /home/dali/Documents/ReMow-Rover-Tests/Repeat/Logs/readRecordedRun-2026-07-05_15-41-31.log
2026-07-05 15:41:31,595 - INFO - RoboClaw opened successfully on /dev/serial/by-id/usb-Basicmicro_Inc._USB_Roboclaw_2x15A-if00
2026-07-05 15:41:31,897 - INFO - Encoders reset to zero
2026-07-05 15:41:31,897 - INFO - Starting readRecordedRun with combination: 55
2026-07-05 15:41:31,897 - INFO - Selected most recent recording: 55_20260510-134004_GPSData.csv
2026-07-05 15:41:31,901 - INFO - GREEN_LED initialized on GPIO 17
2026-07-05 15:41:31,907 - INFO - ENU origin from first waypoint: 37.9008713333, -97.66418
2026-07-05 15:41:31,987 - INFO - Path model: 42 rows -> 37 points -> 36 segments, 40.7m total, leading dwell 3.0s
2026-07-05 15:41:32,001 - INFO - goto_positions: M1=1100, M2=1100 [Startup - ensuring neutral position]
2026-07-05 15:41:32,001 - INFO - Actuators initialized to neutral (1100)
2026-07-05 15:41:32,001 - INFO - === UNIFIED PATH FOLLOWER INITIALIZED ===
2026-07-05 15:41:32,001 - INFO - First segment: heading 3.8°, length 0.67m; path ends at (2.81E, 0.81N)
2026-07-05 15:41:32,001 - INFO - Initial state: FOLLOWING_PATH (follower mode ACQUIRE)
2026-07-05 15:41:32,001 - INFO - Acquire timeout: 300.0s
2026-07-05 15:41:32,001 - INFO - === WAITING FOR GPS RTK FIX ===
2026-07-05 15:41:32,001 - INFO - Need: relPosValid=1, carrSoln=2, relPosHeadingValid=1 (timeout: 60.0s)
2026-07-05 15:41:32,133 - INFO - GPS status: relPosValid=1, carrSoln=2, headingValid=1 (0.1s)
2026-07-05 15:41:32,133 - INFO - === GPS RTK FIXED — ready to navigate (0.1s) ===
2026-07-05 15:41:32,254 - INFO - <UBX(RXM-RTCM, version=2, crcFailed=0, msgUsed=2, subType=0, refStation=0, msgType=1074)>
2026-07-05 15:41:32,254 - INFO - Using persisted heading from driving to work area: 39.44° (captured at 2026-07-05 15:40:35)
2026-07-05 15:41:32,258 - INFO - <UBX(RXM-RTCM, version=2, crcFailed=0, msgUsed=2, subType=0, refStation=0, msgType=1084)>
2026-07-05 15:41:32,260 - INFO - <UBX(RXM-RTCM, version=2, crcFailed=0, msgUsed=2, subType=0, refStation=0, msgType=1094)>
2026-07-05 15:41:32,262 - INFO - <UBX(RXM-RTCM, version=2, crcFailed=0, msgUsed=2, subType=0, refStation=0, msgType=1124)>
2026-07-05 15:41:32,262 - INFO - <UBX(RXM-RTCM, version=2, crcFailed=0, msgUsed=2, subType=0, refStation=0, msgType=1230)>
2026-07-05 15:41:32,299 - INFO - <UBX(NAV-PVT, iTOW=20:41:32.200000, year=2026, month=7, day=5, hour=20, min=41, second=32, validDate=1, validTime=1, fullyResolved=1, validMag=0, tAcc=22, nano=200144255, fixType=3, gnssFixOk=1, diffSoln=1, psmState=0, headVehValid=0, carrSoln=2, confirmedAvai=1, confirmedDate=1, confirmedTime=1, numSV=30, lon=-97.664185, lat=37.9008422, height=405139, hMSL=431392, hAcc=1009, vAcc=1566, velN=2, velE=1, velD=-1, gSpeed=2, headMot=63.86817, sAcc=76, headAcc=180.0, pDOP=0.89, invalidLlh=0, lastCorrectionAge=1, reserved0=860630572, headVeh=0.0, magDec=0.0, magAcc=0.0)>
2026-07-05 15:41:32,299 - INFO - <NMEA(GNRMC, time=20:41:32.200000, status=A, lat=37.9008421667, NS=N, lon=-97.664185, EW=W, spd=0.004, cog=, date=2026-07-05, mv=, mvEW=, posMode=R, navStatus=V)>
2026-07-05 15:41:32,299 - INFO - <NMEA(GNVTG, cogt=, cogtUnit=T, cogm=, cogmUnit=M, sogn=0.004, sognUnit=N, sogk=0.008, sogkUnit=K, posMode=D)>
2026-07-05 15:41:32,300 - INFO - <NMEA(GNGGA, time=20:41:32.200000, lat=37.9008421667, NS=N, lon=-97.664185, EW=W, quality=4, numSV=12, HDOP=0.5, alt=431.4, altUnit=M, sep=-26.3, sepUnit=M, diffAge=0.2, diffStation=0)>
2026-07-05 15:41:32,300 - INFO - <NMEA(GNGSA, opMode=M, navMode=3, svid_01=8, svid_02=10, svid_03=18, svid_04=24, svid_05=23, svid_06=27, svid_07=32, svid_08=, svid_09=, svid_10=, svid_11=, svid_12=, PDOP=0.89, HDOP=0.5, VDOP=0.74, systemId=1)>
2026-07-05 15:41:32,301 - INFO - <NMEA(GNGSA, opMode=M, navMode=3, svid_01=76, svid_02=82, svid_03=77, svid_04=69, svid_05=83, svid_06=67, svid_07=68, svid_08=, svid_09=, svid_10=, svid_11=, svid_12=, PDOP=0.89, HDOP=0.5, VDOP=0.74, systemId=2)>
2026-07-05 15:41:32,301 - INFO - <NMEA(GNGSA, opMode=M, navMode=3, svid_01=4, svid_02=9, svid_03=6, svid_04=10, svid_05=11, svid_06=12, svid_07=28, svid_08=36, svid_09=, svid_10=, svid_11=, svid_12=, PDOP=0.89, HDOP=0.5, VDOP=0.74, systemId=3)>
2026-07-05 15:41:32,302 - INFO - <NMEA(GNGSA, opMode=M, navMode=3, svid_01=23, svid_02=28, svid_03=32, svid_04=41, svid_05=25, svid_06=33, svid_07=30, svid_08=27, svid_09=, svid_10=, svid_11=, svid_12=, PDOP=0.89, HDOP=0.5, VDOP=0.74, systemId=4)>
2026-07-05 15:41:32,302 - INFO - <NMEA(GNGSA, opMode=M, navMode=3, svid_01=, svid_02=, svid_03=, svid_04=, svid_05=, svid_06=, svid_07=, svid_08=, svid_09=, svid_10=, svid_11=, svid_12=, PDOP=0.89, HDOP=0.5, VDOP=0.74, systemId=5)>
2026-07-05 15:41:32,302 - INFO - <NMEA(GPGSV, numMsg=4, msgNum=1, numSV=13, svid_01=2, elv_01=15.0, az_01=319, cno_01=21, svid_02=8, elv_02=15.0, az_02=288, cno_02=33, svid_03=10, elv_03=66.0, az_03=355, cno_03=49, svid_04=13, elv_04=1.0, az_04=100, cno_04=46, signalID=1)>
2026-07-05 15:41:32,303 - INFO - <NMEA(GPGSV, numMsg=4, msgNum=2, numSV=13, svid_01=15, elv_01=1.0, az_01=61, cno_01=17, svid_02=18, elv_02=26.0, az_02=153, cno_02=40, svid_03=23, elv_03=53.0, az_03=72, cno_03=48, svid_04=24, elv_04=28.0, az_04=52, cno_04=44, signalID=1)>
2026-07-05 15:41:32,303 - INFO - <NMEA(GPGSV, numMsg=4, msgNum=3, numSV=13, svid_01=27, elv_01=20.0, az_01=253, cno_01=27, svid_02=28, elv_02=15.0, az_02=186, cno_02=31, svid_03=32, elv_03=56.0, az_03=252, cno_03=45, svid_04=46, elv_04=35.0, az_04=225, cno_04=46, signalID=1)>
2026-07-05 15:41:32,304 - INFO - <NMEA(GPGSV, numMsg=4, msgNum=4, numSV=13, svid_01=48, elv_01=38.0, az_01=220, cno_01=36, signalID=1)>
2026-07-05 15:41:32,304 - INFO - <NMEA(GPGSV, numMsg=3, msgNum=1, numSV=10, svid_01=8, elv_01=15.0, az_01=288, cno_01=34, svid_02=10, elv_02=66.0, az_02=355, cno_02=37, svid_03=13, elv_03=1.0, az_03=100, cno_03=43, svid_04=15, elv_04=1.0, az_04=61, cno_04=22, signalID=6)>
2026-07-05 15:41:32,305 - INFO - <NMEA(GPGSV, numMsg=3, msgNum=2, numSV=10, svid_01=18, elv_01=26.0, az_01=153, cno_01=37, svid_02=23, elv_02=53.0, az_02=72, cno_02=47, svid_03=24, elv_03=28.0, az_03=52, cno_03=41, svid_04=27, elv_04=20.0, az_04=253, cno_04=32, signalID=6)>
2026-07-05 15:41:32,305 - INFO - <NMEA(GPGSV, numMsg=3, msgNum=3, numSV=10, svid_01=28, elv_01=15.0, az_01=186, cno_01=23, svid_02=32, elv_02=56.0, az_02=252, cno_02=38, signalID=6)>
2026-07-05 15:41:32,305 - INFO - <NMEA(GLGSV, numMsg=3, msgNum=1, numSV=11, svid_01=66, elv_01=3.0, az_01=56, cno_01=37, svid_02=67, elv_02=49.0, az_02=22, cno_02=48, svid_03=68, elv_03=51.0, az_03=291, cno_03=50, svid_04=69, elv_04=11.0, az_04=255, cno_04=35, signalID=1)>
2026-07-05 15:41:32,306 - INFO - <NMEA(GLGSV, numMsg=3, msgNum=2, numSV=11, svid_01=76, elv_01=11.0, az_01=38, cno_01=47, svid_02=77, elv_02=18.0, az_02=85, cno_02=36, svid_03=78, elv_03=3.0, az_03=137, cno_03=37, svid_04=81, elv_04=9.0, az_04=170, cno_04=26, signalID=1)>
2026-07-05 15:41:32,306 - INFO - <NMEA(GLGSV, numMsg=3, msgNum=3, numSV=11, svid_01=82, elv_01=51.0, az_01=194, cno_01=34, svid_02=83, elv_02=55.0, az_02=302, cno_02=45, svid_03=84, elv_03=8.0, az_03=333, cno_03=29, signalID=1)>
2026-07-05 15:41:32,307 - INFO - <NMEA(GLGSV, numMsg=3, msgNum=1, numSV=9, svid_01=66, elv_01=3.0, az_01=56, cno_01=42, svid_02=67, elv_02=49.0, az_02=22, cno_02=41, svid_03=68, elv_03=51.0, az_03=291, cno_03=42, svid_04=69, elv_04=11.0, az_04=255, cno_04=27, signalID=3)>
2026-07-05 15:41:32,307 - INFO - <NMEA(GLGSV, numMsg=3, msgNum=2, numSV=9, svid_01=76, elv_01=11.0, az_01=38, cno_01=41, svid_02=78, elv_02=3.0, az_02=137, cno_02=34, svid_03=82, elv_03=51.0, az_03=194, cno_03=23, svid_04=83, elv_04=55.0, az_04=302, cno_04=43, signalID=3)>
2026-07-05 15:41:32,307 - INFO - <NMEA(GLGSV, numMsg=3, msgNum=3, numSV=9, svid_01=84, elv_01=8.0, az_01=333, cno_01=24, signalID=3)>
2026-07-05 15:41:32,308 - INFO - <NMEA(GAGSV, numMsg=3, msgNum=1, numSV=10, svid_01=4, elv_01=57.0, az_01=44, cno_01=45, svid_02=6, elv_02=85.0, az_02=25, cno_02=41, svid_03=9, elv_03=67.0, az_03=234, cno_03=36, svid_04=10, elv_04=43.0, az_04=144, cno_04=41, signalID=2)>
2026-07-05 15:41:32,308 - INFO - <NMEA(GAGSV, numMsg=3, msgNum=2, numSV=10, svid_01=11, elv_01=73.0, az_01=153, cno_01=40, svid_02=12, elv_02=20.0, az_02=142, cno_02=39, svid_03=19, elv_03=4.0, az_03=47, cno_03=32, svid_04=28, elv_04=32.0, az_04=48, cno_04=44, signalID=2)>
2026-07-05 15:41:32,309 - INFO - <NMEA(GAGSV, numMsg=3, msgNum=3, numSV=10, svid_01=34, elv_01=3.0, az_01=319, cno_01=26, svid_02=36, elv_02=52.0, az_02=314, cno_02=44, signalID=2)>
2026-07-05 15:41:32,309 - INFO - <NMEA(GAGSV, numMsg=3, msgNum=1, numSV=10, svid_01=4, elv_01=57.0, az_01=44, cno_01=42, svid_02=6, elv_02=85.0, az_02=25, cno_02=42, svid_03=9, elv_03=67.0, az_03=234, cno_03=41, svid_04=10, elv_04=43.0, az_04=144, cno_04=36, signalID=7)>
2026-07-05 15:41:32,310 - INFO - <NMEA(GAGSV, numMsg=3, msgNum=2, numSV=10, svid_01=11, elv_01=73.0, az_01=153, cno_01=39, svid_02=12, elv_02=20.0, az_02=142, cno_02=36, svid_03=19, elv_03=4.0, az_03=47, cno_03=36, svid_04=28, elv_04=32.0, az_04=48, cno_04=44, signalID=7)>
2026-07-05 15:41:32,310 - INFO - <NMEA(GAGSV, numMsg=3, msgNum=3, numSV=10, svid_01=34, elv_01=3.0, az_01=319, cno_01=26, svid_02=36, elv_02=52.0, az_02=314, cno_02=44, signalID=7)>
2026-07-05 15:41:32,310 - INFO - <NMEA(GBGSV, numMsg=3, msgNum=1, numSV=9, svid_01=23, elv_01=12.0, az_01=150, cno_01=36, svid_02=24, elv_02=10.0, az_02=47, cno_02=43, svid_03=25, elv_03=24.0, az_03=103, cno_03=44, svid_04=27, elv_04=45.0, az_04=216, cno_04=40, signalID=1)>
2026-07-05 15:41:32,311 - INFO - <NMEA(GBGSV, numMsg=3, msgNum=2, numSV=9, svid_01=28, elv_01=17.0, az_01=177, cno_01=22, svid_02=30, elv_02=36.0, az_02=295, cno_02=44, svid_03=32, elv_03=46.0, az_03=283, cno_03=41, svid_04=33, elv_04=16.0, az_04=66, cno_04=44, signalID=1)>
2026-07-05 15:41:32,311 - INFO - <NMEA(GBGSV, numMsg=3, msgNum=3, numSV=9, svid_01=41, elv_01=59.0, az_01=33, cno_01=41, signalID=1)>
2026-07-05 15:41:32,311 - INFO - <NMEA(GQGSV, numMsg=1, msgNum=1, numSV=0, signalID=0)>
2026-07-05 15:41:32,311 - INFO - <UBX(RXM-RTCM, version=2, crcFailed=0, msgUsed=2, subType=0, refStation=0, msgType=4072)>
2026-07-05 15:41:32,312 - INFO - <NMEA(GNGLL, lat=37.9008421667, NS=N, lon=-97.664185, EW=W, time=20:41:32.200000, status=A, posMode=D)>
2026-07-05 15:41:32,312 - INFO - <UBX(NAV-RELPOSNED, version=1, reserved0=0, refStationID=0, iTOW=20:41:32.200000, relPosN=44.27, relPosE=33.26, relPosD=-0.52, relPosLength=55.37, relPosHeading=36.91655, reserved1=0, accN=10.0, accE=10.0, accD=14.3, accLength=10.0, accHeading=1.03487, reserved2=0, gnssFixOK=1, diffSoln=1, relPosValid=1, carrSoln=2, isMoving=1, refPosMiss=0, refObsMiss=0, relPosHeadingValid=1, relPosNormalized=0)>
2026-07-05 15:41:32,313 - INFO - 2026-07-05 15:41:32 Initial Moving Baseline state: active
2026-07-05 15:41:32,313 - INFO - 2026-07-05 15:41:32 Initial carrier solution: fixed
2026-07-05 15:41:32,455 - INFO - <UBX(RXM-RTCM, version=2, crcFailed=0, msgUsed=2, subType=0, refStation=0, msgType=1074)>
2026-07-05 15:41:32,455 - INFO - 2026-07-05 15:41:32 [3.4 OBSERVED] current_turn_radius: infm
2026-07-05 15:41:32,455 - INFO - 2026-07-05 15:41:32 [3.4 OBSERVED] turn_direction: STRAIGHT
2026-07-05 15:41:32,455 - INFO - 2026-07-05 15:41:32 [3.4 OBSERVED] estimated left/right wheel speeds: 0.002, 0.002 m/s
2026-07-05 15:41:32,457 - INFO - 2026-07-05 15:41:32 [STATE] Current state: FOLLOWING_PATH
2026-07-05 15:41:32,457 - INFO - 2026-07-05 15:41:32 [FOLLOW] ACQUIRE: progress=0.00m/40.7m seg=0 cross=3.27m alpha=-30.6° target=(0.14,1.99) R=2.59 LEFT v=1.07 dwell=0.0s
2026-07-05 15:41:32,457 - INFO - 2026-07-05 15:41:32 Turn: LEFT, R: 2.59m, v_L: 0.93 m/s, v_R: 1.21 m/s
2026-07-05 15:41:32,457 - INFO - 2026-07-05 15:41:32 left_actuator_position: 637 (counts) from v_L 0.925 m/s
2026-07-05 15:41:32,457 - INFO - 2026-07-05 15:41:32 right_actuator_position: 493 (counts) from v_R 1.215 m/s
2026-07-05 15:41:32,470 - INFO - Sent actuator positions to RoboClaw → M1 (left): 637, M2 (right): 493 (counts)
2026-07-05 15:41:32,470 - INFO - 2026-07-05 15:41:32 APPLY → left_pos: 637, right_pos: 493 (counts), v_L: 0.93 m/s, v_R: 1.21 m/s
2026-07-05 15:41:32,470 - INFO - 2026-07-05 15:41:32 Path tracking needs correction: heading_ok=False (alpha=30.6deg), distance_ok=False (cross=3.267m)
2026-07-05 15:41:32,471 - INFO - <UBX(RXM-RTCM, version=2, crcFailed=0, msgUsed=2, subType=0, refStation=0, msgType=1084)>
2026-07-05 15:41:32,471 - INFO - <UBX(RXM-RTCM, version=2, crcFailed=0, msgUsed=2, subType=0, refStation=0, msgType=1094)>
2026-07-05 15:41:32,471 - INFO - <UBX(RXM-RTCM, version=2, crcFailed=0, msgUsed=2, subType=0, refStation=0, msgType=1124)>
2026-07-05 15:41:32,471 - INFO - <UBX(RXM-RTCM, version=2, crcFailed=0, msgUsed=2, subType=0, refStation=0, msgType=1230)>
2026-07-05 15:41:32,501 - INFO - <UBX(NAV-PVT, iTOW=20:41:32.400000, year=2026, month=7, day=5, hour=20, min=41, second=32, validDate=1, validTime=1, fullyResolved=1, validMag=0, tAcc=22, nano=400144212, fixType=3, gnssFixOk=1, diffSoln=1, psmState=0, headVehValid=0, carrSoln=2, confirmedAvai=1, confirmedDate=1, confirmedTime=1, numSV=30, lon=-97.664185, lat=37.9008422, height=405137, hMSL=431389, hAcc=1077, vAcc=1673, velN=5, velE=-4, velD=6, gSpeed=7, headMot=63.86817, sAcc=87, headAcc=180.0, pDOP=0.89, invalidLlh=0, lastCorrectionAge=1, reserved0=860630572, headVeh=0.0, magDec=0.0, magAcc=0.0)>
2026-07-05 15:41:32,502 - INFO - <NMEA(GNRMC, time=20:41:32.400000, status=A, lat=37.9008421667, NS=N, lon=-97.664185, EW=W, spd=0.013, cog=, date=2026-07-05, mv=, mvEW=, posMode=R, navStatus=V)>
2026-07-05 15:41:32,502 - INFO - <NMEA(GNVTG, cogt=, cogtUnit=T, cogm=, cogmUnit=M, sogn=0.013, sognUnit=N, sogk=0.024, sogkUnit=K, posMode=D)>
2026-07-05 15:41:32,503 - INFO - <NMEA(GNGGA, time=20:41:32.400000, lat=37.9008421667, NS=N, lon=-97.664185, EW=W, quality=4, numSV=12, HDOP=0.5, alt=431.4, altUnit=M, sep=-26.3, sepUnit=M, diffAge=0.2, diffStation=0)>
2026-07-05 15:41:32,503 - INFO - <NMEA(GNGSA, opMode=M, navMode=3, svid_01=8, svid_02=10, svid_03=18, svid_04=24, svid_05=23, svid_06=27, svid_07=32, svid_08=, svid_09=, svid_10=, svid_11=, svid_12=, PDOP=0.89, HDOP=0.5, VDOP=0.74, systemId=1)>
2026-07-05 15:41:32,504 - INFO - <NMEA(GNGSA, opMode=M, navMode=3, svid_01=76, svid_02=82, svid_03=77, svid_04=69, svid_05=83, svid_06=67, svid_07=68, svid_08=, svid_09=, svid_10=, svid_11=, svid_12=, PDOP=0.89, HDOP=0.5, VDOP=0.74, systemId=2)>
2026-07-05 15:41:32,504 - INFO - <NMEA(GNGSA, opMode=M, navMode=3, svid_01=4, svid_02=9, svid_03=6, svid_04=10, svid_05=11, svid_06=12, svid_07=28, svid_08=36, svid_09=, svid_10=, svid_11=, svid_12=, PDOP=0.89, HDOP=0.5, VDOP=0.74, systemId=3)>
2026-07-05 15:41:32,504 - INFO - <NMEA(GNGSA, opMode=M, navMode=3, svid_01=23, svid_02=28, svid_03=32, svid_04=41, svid_05=25, svid_06=33, svid_07=30, svid_08=27, svid_09=, svid_10=, svid_11=, svid_12=, PDOP=0.89, HDOP=0.5, VDOP=0.74, systemId=4)>
2026-07-05 15:41:32,505 - INFO - <NMEA(GNGSA, opMode=M, navMode=3, svid_01=, svid_02=, svid_03=, svid_04=, svid_05=, svid_06=, svid_07=, svid_08=, svid_09=, svid_10=, svid_11=, svid_12=, PDOP=0.89, HDOP=0.5, VDOP=0.74, systemId=5)>
2026-07-05 15:41:32,505 - INFO - <NMEA(GPGSV, numMsg=4, msgNum=1, numSV=13, svid_01=2, elv_01=15.0, az_01=319, cno_01=21, svid_02=8, elv_02=15.0, az_02=288, cno_02=32, svid_03=10, elv_03=66.0, az_03=355, cno_03=49, svid_04=13, elv_04=1.0, az_04=100, cno_04=46, signalID=1)>
2026-07-05 15:41:32,506 - INFO - <NMEA(GPGSV, numMsg=4, msgNum=2, numSV=13, svid_01=15, elv_01=1.0, az_01=61, cno_01=17, svid_02=18, elv_02=26.0, az_02=153, cno_02=40, svid_03=23, elv_03=53.0, az_03=72, cno_03=48, svid_04=24, elv_04=28.0, az_04=52, cno_04=44, signalID=1)>
2026-07-05 15:41:32,506 - INFO - <NMEA(GPGSV, numMsg=4, msgNum=3, numSV=13, svid_01=27, elv_01=20.0, az_01=253, cno_01=26, svid_02=28, elv_02=15.0, az_02=186, cno_02=31, svid_03=32, elv_03=56.0, az_03=252, cno_03=46, svid_04=46, elv_04=35.0, az_04=225, cno_04=46, signalID=1)>
2026-07-05 15:41:32,507 - INFO - <NMEA(GPGSV, numMsg=4, msgNum=4, numSV=13, svid_01=48, elv_01=38.0, az_01=220, cno_01=36, signalID=1)>
2026-07-05 15:41:32,507 - INFO - <NMEA(GPGSV, numMsg=3, msgNum=1, numSV=10, svid_01=8, elv_01=15.0, az_01=288, cno_01=34, svid_02=10, elv_02=66.0, az_02=355, cno_02=37, svid_03=13, elv_03=1.0, az_03=100, cno_03=43, svid_04=15, elv_04=1.0, az_04=61, cno_04=21, signalID=6)>
2026-07-05 15:41:32,507 - INFO - <NMEA(GPGSV, numMsg=3, msgNum=2, numSV=10, svid_01=18, elv_01=26.0, az_01=153, cno_01=37, svid_02=23, elv_02=53.0, az_02=72, cno_02=47, svid_03=24, elv_03=28.0, az_03=52, cno_03=41, svid_04=27, elv_04=20.0, az_04=253, cno_04=32, signalID=6)>
2026-07-05 15:41:32,508 - INFO - <NMEA(GPGSV, numMsg=3, msgNum=3, numSV=10, svid_01=28, elv_01=15.0, az_01=186, cno_01=22, svid_02=32, elv_02=56.0, az_02=252, cno_02=38, signalID=6)>
2026-07-05 15:41:32,508 - INFO - <NMEA(GLGSV, numMsg=3, msgNum=1, numSV=11, svid_01=66, elv_01=3.0, az_01=56, cno_01=38, svid_02=67, elv_02=49.0, az_02=22, cno_02=49, svid_03=68, elv_03=51.0, az_03=291, cno_03=50, svid_04=69, elv_04=11.0, az_04=255, cno_04=35, signalID=1)>
2026-07-05 15:41:32,509 - INFO - <NMEA(GLGSV, numMsg=3, msgNum=2, numSV=11, svid_01=76, elv_01=11.0, az_01=38, cno_01=47, svid_02=77, elv_02=18.0, az_02=85, cno_02=36, svid_03=78, elv_03=3.0, az_03=137, cno_03=38, svid_04=81, elv_04=9.0, az_04=170, cno_04=26, signalID=1)>
2026-07-05 15:41:32,509 - INFO - <NMEA(GLGSV, numMsg=3, msgNum=3, numSV=11, svid_01=82, elv_01=51.0, az_01=194, cno_01=34, svid_02=83, elv_02=55.0, az_02=302, cno_02=45, svid_03=84, elv_03=8.0, az_03=333, cno_03=29, signalID=1)>
2026-07-05 15:41:32,510 - INFO - <NMEA(GLGSV, numMsg=3, msgNum=1, numSV=9, svid_01=66, elv_01=3.0, az_01=56, cno_01=42, svid_02=67, elv_02=49.0, az_02=22, cno_02=41, svid_03=68, elv_03=51.0, az_03=291, cno_03=42, svid_04=69, elv_04=11.0, az_04=255, cno_04=27, signalID=3)>
2026-07-05 15:41:32,510 - INFO - <NMEA(GLGSV, numMsg=3, msgNum=2, numSV=9, svid_01=76, elv_01=11.0, az_01=38, cno_01=41, svid_02=78, elv_02=3.0, az_02=137, cno_02=31, svid_03=82, elv_03=51.0, az_03=194, cno_03=23, svid_04=83, elv_04=55.0, az_04=302, cno_04=43, signalID=3)>
2026-07-05 15:41:32,510 - INFO - <NMEA(GLGSV, numMsg=3, msgNum=3, numSV=9, svid_01=84, elv_01=8.0, az_01=333, cno_01=24, signalID=3)>
2026-07-05 15:41:32,511 - INFO - <NMEA(GAGSV, numMsg=3, msgNum=1, numSV=10, svid_01=4, elv_01=57.0, az_01=44, cno_01=45, svid_02=6, elv_02=85.0, az_02=25, cno_02=40, svid_03=9, elv_03=67.0, az_03=234, cno_03=35, svid_04=10, elv_04=43.0, az_04=144, cno_04=41, signalID=2)>
2026-07-05 15:41:32,511 - INFO - <NMEA(GAGSV, numMsg=3, msgNum=2, numSV=10, svid_01=11, elv_01=73.0, az_01=153, cno_01=40, svid_02=12, elv_02=20.0, az_02=142, cno_02=39, svid_03=19, elv_03=4.0, az_03=47, cno_03=31, svid_04=28, elv_04=32.0, az_04=48, cno_04=44, signalID=2)>
2026-07-05 15:41:32,512 - INFO - <NMEA(GAGSV, numMsg=3, msgNum=3, numSV=10, svid_01=34, elv_01=3.0, az_01=319, cno_01=26, svid_02=36, elv_02=52.0, az_02=314, cno_02=44, signalID=2)>
2026-07-05 15:41:32,512 - INFO - <NMEA(GAGSV, numMsg=3, msgNum=1, numSV=10, svid_01=4, elv_01=57.0, az_01=44, cno_01=42, svid_02=6, elv_02=85.0, az_02=25, cno_02=42, svid_03=9, elv_03=67.0, az_03=234, cno_03=41, svid_04=10, elv_04=43.0, az_04=144, cno_04=36, signalID=7)>
2026-07-05 15:41:32,512 - INFO - <NMEA(GAGSV, numMsg=3, msgNum=2, numSV=10, svid_01=11, elv_01=73.0, az_01=153, cno_01=39, svid_02=12, elv_02=20.0, az_02=142, cno_02=36, svid_03=19, elv_03=4.0, az_03=47, cno_03=36, svid_04=28, elv_04=32.0, az_04=48, cno_04=44, signalID=7)>
2026-07-05 15:41:32,513 - INFO - <NMEA(GAGSV, numMsg=3, msgNum=3, numSV=10, svid_01=34, elv_01=3.0, az_01=319, cno_01=26, svid_02=36, elv_02=52.0, az_02=314, cno_02=44, signalID=7)>
2026-07-05 15:41:32,513 - INFO - <NMEA(GBGSV, numMsg=3, msgNum=1, numSV=9, svid_01=23, elv_01=12.0, az_01=150, cno_01=37, svid_02=24, elv_02=10.0, az_02=47, cno_02=43, svid_03=25, elv_03=24.0, az_03=103, cno_03=44, svid_04=27, elv_04=45.0, az_04=216, cno_04=40, signalID=1)>
2026-07-05 15:41:32,514 - INFO - <NMEA(GBGSV, numMsg=3, msgNum=2, numSV=9, svid_01=28, elv_01=17.0, az_01=177, cno_01=22, svid_02=30, elv_02=36.0, az_02=295, cno_02=44, svid_03=32, elv_03=46.0, az_03=283, cno_03=41, svid_04=33, elv_04=16.0, az_04=66, cno_04=44, signalID=1)>
2026-07-05 15:41:32,514 - INFO - <NMEA(GBGSV, numMsg=3, msgNum=3, numSV=9, svid_01=41, elv_01=59.0, az_01=33, cno_01=41, signalID=1)>
2026-07-05 15:41:32,514 - INFO - <NMEA(GQGSV, numMsg=1, msgNum=1, numSV=0, signalID=0)>
2026-07-05 15:41:32,514 - INFO - <UBX(RXM-RTCM, version=2, crcFailed=0, msgUsed=2, subType=0, refStation=0, msgType=4072)>
2026-07-05 15:41:32,515 - INFO - <NMEA(GNGLL, lat=37.9008421667, NS=N, lon=-97.664185, EW=W, time=20:41:32.400000, status=A, posMode=D)>
2026-07-05 15:41:32,515 - INFO - <UBX(NAV-RELPOSNED, version=1, reserved0=0, refStationID=0, iTOW=20:41:32.400000, relPosN=43.93, relPosE=33.12, relPosD=0.07, relPosLength=55.02, relPosHeading=37.01141, reserved1=0, accN=10.0, accE=10.0, accD=15.5, accLength=10.0, accHeading=1.04139, reserved2=0, gnssFixOK=1, diffSoln=1, relPosValid=1, carrSoln=2, isMoving=1, refPosMiss=0, refObsMiss=0, relPosHeadingValid=1, relPosNormalized=0)>
2026-07-05 15:41:32,516 - INFO - 2026-07-05 15:41:32 [3.4 OBSERVED] current_turn_radius: infm
2026-07-05 15:41:32,516 - INFO - 2026-07-05 15:41:32 [3.4 OBSERVED] turn_direction: RIGHT
2026-07-05 15:41:32,516 - INFO - 2026-07-05 15:41:32 [3.4 OBSERVED] estimated left/right wheel speeds: nan, nan m/s
2026-07-05 15:41:32,520 - INFO - 2026-07-05 15:41:32 [STATE] Current state: FOLLOWING_PATH
2026-07-05 15:41:32,520 - INFO - 2026-07-05 15:41:32 [FOLLOW] ACQUIRE: progress=0.00m/40.7m seg=0 cross=3.27m alpha=-30.7° target=(0.14,1.99) R=2.58 LEFT v=1.07 dwell=0.0s
2026-07-05 15:41:32,520 - INFO - 2026-07-05 15:41:32 Turn: LEFT, R: 2.58m, v_L: 0.92 m/s, v_R: 1.22 m/s
2026-07-05 15:41:32,520 - INFO - 2026-07-05 15:41:32 left_actuator_position: 638 (counts) from v_L 0.925 m/s
2026-07-05 15:41:32,520 - INFO - 2026-07-05 15:41:32 right_actuator_position: 492 (counts) from v_R 1.215 m/s
2026-07-05 15:41:32,536 - INFO - Sent actuator positions to RoboClaw → M1 (left): 638, M2 (right): 492 (counts)
2026-07-05 15:41:32,536 - INFO - 2026-07-05 15:41:32 APPLY → left_pos: 638, right_pos: 492 (counts), v_L: 0.92 m/s, v_R: 1.22 m/s
2026-07-05 15:41:32,536 - INFO - 2026-07-05 15:41:32 Path tracking needs correction: heading_ok=False (alpha=30.7deg), distance_ok=False (cross=3.267m)
2026-07-05 15:41:32,659 - INFO - <UBX(RXM-RTCM, version=2, crcFailed=0, msgUsed=2, subType=0, refStation=0, msgType=1074)>
2026-07-05 15:41:32,660 - INFO - <UBX(RXM-RTCM, version=2, crcFailed=0, msgUsed=2, subType=0, refStation=0, msgType=1084)>
2026-07-05 15:41:32,664 - INFO - <UBX(RXM-RTCM, version=2, crcFailed=0, msgUsed=2, subType=0, refStation=0, msgType=1094)>
2026-07-05 15:41:32,669 - INFO - <UBX(RXM-RTCM, version=2, crcFailed=0, msgUsed=2, subType=0, refStation=0, msgType=1124)>
2026-07-05 15:41:32,669 - INFO - <UBX(RXM-RTCM, version=2, crcFailed=0, msgUsed=2, subType=0, refStation=0, msgType=1230)>
2026-07-05 15:41:32,707 - INFO - <UBX(NAV-PVT, iTOW=20:41:32.600000, year=2026, month=7, day=5, hour=20, min=41, second=32, validDate=1, validTime=1, fullyResolved=1, validMag=0, tAcc=22, nano=600144170, fixType=3, gnssFixOk=1, diffSoln=1, psmState=0, headVehValid=0, carrSoln=2, confirmedAvai=1, confirmedDate=1, confirmedTime=1, numSV=30, lon=-97.664185, lat=37.9008422, height=405122, hMSL=431374, hAcc=995, vAcc=1546, velN=-3, velE=6, velD=21, gSpeed=6, headMot=63.86817, sAcc=81, headAcc=180.0, pDOP=0.89, invalidLlh=0, lastCorrectionAge=1, reserved0=860630572, headVeh=0.0, magDec=0.0, magAcc=0.0)>
2026-07-05 15:41:32,709 - INFO - <NMEA(GNRMC, time=20:41:32.600000, status=A, lat=37.9008421667, NS=N, lon=-97.664185, EW=W, spd=0.013, cog=, date=2026-07-05, mv=, mvEW=, posMode=R, navStatus=V)>
2026-07-05 15:41:32,709 - INFO - <NMEA(GNVTG, cogt=, cogtUnit=T, cogm=, cogmUnit=M, sogn=0.013, sognUnit=N, sogk=0.023, sogkUnit=K, posMode=D)>
2026-07-05 15:41:32,710 - INFO - <NMEA(GNGGA, time=20:41:32.600000, lat=37.9008421667, NS=N, lon=-97.664185, EW=W, quality=4, numSV=12, HDOP=0.5, alt=431.4, altUnit=M, sep=-26.3, sepUnit=M, diffAge=0.2, diffStation=0)>
2026-07-05 15:41:32,710 - INFO - <NMEA(GNGSA, opMode=M, navMode=3, svid_01=8, svid_02=10, svid_03=18, svid_04=24, svid_05=23, svid_06=27, svid_07=32, svid_08=, svid_09=, svid_10=, svid_11=, svid_12=, PDOP=0.89, HDOP=0.5, VDOP=0.74, systemId=1)>
2026-07-05 15:41:32,711 - INFO - <NMEA(GNGSA, opMode=M, navMode=3, svid_01=76, svid_02=82, svid_03=77, svid_04=69, svid_05=83, svid_06=67, svid_07=68, svid_08=, svid_09=, svid_10=, svid_11=, svid_12=, PDOP=0.89, HDOP=0.5, VDOP=0.74, systemId=2)>
2026-07-05 15:41:32,711 - INFO - <NMEA(GNGSA, opMode=M, navMode=3, svid_01=4, svid_02=9, svid_03=6, svid_04=10, svid_05=11, svid_06=12, svid_07=28, svid_08=36, svid_09=, svid_10=, svid_11=, svid_12=, PDOP=0.89, HDOP=0.5, VDOP=0.74, systemId=3)>
2026-07-05 15:41:32,712 - INFO - <NMEA(GNGSA, opMode=M, navMode=3, svid_01=23, svid_02=28, svid_03=32, svid_04=41, svid_05=25, svid_06=33, svid_07=30, svid_08=27, svid_09=, svid_10=, svid_11=, svid_12=, PDOP=0.89, HDOP=0.5, VDOP=0.74, systemId=4)>
2026-07-05 15:41:32,712 - INFO - <NMEA(GNGSA, opMode=M, navMode=3, svid_01=, svid_02=, svid_03=, svid_04=, svid_05=, svid_06=, svid_07=, svid_08=, svid_09=, svid_10=, svid_11=, svid_12=, PDOP=0.89, HDOP=0.5, VDOP=0.74, systemId=5)>
2026-07-05 15:41:32,712 - INFO - <NMEA(GPGSV, numMsg=4, msgNum=1, numSV=13, svid_01=2, elv_01=15.0, az_01=319, cno_01=22, svid_02=8, elv_02=15.0, az_02=288, cno_02=32, svid_03=10, elv_03=66.0, az_03=355, cno_03=49, svid_04=13, elv_04=1.0, az_04=100, cno_04=47, signalID=1)>
2026-07-05 15:41:32,713 - INFO - <NMEA(GPGSV, numMsg=4, msgNum=2, numSV=13, svid_01=15, elv_01=1.0, az_01=61, cno_01=17, svid_02=18, elv_02=26.0, az_02=153, cno_02=40, svid_03=23, elv_03=53.0, az_03=72, cno_03=48, svid_04=24, elv_04=28.0, az_04=52, cno_04=43, signalID=1)>
2026-07-05 15:41:32,713 - INFO - <NMEA(GPGSV, numMsg=4, msgNum=3, numSV=13, svid_01=27, elv_01=20.0, az_01=253, cno_01=26, svid_02=28, elv_02=15.0, az_02=186, cno_02=31, svid_03=32, elv_03=56.0, az_03=252, cno_03=46, svid_04=46, elv_04=35.0, az_04=225, cno_04=46, signalID=1)>
2026-07-05 15:41:32,714 - INFO - <NMEA(GPGSV, numMsg=4, msgNum=4, numSV=13, svid_01=48, elv_01=38.0, az_01=220, cno_01=36, signalID=1)>
2026-07-05 15:41:32,714 - INFO - <NMEA(GPGSV, numMsg=3, msgNum=1, numSV=10, svid_01=8, elv_01=15.0, az_01=288, cno_01=34, svid_02=10, elv_02=66.0, az_02=355, cno_02=37, svid_03=13, elv_03=1.0, az_03=100, cno_03=43, svid_04=15, elv_04=1.0, az_04=61, cno_04=21, signalID=6)>
2026-07-05 15:41:32,715 - INFO - <NMEA(GPGSV, numMsg=3, msgNum=2, numSV=10, svid_01=18, elv_01=26.0, az_01=153, cno_01=37, svid_02=23, elv_02=53.0, az_02=72, cno_02=47, svid_03=24, elv_03=28.0, az_03=52, cno_03=40, svid_04=27, elv_04=20.0, az_04=253, cno_04=32, signalID=6)>
2026-07-05 15:41:32,715 - INFO - <NMEA(GPGSV, numMsg=3, msgNum=3, numSV=10, svid_01=28, elv_01=15.0, az_01=186, cno_01=22, svid_02=32, elv_02=56.0, az_02=252, cno_02=38, signalID=6)>
2026-07-05 15:41:32,715 - INFO - <NMEA(GLGSV, numMsg=3, msgNum=1, numSV=11, svid_01=66, elv_01=3.0, az_01=56, cno_01=37, svid_02=67, elv_02=49.0, az_02=22, cno_02=49, svid_03=68, elv_03=51.0, az_03=291, cno_03=49, svid_04=69, elv_04=11.0, az_04=255, cno_04=35, signalID=1)>
2026-07-05 15:41:32,716 - INFO - <NMEA(GLGSV, numMsg=3, msgNum=2, numSV=11, svid_01=76, elv_01=11.0, az_01=38, cno_01=47, svid_02=77, elv_02=18.0, az_02=85, cno_02=36, svid_03=78, elv_03=3.0, az_03=137, cno_03=38, svid_04=81, elv_04=9.0, az_04=170, cno_04=26, signalID=1)>
2026-07-05 15:41:32,716 - INFO - <NMEA(GLGSV, numMsg=3, msgNum=3, numSV=11, svid_01=82, elv_01=51.0, az_01=194, cno_01=34, svid_02=83, elv_02=55.0, az_02=302, cno_02=45, svid_03=84, elv_03=8.0, az_03=333, cno_03=29, signalID=1)>
2026-07-05 15:41:32,717 - INFO - <NMEA(GLGSV, numMsg=3, msgNum=1, numSV=9, svid_01=66, elv_01=3.0, az_01=56, cno_01=42, svid_02=67, elv_02=49.0, az_02=22, cno_02=41, svid_03=68, elv_03=51.0, az_03=291, cno_03=42, svid_04=69, elv_04=11.0, az_04=255, cno_04=27, signalID=3)>
2026-07-05 15:41:32,717 - INFO - <NMEA(GLGSV, numMsg=3, msgNum=2, numSV=9, svid_01=76, elv_01=11.0, az_01=38, cno_01=41, svid_02=78, elv_02=3.0, az_02=137, cno_02=31, svid_03=82, elv_03=51.0, az_03=194, cno_03=23, svid_04=83, elv_04=55.0, az_04=302, cno_04=43, signalID=3)>
2026-07-05 15:41:32,717 - INFO - <NMEA(GLGSV, numMsg=3, msgNum=3, numSV=9, svid_01=84, elv_01=8.0, az_01=333, cno_01=23, signalID=3)>
2026-07-05 15:41:32,718 - INFO - <NMEA(GAGSV, numMsg=3, msgNum=1, numSV=10, svid_01=4, elv_01=57.0, az_01=44, cno_01=44, svid_02=6, elv_02=85.0, az_02=25, cno_02=40, svid_03=9, elv_03=67.0, az_03=234, cno_03=35, svid_04=10, elv_04=43.0, az_04=144, cno_04=41, signalID=2)>
2026-07-05 15:41:32,718 - INFO - <NMEA(GAGSV, numMsg=3, msgNum=2, numSV=10, svid_01=11, elv_01=73.0, az_01=153, cno_01=40, svid_02=12, elv_02=20.0, az_02=142, cno_02=39, svid_03=19, elv_03=4.0, az_03=47, cno_03=31, svid_04=28, elv_04=32.0, az_04=48, cno_04=44, signalID=2)>
2026-07-05 15:41:32,719 - INFO - <NMEA(GAGSV, numMsg=3, msgNum=3, numSV=10, svid_01=34, elv_01=3.0, az_01=319, cno_01=27, svid_02=36, elv_02=52.0, az_02=314, cno_02=43, signalID=2)>
2026-07-05 15:41:32,719 - INFO - <NMEA(GAGSV, numMsg=3, msgNum=1, numSV=10, svid_01=4, elv_01=57.0, az_01=44, cno_01=42, svid_02=6, elv_02=85.0, az_02=25, cno_02=42, svid_03=9, elv_03=67.0, az_03=234, cno_03=41, svid_04=10, elv_04=43.0, az_04=144, cno_04=36, signalID=7)>
2026-07-05 15:41:32,720 - INFO - <NMEA(GAGSV, numMsg=3, msgNum=2, numSV=10, svid_01=11, elv_01=73.0, az_01=153, cno_01=39, svid_02=12, elv_02=20.0, az_02=142, cno_02=36, svid_03=19, elv_03=4.0, az_03=47, cno_03=36, svid_04=28, elv_04=32.0, az_04=48, cno_04=43, signalID=7)>
2026-07-05 15:41:32,720 - INFO - <NMEA(GAGSV, numMsg=3, msgNum=3, numSV=10, svid_01=34, elv_01=3.0, az_01=319, cno_01=26, svid_02=36, elv_02=52.0, az_02=314, cno_02=44, signalID=7)>
2026-07-05 15:41:32,720 - INFO - <NMEA(GBGSV, numMsg=3, msgNum=1, numSV=9, svid_01=23, elv_01=12.0, az_01=150, cno_01=37, svid_02=24, elv_02=10.0, az_02=47, cno_02=42, svid_03=25, elv_03=24.0, az_03=103, cno_03=44, svid_04=27, elv_04=45.0, az_04=216, cno_04=40, signalID=1)>
2026-07-05 15:41:32,721 - INFO - <NMEA(GBGSV, numMsg=3, msgNum=2, numSV=9, svid_01=28, elv_01=17.0, az_01=177, cno_01=22, svid_02=30, elv_02=36.0, az_02=295, cno_02=44, svid_03=32, elv_03=46.0, az_03=283, cno_03=41, svid_04=33, elv_04=16.0, az_04=66, cno_04=44, signalID=1)>
2026-07-05 15:41:32,721 - INFO - <NMEA(GBGSV, numMsg=3, msgNum=3, numSV=9, svid_01=41, elv_01=59.0, az_01=33, cno_01=41, signalID=1)>
2026-07-05 15:41:32,721 - INFO - <UBX(RXM-RTCM, version=2, crcFailed=0, msgUsed=2, subType=0, refStation=0, msgType=4072)>
2026-07-05 15:41:32,721 - INFO - <NMEA(GQGSV, numMsg=1, msgNum=1, numSV=0, signalID=0)>
2026-07-05 15:41:32,722 - INFO - <NMEA(GNGLL, lat=37.9008421667, NS=N, lon=-97.664185, EW=W, time=20:41:32.600000, status=A, posMode=D)>
2026-07-05 15:41:32,722 - INFO - <UBX(NAV-RELPOSNED, version=1, reserved0=0, refStationID=0, iTOW=20:41:32.600000, relPosN=44.1, relPosE=33.16, relPosD=-0.3, relPosLength=55.17, relPosHeading=36.94084, reserved1=0, accN=10.0, accE=10.0, accD=13.9, accLength=10.0, accHeading=1.03847, reserved2=0, gnssFixOK=1, diffSoln=1, relPosValid=1, carrSoln=2, isMoving=1, refPosMiss=0, refObsMiss=0, relPosHeadingValid=1, relPosNormalized=0)>
2026-07-05 15:41:32,723 - INFO - 2026-07-05 15:41:32 [3.4 OBSERVED] current_turn_radius: infm
2026-07-05 15:41:32,723 - INFO - 2026-07-05 15:41:32 [3.4 OBSERVED] turn_direction: LEFT
2026-07-05 15:41:32,723 - INFO - 2026-07-05 15:41:32 [3.4 OBSERVED] estimated left/right wheel speeds: nan, nan m/s
2026-07-05 15:41:32,727 - INFO - 2026-07-05 15:41:32 [STATE] Current state: FOLLOWING_PATH
2026-07-05 15:41:32,727 - INFO - 2026-07-05 15:41:32 [FOLLOW] ACQUIRE: progress=0.00m/40.7m seg=0 cross=3.27m alpha=-30.6° target=(0.14,1.99) R=2.59 LEFT v=1.07 dwell=0.0s
2026-07-05 15:41:32,727 - INFO - 2026-07-05 15:41:32 Turn: LEFT, R: 2.59m, v_L: 0.93 m/s, v_R: 1.21 m/s
2026-07-05 15:41:32,727 - INFO - 2026-07-05 15:41:32 left_actuator_position: 637 (counts) from v_L 0.925 m/s
2026-07-05 15:41:32,727 - INFO - 2026-07-05 15:41:32 right_actuator_position: 493 (counts) from v_R 1.215 m/s
2026-07-05 15:41:32,743 - INFO - Sent actuator positions to RoboClaw → M1 (left): 637, M2 (right): 493 (counts)
2026-07-05 15:41:32,743 - INFO - 2026-07-05 15:41:32 APPLY → left_pos: 637, right_pos: 493 (counts), v_L: 0.93 m/s, v_R: 1.21 m/s
2026-07-05 15:41:32,743 - INFO - 2026-07-05 15:41:32 Path tracking needs correction: heading_ok=False (alpha=30.6deg), distance_ok=False (cross=3.267m)
2026-07-05 15:41:32,854 - INFO - <UBX(RXM-RTCM, version=2, crcFailed=0, msgUsed=2, subType=0, refStation=0, msgType=1074)>
2026-07-05 15:41:32,858 - INFO - <UBX(RXM-RTCM, version=2, crcFailed=0, msgUsed=2, subType=0, refStation=0, msgType=1084)>
2026-07-05 15:41:32,861 - INFO - <UBX(RXM-RTCM, version=2, crcFailed=0, msgUsed=2, subType=0, refStation=0, msgType=1094)>
2026-07-05 15:41:32,862 - INFO - <UBX(RXM-RTCM, version=2, crcFailed=0, msgUsed=2, subType=0, refStation=0, msgType=1124)>
2026-07-05 15:41:32,863 - INFO - <UBX(RXM-RTCM, version=2, crcFailed=0, msgUsed=2, subType=0, refStation=0, msgType=1230)>
2026-07-05 15:41:32,901 - INFO - <UBX(NAV-PVT, iTOW=20:41:32.800000, year=2026, month=7, day=5, hour=20, min=41, second=32, validDate=1, validTime=1, fullyResolved=1, validMag=0, tAcc=22, nano=800144127, fixType=3, gnssFixOk=1, diffSoln=1, psmState=0, headVehValid=0, carrSoln=2, confirmedAvai=1, confirmedDate=1, confirmedTime=1, numSV=30, lon=-97.6641849, lat=37.9008422, height=405121, hMSL=431373, hAcc=1007, vAcc=1565, velN=3, velE=-2, velD=12, gSpeed=4, headMot=63.86817, sAcc=93, headAcc=180.0, pDOP=0.89, invalidLlh=0, lastCorrectionAge=1, reserved0=860630572, headVeh=0.0, magDec=0.0, magAcc=0.0)>
2026-07-05 15:41:32,901 - INFO - <NMEA(GNRMC, time=20:41:32.800000, status=A, lat=37.9008421667, NS=N, lon=-97.664185, EW=W, spd=0.007, cog=, date=2026-07-05, mv=, mvEW=, posMode=R, navStatus=V)>
2026-07-05 15:41:32,901 - INFO - <NMEA(GNVTG, cogt=, cogtUnit=T, cogm=, cogmUnit=M, sogn=0.007, sognUnit=N, sogk=0.013, sogkUnit=K, posMode=D)>
2026-07-05 15:41:32,902 - INFO - <NMEA(GNGGA, time=20:41:32.800000, lat=37.9008421667, NS=N, lon=-97.664185, EW=W, quality=4, numSV=12, HDOP=0.5, alt=431.4, altUnit=M, sep=-26.3, sepUnit=M, diffAge=0.2, diffStation=0)>
2026-07-05 15:41:32,902 - INFO - <NMEA(GNGSA, opMode=M, navMode=3, svid_01=8, svid_02=10, svid_03=18, svid_04=24, svid_05=23, svid_06=27, svid_07=32, svid_08=, svid_09=, svid_10=, svid_11=, svid_12=, PDOP=0.89, HDOP=0.5, VDOP=0.74, systemId=1)>
2026-07-05 15:41:32,903 - INFO - <NMEA(GNGSA, opMode=M, navMode=3, svid_01=76, svid_02=82, svid_03=77, svid_04=69, svid_05=83, svid_06=67, svid_07=68, svid_08=, svid_09=, svid_10=, svid_11=, svid_12=, PDOP=0.89, HDOP=0.5, VDOP=0.74, systemId=2)>
2026-07-05 15:41:32,903 - INFO - <NMEA(GNGSA, opMode=M, navMode=3, svid_01=4, svid_02=9, svid_03=6, svid_04=10, svid_05=11, svid_06=12, svid_07=28, svid_08=36, svid_09=, svid_10=, svid_11=, svid_12=, PDOP=0.89, HDOP=0.5, VDOP=0.74, systemId=3)>
2026-07-05 15:41:32,904 - INFO - <NMEA(GNGSA, opMode=M, navMode=3, svid_01=23, svid_02=28, svid_03=32, svid_04=41, svid_05=25, svid_06=33, svid_07=30, svid_08=27, svid_09=, svid_10=, svid_11=, svid_12=, PDOP=0.89, HDOP=0.5, VDOP=0.74, systemId=4)>
2026-07-05 15:41:32,904 - INFO - <NMEA(GNGSA, opMode=M, navMode=3, svid_01=, svid_02=, svid_03=, svid_04=, svid_05=, svid_06=, svid_07=, svid_08=, svid_09=, svid_10=, svid_11=, svid_12=, PDOP=0.89, HDOP=0.5, VDOP=0.74, systemId=5)>
2026-07-05 15:41:32,904 - INFO - <NMEA(GPGSV, numMsg=4, msgNum=1, numSV=13, svid_01=2, elv_01=15.0, az_01=319, cno_01=22, svid_02=8, elv_02=15.0, az_02=288, cno_02=32, svid_03=10, elv_03=66.0, az_03=355, cno_03=49, svid_04=13, elv_04=1.0, az_04=100, cno_04=47, signalID=1)>
2026-07-05 15:41:32,905 - INFO - <NMEA(GPGSV, numMsg=4, msgNum=2, numSV=13, svid_01=15, elv_01=1.0, az_01=61, cno_01=17, svid_02=18, elv_02=26.0, az_02=153, cno_02=40, svid_03=23, elv_03=53.0, az_03=72, cno_03=48, svid_04=24, elv_04=28.0, az_04=52, cno_04=43, signalID=1)>
2026-07-05 15:41:32,905 - INFO - <NMEA(GPGSV, numMsg=4, msgNum=3, numSV=13, svid_01=27, elv_01=20.0, az_01=253, cno_01=26, svid_02=28, elv_02=15.0, az_02=186, cno_02=31, svid_03=32, elv_03=56.0, az_03=252, cno_03=46, svid_04=46, elv_04=35.0, az_04=225, cno_04=46, signalID=1)>
2026-07-05 15:41:32,906 - INFO - <NMEA(GPGSV, numMsg=4, msgNum=4, numSV=13, svid_01=48, elv_01=38.0, az_01=220, cno_01=36, signalID=1)>
2026-07-05 15:41:32,906 - INFO - <NMEA(GPGSV, numMsg=3, msgNum=1, numSV=10, svid_01=8, elv_01=15.0, az_01=288, cno_01=34, svid_02=10, elv_02=66.0, az_02=355, cno_02=37, svid_03=13, elv_03=1.0, az_03=100, cno_03=43, svid_04=15, elv_04=1.0, az_04=61, cno_04=21, signalID=6)>
2026-07-05 15:41:32,907 - INFO - <NMEA(GPGSV, numMsg=3, msgNum=2, numSV=10, svid_01=18, elv_01=26.0, az_01=153, cno_01=37, svid_02=23, elv_02=53.0, az_02=72, cno_02=47, svid_03=24, elv_03=28.0, az_03=52, cno_03=40, svid_04=27, elv_04=20.0, az_04=253, cno_04=31, signalID=6)>
2026-07-05 15:41:32,907 - INFO - <NMEA(GPGSV, numMsg=3, msgNum=3, numSV=10, svid_01=28, elv_01=15.0, az_01=186, cno_01=22, svid_02=32, elv_02=56.0, az_02=252, cno_02=38, signalID=6)>
2026-07-05 15:41:32,907 - INFO - <NMEA(GLGSV, numMsg=3, msgNum=1, numSV=11, svid_01=66, elv_01=3.0, az_01=56, cno_01=35, svid_02=67, elv_02=49.0, az_02=22, cno_02=49, svid_03=68, elv_03=51.0, az_03=291, cno_03=49, svid_04=69, elv_04=11.0, az_04=255, cno_04=35, signalID=1)>
2026-07-05 15:41:32,908 - INFO - <NMEA(GLGSV, numMsg=3, msgNum=2, numSV=11, svid_01=76, elv_01=11.0, az_01=38, cno_01=47, svid_02=77, elv_02=18.0, az_02=85, cno_02=36, svid_03=78, elv_03=3.0, az_03=137, cno_03=38, svid_04=81, elv_04=9.0, az_04=170, cno_04=25, signalID=1)>
2026-07-05 15:41:32,908 - INFO - <NMEA(GLGSV, numMsg=3, msgNum=3, numSV=11, svid_01=82, elv_01=51.0, az_01=194, cno_01=35, svid_02=83, elv_02=55.0, az_02=302, cno_02=45, svid_03=84, elv_03=8.0, az_03=333, cno_03=28, signalID=1)>
2026-07-05 15:41:32,909 - INFO - <NMEA(GLGSV, numMsg=3, msgNum=1, numSV=9, svid_01=66, elv_01=3.0, az_01=56, cno_01=42, svid_02=67, elv_02=49.0, az_02=22, cno_02=40, svid_03=68, elv_03=51.0, az_03=291, cno_03=43, svid_04=69, elv_04=11.0, az_04=255, cno_04=27, signalID=3)>
2026-07-05 15:41:32,909 - INFO - <NMEA(GLGSV, numMsg=3, msgNum=2, numSV=9, svid_01=76, elv_01=11.0, az_01=38, cno_01=41, svid_02=78, elv_02=3.0, az_02=137, cno_02=32, svid_03=82, elv_03=51.0, az_03=194, cno_03=23, svid_04=83, elv_04=55.0, az_04=302, cno_04=44, signalID=3)>
2026-07-05 15:41:32,909 - INFO - <NMEA(GLGSV, numMsg=3, msgNum=3, numSV=9, svid_01=84, elv_01=8.0, az_01=333, cno_01=23, signalID=3)>
2026-07-05 15:41:32,910 - INFO - <NMEA(GAGSV, numMsg=3, msgNum=1, numSV=10, svid_01=4, elv_01=57.0, az_01=44, cno_01=44, svid_02=6, elv_02=85.0, az_02=25, cno_02=40, svid_03=9, elv_03=67.0, az_03=234, cno_03=35, svid_04=10, elv_04=43.0, az_04=144, cno_04=41, signalID=2)>
2026-07-05 15:41:32,910 - INFO - <NMEA(GAGSV, numMsg=3, msgNum=2, numSV=10, svid_01=11, elv_01=73.0, az_01=153, cno_01=40, svid_02=12, elv_02=20.0, az_02=142, cno_02=39, svid_03=19, elv_03=4.0, az_03=47, cno_03=30, svid_04=28, elv_04=32.0, az_04=48, cno_04=44, signalID=2)>
2026-07-05 15:41:32,911 - INFO - <NMEA(GAGSV, numMsg=3, msgNum=3, numSV=10, svid_01=34, elv_01=3.0, az_01=319, cno_01=27, svid_02=36, elv_02=52.0, az_02=314, cno_02=43, signalID=2)>
2026-07-05 15:41:32,911 - INFO - <UBX(RXM-RTCM, version=2, crcFailed=0, msgUsed=2, subType=0, refStation=0, msgType=4072)>
2026-07-05 15:41:32,911 - INFO - <NMEA(GAGSV, numMsg=3, msgNum=1, numSV=10, svid_01=4, elv_01=57.0, az_01=44, cno_01=42, svid_02=6, elv_02=85.0, az_02=25, cno_02=42, svid_03=9, elv_03=67.0, az_03=234, cno_03=41, svid_04=10, elv_04=43.0, az_04=144, cno_04=36, signalID=7)>
2026-07-05 15:41:32,912 - INFO - <NMEA(GAGSV, numMsg=3, msgNum=2, numSV=10, svid_01=11, elv_01=73.0, az_01=153, cno_01=39, svid_02=12, elv_02=20.0, az_02=142, cno_02=36, svid_03=19, elv_03=4.0, az_03=47, cno_03=36, svid_04=28, elv_04=32.0, az_04=48, cno_04=43, signalID=7)>
2026-07-05 15:41:32,912 - INFO - <NMEA(GAGSV, numMsg=3, msgNum=3, numSV=10, svid_01=34, elv_01=3.0, az_01=319, cno_01=26, svid_02=36, elv_02=52.0, az_02=314, cno_02=44, signalID=7)>
2026-07-05 15:41:32,913 - INFO - <NMEA(GBGSV, numMsg=3, msgNum=1, numSV=9, svid_01=23, elv_01=12.0, az_01=150, cno_01=36, svid_02=24, elv_02=10.0, az_02=47, cno_02=42, svid_03=25, elv_03=24.0, az_03=103, cno_03=44, svid_04=27, elv_04=45.0, az_04=216, cno_04=40, signalID=1)>
2026-07-05 15:41:32,913 - INFO - <NMEA(GBGSV, numMsg=3, msgNum=2, numSV=9, svid_01=28, elv_01=17.0, az_01=177, cno_01=22, svid_02=30, elv_02=36.0, az_02=295, cno_02=44, svid_03=32, elv_03=46.0, az_03=283, cno_03=41, svid_04=33, elv_04=16.0, az_04=66, cno_04=44, signalID=1)>
2026-07-05 15:41:32,913 - INFO - <NMEA(GBGSV, numMsg=3, msgNum=3, numSV=9, svid_01=41, elv_01=59.0, az_01=33, cno_01=41, signalID=1)>
2026-07-05 15:41:32,913 - INFO - <NMEA(GQGSV, numMsg=1, msgNum=1, numSV=0, signalID=0)>
2026-07-05 15:41:32,914 - INFO - <NMEA(GNGLL, lat=37.9008421667, NS=N, lon=-97.664185, EW=W, time=20:41:32.800000, status=A, posMode=D)>
2026-07-05 15:41:32,914 - INFO - <UBX(NAV-RELPOSNED, version=1, reserved0=0, refStationID=0, iTOW=20:41:32.800000, relPosN=44.07, relPosE=33.14, relPosD=-0.13, relPosLength=55.14, relPosHeading=36.9442, reserved1=0, accN=10.0, accE=10.0, accD=14.1, accLength=10.0, accHeading=1.03913, reserved2=0, gnssFixOK=1, diffSoln=1, relPosValid=1, carrSoln=2, isMoving=1, refPosMiss=0, refObsMiss=0, relPosHeadingValid=1, relPosNormalized=0)>
2026-07-05 15:41:32,915 - INFO - 2026-07-05 15:41:32 [3.4 OBSERVED] current_turn_radius: infm
2026-07-05 15:41:32,915 - INFO - 2026-07-05 15:41:32 [3.4 OBSERVED] turn_direction: RIGHT
2026-07-05 15:41:32,915 - INFO - 2026-07-05 15:41:32 [3.4 OBSERVED] estimated left/right wheel speeds: nan, nan m/s
2026-07-05 15:41:32,917 - INFO - 2026-07-05 15:41:32 [STATE] Current state: FOLLOWING_PATH
2026-07-05 15:41:32,917 - INFO - 2026-07-05 15:41:32 [FOLLOW] ACQUIRE: progress=0.00m/40.7m seg=0 cross=3.27m alpha=-30.6° target=(0.14,1.99) R=2.58 LEFT v=1.07 dwell=0.0s
2026-07-05 15:41:32,917 - INFO - 2026-07-05 15:41:32 Turn: LEFT, R: 2.58m, v_L: 0.93 m/s, v_R: 1.21 m/s
2026-07-05 15:41:32,917 - INFO - 2026-07-05 15:41:32 left_actuator_position: 637 (counts) from v_L 0.925 m/s
2026-07-05 15:41:32,918 - INFO - 2026-07-05 15:41:32 right_actuator_position: 493 (counts) from v_R 1.215 m/s
2026-07-05 15:41:32,933 - INFO - Sent actuator positions to RoboClaw → M1 (left): 637, M2 (right): 493 (counts)
2026-07-05 15:41:32,933 - INFO - 2026-07-05 15:41:32 APPLY → left_pos: 637, right_pos: 493 (counts), v_L: 0.93 m/s, v_R: 1.21 m/s
2026-07-05 15:41:32,933 - INFO - 2026-07-05 15:41:32 Path tracking needs correction: heading_ok=False (alpha=30.6deg), distance_ok=False (cross=3.267m)
2026-07-05 15:41:33,056 - INFO - <UBX(RXM-RTCM, version=2, crcFailed=0, msgUsed=2, subType=0, refStation=0, msgType=1074)>
2026-07-05 15:41:33,059 - INFO - <UBX(RXM-RTCM, version=2, crcFailed=0, msgUsed=2, subType=0, refStation=0, msgType=1084)>
2026-07-05 15:41:33,061 - INFO - <UBX(RXM-RTCM, version=2, crcFailed=0, msgUsed=2, subType=0, refStation=0, msgType=1094)>
2026-07-05 15:41:33,063 - INFO - <UBX(RXM-RTCM, version=2, crcFailed=0, msgUsed=2, subType=0, refStation=0, msgType=1124)>
2026-07-05 15:41:33,064 - INFO - <UBX(RXM-RTCM, version=2, crcFailed=0, msgUsed=2, subType=0, refStation=0, msgType=1230)>
2026-07-05 15:41:33,116 - INFO - <UBX(RXM-RTCM, version=2, crcFailed=0, msgUsed=2, subType=0, refStation=0, msgType=4072)>
2026-07-05 15:41:33,129 - INFO - <UBX(NAV-PVT, iTOW=20:41:33, year=2026, month=7, day=5, hour=20, min=41, second=33, validDate=1, validTime=1, fullyResolved=1, validMag=0, tAcc=22, nano=144085, fixType=3, gnssFixOk=1, diffSoln=1, psmState=0, headVehValid=0, carrSoln=2, confirmedAvai=1, confirmedDate=1, confirmedTime=1, numSV=30, lon=-97.664185, lat=37.9008422, height=405117, hMSL=431369, hAcc=1005, vAcc=1561, velN=11, velE=1, velD=1, gSpeed=11, headMot=63.86817, sAcc=77, headAcc=180.0, pDOP=0.89, invalidLlh=0, lastCorrectionAge=1, reserved0=860630572, headVeh=0.0, magDec=0.0, magAcc=0.0)>
2026-07-05 15:41:33,129 - INFO - <NMEA(GNRMC, time=20:41:33, status=A, lat=37.9008421667, NS=N, lon=-97.664185, EW=W, spd=0.021, cog=, date=2026-07-05, mv=, mvEW=, posMode=R, navStatus=V)>
2026-07-05 15:41:33,130 - INFO - <NMEA(GNVTG, cogt=, cogtUnit=T, cogm=, cogmUnit=M, sogn=0.021, sognUnit=N, sogk=0.038, sogkUnit=K, posMode=D)>
2026-07-05 15:41:33,130 - INFO - <NMEA(GNGGA, time=20:41:33, lat=37.9008421667, NS=N, lon=-97.664185, EW=W, quality=4, numSV=12, HDOP=0.5, alt=431.4, altUnit=M, sep=-26.3, sepUnit=M, diffAge=0.2, diffStation=0)>
2026-07-05 15:41:33,131 - INFO - <NMEA(GNGSA, opMode=M, navMode=3, svid_01=8, svid_02=10, svid_03=18, svid_04=24, svid_05=23, svid_06=27, svid_07=32, svid_08=, svid_09=, svid_10=, svid_11=, svid_12=, PDOP=0.89, HDOP=0.5, VDOP=0.74, systemId=1)>
2026-07-05 15:41:33,131 - INFO - <NMEA(GNGSA, opMode=M, navMode=3, svid_01=76, svid_02=82, svid_03=77, svid_04=69, svid_05=83, svid_06=67, svid_07=68, svid_08=, svid_09=, svid_10=, svid_11=, svid_12=, PDOP=0.89, HDOP=0.5, VDOP=0.74, systemId=2)>
2026-07-05 15:41:33,131 - INFO - <NMEA(GNGSA, opMode=M, navMode=3, svid_01=4, svid_02=9, svid_03=6, svid_04=10, svid_05=11, svid_06=12, svid_07=28, svid_08=36, svid_09=, svid_10=, svid_11=, svid_12=, PDOP=0.89, HDOP=0.5, VDOP=0.74, systemId=3)>
2026-07-05 15:41:33,132 - INFO - <NMEA(GNGSA, opMode=M, navMode=3, svid_01=23, svid_02=28, svid_03=32, svid_04=41, svid_05=25, svid_06=33, svid_07=30, svid_08=27, svid_09=, svid_10=, svid_11=, svid_12=, PDOP=0.89, HDOP=0.5, VDOP=0.74, systemId=4)>
2026-07-05 15:41:33,132 - INFO - <NMEA(GNGSA, opMode=M, navMode=3, svid_01=, svid_02=, svid_03=, svid_04=, svid_05=, svid_06=, svid_07=, svid_08=, svid_09=, svid_10=, svid_11=, svid_12=, PDOP=0.89, HDOP=0.5, VDOP=0.74, systemId=5)>
2026-07-05 15:41:33,133 - INFO - <NMEA(GPGSV, numMsg=4, msgNum=1, numSV=13, svid_01=2, elv_01=15.0, az_01=319, cno_01=23, svid_02=8, elv_02=15.0, az_02=288, cno_02=32, svid_03=10, elv_03=66.0, az_03=355, cno_03=49, svid_04=13, elv_04=1.0, az_04=100, cno_04=47, signalID=1)>
2026-07-05 15:41:33,133 - INFO - <NMEA(GPGSV, numMsg=4, msgNum=2, numSV=13, svid_01=15, elv_01=1.0, az_01=61, cno_01=17, svid_02=18, elv_02=26.0, az_02=153, cno_02=40, svid_03=23, elv_03=53.0, az_03=72, cno_03=48, svid_04=24, elv_04=28.0, az_04=52, cno_04=43, signalID=1)>
2026-07-05 15:41:33,134 - INFO - <NMEA(GPGSV, numMsg=4, msgNum=3, numSV=13, svid_01=27, elv_01=20.0, az_01=253, cno_01=26, svid_02=28, elv_02=15.0, az_02=186, cno_02=31, svid_03=32, elv_03=56.0, az_03=252, cno_03=46, svid_04=46, elv_04=35.0, az_04=225, cno_04=46, signalID=1)>
2026-07-05 15:41:33,134 - INFO - <NMEA(GPGSV, numMsg=4, msgNum=4, numSV=13, svid_01=48, elv_01=38.0, az_01=220, cno_01=36, signalID=1)>
2026-07-05 15:41:33,134 - INFO - <NMEA(GPGSV, numMsg=3, msgNum=1, numSV=10, svid_01=8, elv_01=15.0, az_01=288, cno_01=34, svid_02=10, elv_02=66.0, az_02=355, cno_02=37, svid_03=13, elv_03=1.0, az_03=100, cno_03=43, svid_04=15, elv_04=1.0, az_04=61, cno_04=20, signalID=6)>
2026-07-05 15:41:33,135 - INFO - <NMEA(GPGSV, numMsg=3, msgNum=2, numSV=10, svid_01=18, elv_01=26.0, az_01=153, cno_01=38, svid_02=23, elv_02=53.0, az_02=72, cno_02=47, svid_03=24, elv_03=28.0, az_03=52, cno_03=40, svid_04=27, elv_04=20.0, az_04=253, cno_04=31, signalID=6)>
2026-07-05 15:41:33,135 - INFO - <NMEA(GPGSV, numMsg=3, msgNum=3, numSV=10, svid_01=28, elv_01=15.0, az_01=186, cno_01=21, svid_02=32, elv_02=56.0, az_02=252, cno_02=38, signalID=6)>
2026-07-05 15:41:33,136 - INFO - <NMEA(GLGSV, numMsg=3, msgNum=1, numSV=11, svid_01=66, elv_01=3.0, az_01=56, cno_01=35, svid_02=67, elv_02=49.0, az_02=22, cno_02=49, svid_03=68, elv_03=51.0, az_03=291, cno_03=49, svid_04=69, elv_04=11.0, az_04=255, cno_04=35, signalID=1)>
2026-07-05 15:41:33,136 - INFO - <NMEA(GLGSV, numMsg=3, msgNum=2, numSV=11, svid_01=76, elv_01=11.0, az_01=38, cno_01=47, svid_02=77, elv_02=18.0, az_02=85, cno_02=36, svid_03=78, elv_03=3.0, az_03=137, cno_03=38, svid_04=81, elv_04=9.0, az_04=170, cno_04=25, signalID=1)>
2026-07-05 15:41:33,136 - INFO - <NMEA(GLGSV, numMsg=3, msgNum=3, numSV=11, svid_01=82, elv_01=51.0, az_01=194, cno_01=35, svid_02=83, elv_02=55.0, az_02=302, cno_02=45, svid_03=84, elv_03=8.0, az_03=333, cno_03=28, signalID=1)>
2026-07-05 15:41:33,137 - INFO - <NMEA(GLGSV, numMsg=3, msgNum=1, numSV=9, svid_01=66, elv_01=3.0, az_01=56, cno_01=42, svid_02=67, elv_02=49.0, az_02=22, cno_02=40, svid_03=68, elv_03=51.0, az_03=291, cno_03=43, svid_04=69, elv_04=11.0, az_04=255, cno_04=26, signalID=3)>
2026-07-05 15:41:33,137 - INFO - <NMEA(GLGSV, numMsg=3, msgNum=2, numSV=9, svid_01=76, elv_01=11.0, az_01=38, cno_01=42, svid_02=78, elv_02=3.0, az_02=137, cno_02=32, svid_03=82, elv_03=51.0, az_03=194, cno_03=23, svid_04=83, elv_04=55.0, az_04=302, cno_04=44, signalID=3)>
2026-07-05 15:41:33,138 - INFO - <NMEA(GLGSV, numMsg=3, msgNum=3, numSV=9, svid_01=84, elv_01=8.0, az_01=333, cno_01=24, signalID=3)>
2026-07-05 15:41:33,138 - INFO - <NMEA(GAGSV, numMsg=3, msgNum=1, numSV=10, svid_01=4, elv_01=57.0, az_01=44, cno_01=44, svid_02=6, elv_02=85.0, az_02=25, cno_02=40, svid_03=9, elv_03=67.0, az_03=234, cno_03=35, svid_04=10, elv_04=43.0, az_04=144, cno_04=41, signalID=2)>
2026-07-05 15:41:33,139 - INFO - <NMEA(GAGSV, numMsg=3, msgNum=2, numSV=10, svid_01=11, elv_01=73.0, az_01=153, cno_01=40, svid_02=12, elv_02=20.0, az_02=142, cno_02=40, svid_03=19, elv_03=4.0, az_03=47, cno_03=30, svid_04=28, elv_04=32.0, az_04=48, cno_04=44, signalID=2)>
2026-07-05 15:41:33,139 - INFO - <NMEA(GAGSV, numMsg=3, msgNum=3, numSV=10, svid_01=34, elv_01=3.0, az_01=319, cno_01=27, svid_02=36, elv_02=52.0, az_02=314, cno_02=43, signalID=2)>
2026-07-05 15:41:33,139 - INFO - <NMEA(GAGSV, numMsg=3, msgNum=1, numSV=10, svid_01=4, elv_01=57.0, az_01=44, cno_01=42, svid_02=6, elv_02=85.0, az_02=25, cno_02=42, svid_03=9, elv_03=67.0, az_03=234, cno_03=41, svid_04=10, elv_04=43.0, az_04=144, cno_04=36, signalID=7)>
2026-07-05 15:41:33,140 - INFO - <NMEA(GAGSV, numMsg=3, msgNum=2, numSV=10, svid_01=11, elv_01=73.0, az_01=153, cno_01=39, svid_02=12, elv_02=20.0, az_02=142, cno_02=36, svid_03=19, elv_03=4.0, az_03=47, cno_03=36, svid_04=28, elv_04=32.0, az_04=48, cno_04=43, signalID=7)>
2026-07-05 15:41:33,140 - INFO - <NMEA(GAGSV, numMsg=3, msgNum=3, numSV=10, svid_01=34, elv_01=3.0, az_01=319, cno_01=26, svid_02=36, elv_02=52.0, az_02=314, cno_02=44, signalID=7)>
2026-07-05 15:41:33,141 - INFO - <NMEA(GBGSV, numMsg=3, msgNum=1, numSV=9, svid_01=23, elv_01=12.0, az_01=150, cno_01=36, svid_02=24, elv_02=10.0, az_02=47, cno_02=41, svid_03=25, elv_03=24.0, az_03=103, cno_03=43, svid_04=27, elv_04=45.0, az_04=216, cno_04=40, signalID=1)>
2026-07-05 15:41:33,141 - INFO - <NMEA(GBGSV, numMsg=3, msgNum=2, numSV=9, svid_01=28, elv_01=17.0, az_01=177, cno_01=22, svid_02=30, elv_02=36.0, az_02=295, cno_02=44, svid_03=32, elv_03=46.0, az_03=283, cno_03=41, svid_04=33, elv_04=16.0, az_04=66, cno_04=44, signalID=1)>
2026-07-05 15:41:33,141 - INFO - <NMEA(GBGSV, numMsg=3, msgNum=3, numSV=9, svid_01=41, elv_01=59.0, az_01=33, cno_01=41, signalID=1)>
2026-07-05 15:41:33,141 - INFO - <NMEA(GQGSV, numMsg=1, msgNum=1, numSV=0, signalID=0)>
2026-07-05 15:41:33,142 - INFO - <NMEA(GNGLL, lat=37.9008421667, NS=N, lon=-97.664185, EW=W, time=20:41:33, status=A, posMode=D)>
2026-07-05 15:41:33,142 - INFO - <UBX(NAV-RELPOSNED, version=1, reserved0=0, refStationID=0, iTOW=20:41:33, relPosN=44.25, relPosE=33.12, relPosD=-0.06, relPosLength=55.27, relPosHeading=36.81511, reserved1=0, accN=10.0, accE=10.0, accD=14.2, accLength=10.0, accHeading=1.03669, reserved2=0, gnssFixOK=1, diffSoln=1, relPosValid=1, carrSoln=2, isMoving=1, refPosMiss=0, refObsMiss=0, relPosHeadingValid=1, relPosNormalized=0)>
2026-07-05 15:41:33,143 - INFO - 2026-07-05 15:41:33 [3.4 OBSERVED] current_turn_radius: infm
2026-07-05 15:41:33,143 - INFO - 2026-07-05 15:41:33 [3.4 OBSERVED] turn_direction: LEFT
2026-07-05 15:41:33,143 - INFO - 2026-07-05 15:41:33 [3.4 OBSERVED] estimated left/right wheel speeds: nan, nan m/s
2026-07-05 15:41:33,147 - INFO - 2026-07-05 15:41:33 [STATE] Current state: FOLLOWING_PATH
2026-07-05 15:41:33,147 - INFO - 2026-07-05 15:41:33 [FOLLOW] ACQUIRE: progress=0.00m/40.7m seg=0 cross=3.27m alpha=-30.5° target=(0.14,1.99) R=2.59 LEFT v=1.07 dwell=0.0s
2026-07-05 15:41:33,147 - INFO - 2026-07-05 15:41:33 Turn: LEFT, R: 2.59m, v_L: 0.93 m/s, v_R: 1.21 m/s
2026-07-05 15:41:33,147 - INFO - 2026-07-05 15:41:33 left_actuator_position: 637 (counts) from v_L 0.926 m/s
2026-07-05 15:41:33,147 - INFO - 2026-07-05 15:41:33 right_actuator_position: 493 (counts) from v_R 1.214 m/s
2026-07-05 15:41:33,160 - INFO - Sent actuator positions to RoboClaw → M1 (left): 637, M2 (right): 493 (counts)
2026-07-05 15:41:33,160 - INFO - 2026-07-05 15:41:33 APPLY → left_pos: 637, right_pos: 493 (counts), v_L: 0.93 m/s, v_R: 1.21 m/s
2026-07-05 15:41:33,160 - INFO - 2026-07-05 15:41:33 Path tracking needs correction: heading_ok=False (alpha=30.5deg), distance_ok=False (cross=3.267m)
2026-07-05 15:41:33,251 - INFO - <UBX(RXM-RTCM, version=2, crcFailed=0, msgUsed=2, subType=0, refStation=0, msgType=1074)>
2026-07-05 15:41:33,254 - INFO - <UBX(RXM-RTCM, version=2, crcFailed=0, msgUsed=2, subType=0, refStation=0, msgType=1084)>
2026-07-05 15:41:33,259 - INFO - <UBX(RXM-RTCM, version=2, crcFailed=0, msgUsed=2, subType=0, refStation=0, msgType=1094)>
2026-07-05 15:41:33,260 - INFO - <UBX(RXM-RTCM, version=2, crcFailed=0, msgUsed=2, subType=0, refStation=0, msgType=1124)>
2026-07-05 15:41:33,260 - INFO - <UBX(RXM-RTCM, version=2, crcFailed=0, msgUsed=2, subType=0, refStation=0, msgType=1230)>
2026-07-05 15:41:33,298 - INFO - <UBX(RXM-RTCM, version=2, crcFailed=0, msgUsed=2, subType=0, refStation=0, msgType=4072)>
2026-07-05 15:41:33,302 - INFO - <UBX(NAV-PVT, iTOW=20:41:33.200000, year=2026, month=7, day=5, hour=20, min=41, second=33, validDate=1, validTime=1, fullyResolved=1, validMag=0, tAcc=22, nano=200144042, fixType=3, gnssFixOk=1, diffSoln=1, psmState=0, headVehValid=0, carrSoln=2, confirmedAvai=1, confirmedDate=1, confirmedTime=1, numSV=30, lon=-97.6641846, lat=37.9008424, height=405120, hMSL=431373, hAcc=1055, vAcc=1639, velN=93, velE=132, velD=-14, gSpeed=161, headMot=54.89743, sAcc=60, headAcc=25.35104, pDOP=0.89, invalidLlh=0, lastCorrectionAge=1, reserved0=860630572, headVeh=0.0, magDec=0.0, magAcc=0.0)>
2026-07-05 15:41:33,302 - INFO - <NMEA(GNRMC, time=20:41:33.200000, status=A, lat=37.9008425, NS=N, lon=-97.6641846667, EW=W, spd=0.313, cog=54.9, date=2026-07-05, mv=, mvEW=, posMode=R, navStatus=V)>
2026-07-05 15:41:33,302 - INFO - <NMEA(GNVTG, cogt=54.9, cogtUnit=T, cogm=, cogmUnit=M, sogn=0.313, sognUnit=N, sogk=0.58, sogkUnit=K, posMode=D)>
2026-07-05 15:41:33,303 - INFO - <NMEA(GNGGA, time=20:41:33.200000, lat=37.9008425, NS=N, lon=-97.6641846667, EW=W, quality=4, numSV=12, HDOP=0.5, alt=431.4, altUnit=M, sep=-26.3, sepUnit=M, diffAge=0.2, diffStation=0)>
2026-07-05 15:41:33,303 - INFO - <NMEA(GNGSA, opMode=M, navMode=3, svid_01=8, svid_02=10, svid_03=18, svid_04=24, svid_05=23, svid_06=27, svid_07=32, svid_08=, svid_09=, svid_10=, svid_11=, svid_12=, PDOP=0.89, HDOP=0.5, VDOP=0.74, systemId=1)>
2026-07-05 15:41:33,304 - INFO - <NMEA(GNGSA, opMode=M, navMode=3, svid_01=76, svid_02=82, svid_03=77, svid_04=69, svid_05=83, svid_06=67, svid_07=68, svid_08=, svid_09=, svid_10=, svid_11=, svid_12=, PDOP=0.89, HDOP=0.5, VDOP=0.74, systemId=2)>
2026-07-05 15:41:33,304 - INFO - <NMEA(GNGSA, opMode=M, navMode=3, svid_01=4, svid_02=9, svid_03=6, svid_04=10, svid_05=11, svid_06=12, svid_07=28, svid_08=36, svid_09=, svid_10=, svid_11=, svid_12=, PDOP=0.89, HDOP=0.5, VDOP=0.74, systemId=3)>
2026-07-05 15:41:33,305 - INFO - <NMEA(GNGSA, opMode=M, navMode=3, svid_01=23, svid_02=28, svid_03=32, svid_04=41, svid_05=25, svid_06=33, svid_07=30, svid_08=27, svid_09=, svid_10=, svid_11=, svid_12=, PDOP=0.89, HDOP=0.5, VDOP=0.74, systemId=4)>
2026-07-05 15:41:33,305 - INFO - <NMEA(GNGSA, opMode=M, navMode=3, svid_01=, svid_02=, svid_03=, svid_04=, svid_05=, svid_06=, svid_07=, svid_08=, svid_09=, svid_10=, svid_11=, svid_12=, PDOP=0.89, HDOP=0.5, VDOP=0.74, systemId=5)>
2026-07-05 15:41:33,305 - INFO - <NMEA(GPGSV, numMsg=4, msgNum=1, numSV=13, svid_01=2, elv_01=15.0, az_01=319, cno_01=24, svid_02=8, elv_02=15.0, az_02=288, cno_02=32, svid_03=10, elv_03=66.0, az_03=355, cno_03=48, svid_04=13, elv_04=2.0, az_04=100, cno_04=47, signalID=1)>
2026-07-05 15:41:33,306 - INFO - <NMEA(GPGSV, numMsg=4, msgNum=2, numSV=13, svid_01=15, elv_01=1.0, az_01=61, cno_01=17, svid_02=18, elv_02=26.0, az_02=153, cno_02=42, svid_03=23, elv_03=53.0, az_03=72, cno_03=49, svid_04=24, elv_04=28.0, az_04=52, cno_04=42, signalID=1)>
2026-07-05 15:41:33,306 - INFO - <NMEA(GPGSV, numMsg=4, msgNum=3, numSV=13, svid_01=27, elv_01=20.0, az_01=253, cno_01=26, svid_02=28, elv_02=15.0, az_02=186, cno_02=31, svid_03=32, elv_03=56.0, az_03=252, cno_03=46, svid_04=46, elv_04=35.0, az_04=225, cno_04=46, signalID=1)>
2026-07-05 15:41:33,307 - INFO - <NMEA(GPGSV, numMsg=4, msgNum=4, numSV=13, svid_01=48, elv_01=38.0, az_01=220, cno_01=36, signalID=1)>
2026-07-05 15:41:33,307 - INFO - <NMEA(GPGSV, numMsg=3, msgNum=1, numSV=10, svid_01=8, elv_01=15.0, az_01=288, cno_01=34, svid_02=10, elv_02=66.0, az_02=355, cno_02=37, svid_03=13, elv_03=2.0, az_03=100, cno_03=42, svid_04=15, elv_04=1.0, az_04=61, cno_04=20, signalID=6)>
2026-07-05 15:41:33,308 - INFO - <NMEA(GPGSV, numMsg=3, msgNum=2, numSV=10, svid_01=18, elv_01=26.0, az_01=153, cno_01=38, svid_02=23, elv_02=53.0, az_02=72, cno_02=47, svid_03=24, elv_03=28.0, az_03=52, cno_03=40, svid_04=27, elv_04=20.0, az_04=253, cno_04=31, signalID=6)>
2026-07-05 15:41:33,308 - INFO - <NMEA(GPGSV, numMsg=3, msgNum=3, numSV=10, svid_01=28, elv_01=15.0, az_01=186, cno_01=22, svid_02=32, elv_02=56.0, az_02=252, cno_02=38, signalID=6)>
2026-07-05 15:41:33,308 - INFO - <NMEA(GLGSV, numMsg=3, msgNum=1, numSV=11, svid_01=66, elv_01=3.0, az_01=56, cno_01=36, svid_02=67, elv_02=49.0, az_02=22, cno_02=50, svid_03=68, elv_03=51.0, az_03=291, cno_03=49, svid_04=69, elv_04=11.0, az_04=255, cno_04=35, signalID=1)>
2026-07-05 15:41:33,309 - INFO - <NMEA(GLGSV, numMsg=3, msgNum=2, numSV=11, svid_01=76, elv_01=11.0, az_01=38, cno_01=48, svid_02=77, elv_02=18.0, az_02=85, cno_02=36, svid_03=78, elv_03=3.0, az_03=137, cno_03=38, svid_04=81, elv_04=9.0, az_04=170, cno_04=25, signalID=1)>
2026-07-05 15:41:33,309 - INFO - <NMEA(GLGSV, numMsg=3, msgNum=3, numSV=11, svid_01=82, elv_01=51.0, az_01=194, cno_01=35, svid_02=83, elv_02=55.0, az_02=302, cno_02=45, svid_03=84, elv_03=8.0, az_03=333, cno_03=28, signalID=1)>
2026-07-05 15:41:33,310 - INFO - <NMEA(GLGSV, numMsg=3, msgNum=1, numSV=9, svid_01=66, elv_01=3.0, az_01=56, cno_01=38, svid_02=67, elv_02=49.0, az_02=22, cno_02=40, svid_03=68, elv_03=51.0, az_03=291, cno_03=43, svid_04=69, elv_04=11.0, az_04=255, cno_04=26, signalID=3)>
2026-07-05 15:41:33,310 - INFO - <NMEA(GLGSV, numMsg=3, msgNum=2, numSV=9, svid_01=76, elv_01=11.0, az_01=38, cno_01=39, svid_02=78, elv_02=3.0, az_02=137, cno_02=32, svid_03=82, elv_03=51.0, az_03=194, cno_03=23, svid_04=83, elv_04=55.0, az_04=302, cno_04=44, signalID=3)>
2026-07-05 15:41:33,310 - INFO - <NMEA(GLGSV, numMsg=3, msgNum=3, numSV=9, svid_01=84, elv_01=8.0, az_01=333, cno_01=23, signalID=3)>
