2026-06-14 11:50:25,858 - INFO - Logging initialized to /home/dali/Documents/ReMow-Rover-Tests/Repeat/Logs/readRecordedRun-2026-06-14_11-50-25.log
2026-06-14 11:50:25,861 - INFO - RoboClaw opened successfully on /dev/serial/by-id/usb-Basicmicro_Inc._USB_Roboclaw_2x15A-if00
2026-06-14 11:50:26,164 - INFO - Encoders reset to zero
2026-06-14 11:50:26,164 - INFO - Starting readRecordedRun with combination: 55
2026-06-14 11:50:26,164 - INFO - Selected most recent recording: 55_20260510-134004_GPSData.csv
2026-06-14 11:50:26,168 - INFO - GREEN_LED initialized on GPIO 17
2026-06-14 11:50:26,176 - INFO - Bootstrap: Initialized modifiers with estimate 24.55 mm/(rad/s)
2026-06-14 11:50:26,177 - INFO - ENU origin from first waypoint: 37.9008713333, -97.66418
2026-06-14 11:50:26,234 - INFO - goto_positions: M1=1100, M2=1100 [Startup - ensuring neutral position]
2026-06-14 11:50:26,234 - INFO - Actuators initialized to neutral (1100)
2026-06-14 11:50:26,235 - INFO - === STATE MACHINE INITIALIZED ===
2026-06-14 11:50:26,235 - INFO - Start waypoint: East=0.000m, North=0.000m, Heading=1.8°
2026-06-14 11:50:26,235 - INFO - Initial state: NAVIGATING_TO_START
2026-06-14 11:50:26,235 - INFO - Navigation timeout: 300.0s
2026-06-14 11:50:26,235 - INFO - === WAITING FOR GPS RTK FIX ===
2026-06-14 11:50:26,235 - INFO - Need: relPosValid=1, carrSoln=2, relPosHeadingValid=1 (timeout: 60.0s)
2026-06-14 11:50:26,249 - INFO - GPS status: relPosValid=1, carrSoln=2, headingValid=1 (0.0s)
2026-06-14 11:50:26,249 - INFO - === GPS RTK FIXED — ready to navigate (0.0s) ===
2026-06-14 11:50:26,249 - INFO - <UBX(RXM-RTCM, version=2, crcFailed=0, msgUsed=2, subType=0, refStation=0, msgType=4072)>
2026-06-14 11:50:26,249 - INFO - Using persisted heading from driving to work area: 30.46° (captured at 2026-06-14 11:48:06)
2026-06-14 11:50:26,324 - INFO - <UBX(RXM-RTCM, version=2, crcFailed=0, msgUsed=2, subType=0, refStation=0, msgType=1074)>
2026-06-14 11:50:26,325 - INFO - <UBX(RXM-RTCM, version=2, crcFailed=0, msgUsed=2, subType=0, refStation=0, msgType=1084)>
2026-06-14 11:50:26,331 - INFO - <UBX(RXM-RTCM, version=2, crcFailed=0, msgUsed=2, subType=0, refStation=0, msgType=1094)>
2026-06-14 11:50:26,332 - INFO - <UBX(RXM-RTCM, version=2, crcFailed=0, msgUsed=2, subType=0, refStation=0, msgType=1124)>
2026-06-14 11:50:26,333 - INFO - <UBX(RXM-RTCM, version=2, crcFailed=0, msgUsed=2, subType=0, refStation=0, msgType=1230)>
2026-06-14 11:50:26,363 - INFO - <UBX(NAV-PVT, iTOW=16:50:26.400000, year=2026, month=6, day=14, hour=16, min=50, second=26, validDate=1, validTime=1, fullyResolved=1, validMag=0, tAcc=21, nano=399830441, fixType=3, gnssFixOk=1, diffSoln=1, psmState=0, headVehValid=0, carrSoln=2, confirmedAvai=1, confirmedDate=1, confirmedTime=1, numSV=32, lon=-97.6642001, lat=37.9008406, height=406731, hMSL=432984, hAcc=1057, vAcc=1578, velN=-24, velE=2, velD=34, gSpeed=24, headMot=61.04776, sAcc=79, headAcc=113.2262, pDOP=1.06, invalidLlh=0, lastCorrectionAge=1, reserved0=860630572, headVeh=0.0, magDec=0.0, magAcc=0.0)>
2026-06-14 11:50:26,364 - INFO - <NMEA(GNRMC, time=16:50:26.400000, status=A, lat=37.9008406667, NS=N, lon=-97.6642001667, EW=W, spd=0.047, cog=, date=2026-06-14, mv=, mvEW=, posMode=R, navStatus=V)>
2026-06-14 11:50:26,365 - INFO - <NMEA(GNVTG, cogt=, cogtUnit=T, cogm=, cogmUnit=M, sogn=0.047, sognUnit=N, sogk=0.087, sogkUnit=K, posMode=D)>
2026-06-14 11:50:26,365 - INFO - <NMEA(GNGGA, time=16:50:26.400000, lat=37.9008406667, NS=N, lon=-97.6642001667, EW=W, quality=4, numSV=12, HDOP=0.52, alt=433.0, altUnit=M, sep=-26.3, sepUnit=M, diffAge=0.2, diffStation=0)>
2026-06-14 11:50:26,366 - INFO - <NMEA(GNGSA, opMode=M, navMode=3, svid_01=5, svid_02=11, svid_03=12, svid_04=15, svid_05=20, svid_06=21, svid_07=25, svid_08=29, svid_09=, svid_10=, svid_11=, svid_12=, PDOP=1.06, HDOP=0.52, VDOP=0.93, systemId=1)>
2026-06-14 11:50:26,366 - INFO - <NMEA(GNGSA, opMode=M, navMode=3, svid_01=73, svid_02=82, svid_03=74, svid_04=69, svid_05=84, svid_06=83, svid_07=67, svid_08=, svid_09=, svid_10=, svid_11=, svid_12=, PDOP=1.06, HDOP=0.52, VDOP=0.93, systemId=2)>
2026-06-14 11:50:26,366 - INFO - <NMEA(GNGSA, opMode=M, navMode=3, svid_01=2, svid_02=4, svid_03=6, svid_04=9, svid_05=11, svid_06=25, svid_07=34, svid_08=36, svid_09=, svid_10=, svid_11=, svid_12=, PDOP=1.06, HDOP=0.52, VDOP=0.93, systemId=3)>
2026-06-14 11:50:26,367 - INFO - <NMEA(GNGSA, opMode=M, navMode=3, svid_01=13, svid_02=14, svid_03=21, svid_04=28, svid_05=33, svid_06=34, svid_07=23, svid_08=38, svid_09=42, svid_10=, svid_11=, svid_12=, PDOP=1.06, HDOP=0.52, VDOP=0.93, systemId=4)>
2026-06-14 11:50:26,367 - INFO - <NMEA(GNGSA, opMode=M, navMode=3, svid_01=, svid_02=, svid_03=, svid_04=, svid_05=, svid_06=, svid_07=, svid_08=, svid_09=, svid_10=, svid_11=, svid_12=, PDOP=1.06, HDOP=0.52, VDOP=0.93, systemId=5)>
2026-06-14 11:50:26,368 - INFO - <NMEA(GPGSV, numMsg=3, msgNum=1, numSV=11, svid_01=5, elv_01=84.0, az_01=54, cno_01=39, svid_02=11, elv_02=29.0, az_02=70, cno_02=45, svid_03=12, elv_03=22.0, az_03=194, cno_03=36, svid_04=13, elv_04=18.0, az_04=198, cno_04=35, signalID=1)>
2026-06-14 11:50:26,368 - INFO - <NMEA(GPGSV, numMsg=3, msgNum=2, numSV=11, svid_01=15, elv_01=21.0, az_01=170, cno_01=26, svid_02=18, elv_02=20.0, az_02=279, cno_02=30, svid_03=20, elv_03=30.0, az_03=139, cno_03=43, svid_04=21, elv_04=49.0, az_04=48, cno_04=43, signalID=1)>
2026-06-14 11:50:26,368 - INFO - <NMEA(GPGSV, numMsg=3, msgNum=3, numSV=11, svid_01=25, elv_01=35.0, az_01=233, cno_01=40, svid_02=29, elv_02=58.0, az_02=315, cno_02=47, svid_03=46, elv_03=35.0, az_03=225, cno_03=35, signalID=1)>
2026-06-14 11:50:26,369 - INFO - <NMEA(GPGSV, numMsg=3, msgNum=1, numSV=10, svid_01=5, elv_01=84.0, az_01=54, cno_01=34, svid_02=11, elv_02=29.0, az_02=70, cno_02=43, svid_03=12, elv_03=22.0, az_03=194, cno_03=20, svid_04=13, elv_04=18.0, az_04=198, cno_04=31, signalID=6)>
2026-06-14 11:50:26,369 - INFO - <NMEA(GPGSV, numMsg=3, msgNum=2, numSV=10, svid_01=15, elv_01=21.0, az_01=170, cno_01=20, svid_02=18, elv_02=20.0, az_02=279, cno_02=23, svid_03=20, elv_03=30.0, az_03=139, cno_03=38, svid_04=21, elv_04=49.0, az_04=48, cno_04=43, signalID=6)>
2026-06-14 11:50:26,370 - INFO - <NMEA(GPGSV, numMsg=3, msgNum=3, numSV=10, svid_01=25, elv_01=35.0, az_01=233, cno_01=35, svid_02=29, elv_02=58.0, az_02=315, cno_02=44, signalID=6)>
2026-06-14 11:50:26,370 - INFO - <NMEA(GPGSV, numMsg=1, msgNum=1, numSV=3, svid_01=23, elv_01=1.0, az_01=223, cno_01=, svid_02=44, elv_02=42.0, az_02=210, cno_02=, svid_03=48, elv_03=38.0, az_03=220, cno_03=, signalID=0)>
2026-06-14 11:50:26,371 - INFO - <NMEA(GLGSV, numMsg=3, msgNum=1, numSV=10, svid_01=66, elv_01=0.0, az_01=19, cno_01=30, svid_02=67, elv_02=43.0, az_02=54, cno_02=50, svid_03=68, elv_03=49.0, az_03=136, cno_03=37, svid_04=69, elv_04=12.0, az_04=176, cno_04=33, signalID=1)>
2026-06-14 11:50:26,372 - INFO - <NMEA(GLGSV, numMsg=3, msgNum=2, numSV=10, svid_01=73, elv_01=23.0, az_01=258, cno_01=25, svid_02=74, elv_02=21.0, az_02=308, cno_02=33, svid_03=80, elv_03=4.0, az_03=208, cno_03=19, svid_04=82, elv_04=36.0, az_04=71, cno_04=46, signalID=1)>
2026-06-14 11:50:26,372 - INFO - <NMEA(GLGSV, numMsg=3, msgNum=3, numSV=10, svid_01=83, elv_01=54.0, az_01=350, cno_01=50, svid_02=84, elv_02=16.0, az_02=299, cno_02=34, signalID=1)>
2026-06-14 11:50:26,373 - INFO - <NMEA(GLGSV, numMsg=2, msgNum=1, numSV=8, svid_01=67, elv_01=43.0, az_01=54, cno_01=43, svid_02=68, elv_02=49.0, az_02=136, cno_02=35, svid_03=69, elv_03=12.0, az_03=176, cno_03=27, svid_04=73, elv_04=23.0, az_04=258, cno_04=25, signalID=3)>
2026-06-14 11:50:26,375 - INFO - <NMEA(GLGSV, numMsg=2, msgNum=2, numSV=8, svid_01=80, elv_01=4.0, az_01=208, cno_01=17, svid_02=82, elv_02=36.0, az_02=71, cno_02=43, svid_03=83, elv_03=54.0, az_03=350, cno_03=42, svid_04=84, elv_04=16.0, az_04=299, cno_04=34, signalID=3)>
2026-06-14 11:50:26,377 - INFO - <NMEA(GAGSV, numMsg=3, msgNum=1, numSV=11, svid_01=2, elv_01=50.0, az_01=247, cno_01=46, svid_02=4, elv_02=20.0, az_02=62, cno_02=50, svid_03=6, elv_03=26.0, az_03=89, cno_03=47, svid_04=9, elv_04=25.0, az_04=116, cno_04=45, signalID=2)>
2026-06-14 11:50:26,379 - INFO - <NMEA(GAGSV, numMsg=3, msgNum=2, numSV=11, svid_01=10, elv_01=8.0, az_01=71, cno_01=45, svid_02=11, elv_02=33.0, az_02=60, cno_02=43, svid_03=14, elv_03=33.0, az_03=132, cno_03=48, svid_04=25, elv_04=24.0, az_04=185, cno_04=30, signalID=2)>
2026-06-14 11:50:26,379 - INFO - <NMEA(GAGSV, numMsg=3, msgNum=3, numSV=11, svid_01=28, elv_01=8.0, az_01=42, cno_01=36, svid_02=34, elv_02=32.0, az_02=276, cno_02=45, svid_03=36, elv_03=67.0, az_03=350, cno_03=45, signalID=2)>
2026-06-14 11:50:26,380 - INFO - <NMEA(GAGSV, numMsg=3, msgNum=1, numSV=12, svid_01=2, elv_01=50.0, az_01=247, cno_01=42, svid_02=4, elv_02=20.0, az_02=62, cno_02=43, svid_03=5, elv_03=6.0, az_03=164, cno_03=21, svid_04=6, elv_04=26.0, az_04=89, cno_04=40, signalID=7)>
2026-06-14 11:50:26,380 - INFO - <NMEA(GAGSV, numMsg=3, msgNum=2, numSV=12, svid_01=9, elv_01=25.0, az_01=116, cno_01=43, svid_02=10, elv_02=8.0, az_02=71, cno_02=45, svid_03=11, elv_03=33.0, az_03=60, cno_03=41, svid_04=14, elv_04=33.0, az_04=132, cno_04=48, signalID=7)>
2026-06-14 11:50:26,381 - INFO - <NMEA(GAGSV, numMsg=3, msgNum=3, numSV=12, svid_01=25, elv_01=24.0, az_01=185, cno_01=26, svid_02=28, elv_02=8.0, az_02=42, cno_02=45, svid_03=34, elv_03=32.0, az_03=276, cno_03=34, svid_04=36, elv_04=67.0, az_04=350, cno_04=38, signalID=7)>
2026-06-14 11:50:26,382 - INFO - <NMEA(GBGSV, numMsg=3, msgNum=1, numSV=10, svid_01=13, elv_01=56.0, az_01=318, cno_01=48, svid_02=14, elv_02=45.0, az_02=63, cno_02=50, svid_03=21, elv_03=26.0, az_03=44, cno_03=44, svid_04=23, elv_04=13.0, az_04=239, cno_04=26, signalID=1)>
2026-06-14 11:50:26,384 - INFO - <NMEA(GBGSV, numMsg=3, msgNum=2, numSV=10, svid_01=28, elv_01=28.0, az_01=302, cno_01=26, svid_02=33, elv_02=33.0, az_02=181, cno_02=37, svid_03=34, elv_03=30.0, az_03=102, cno_03=40, svid_04=37, elv_04=12.0, az_04=289, cno_04=31, signalID=1)>
2026-06-14 11:50:26,385 - INFO - <NMEA(GBGSV, numMsg=3, msgNum=3, numSV=10, svid_01=38, elv_01=75.0, az_01=13, cno_01=37, svid_02=42, elv_02=59.0, az_02=100, cno_02=44, signalID=1)>
2026-06-14 11:50:26,385 - INFO - <NMEA(GQGSV, numMsg=1, msgNum=1, numSV=0, signalID=0)>
2026-06-14 11:50:26,385 - INFO - <NMEA(GNGLL, lat=37.9008406667, NS=N, lon=-97.6642001667, EW=W, time=16:50:26.400000, status=A, posMode=D)>
2026-06-14 11:50:26,385 - INFO - <UBX(NAV-RELPOSNED, version=1, reserved0=0, refStationID=0, iTOW=16:50:26.400000, relPosN=50.44, relPosE=30.72, relPosD=1.22, relPosLength=59.07, relPosHeading=31.34129, reserved1=0, accN=10.0, accE=10.0, accD=12.7, accLength=10.0, accHeading=0.97023, reserved2=0, gnssFixOK=1, diffSoln=1, relPosValid=1, carrSoln=2, isMoving=1, refPosMiss=0, refObsMiss=0, relPosHeadingValid=1, relPosNormalized=0)>
2026-06-14 11:50:26,386 - INFO - 2026-06-14 11:50:26 Initial Moving Baseline state: active
2026-06-14 11:50:26,387 - INFO - 2026-06-14 11:50:26 Initial carrier solution: fixed
2026-06-14 11:50:26,387 - INFO - 2026-06-14 11:50:26, current_target: {'timestamp': '2026-05-10 13:40:05', 'lat': 37.9008713333, 'lon': -97.66418, 'speed': 0.004629996, 'y_offset': 0.0, 'x_offset': 0.0, 'z_offset': 0.0, 'heading': 1.76477}, next_target: {'timestamp': '2026-05-10 13:40:06', 'lat': 37.9008713333, 'lon': -97.66418, 'speed': 0.00514444, 'y_offset': 0.0, 'x_offset': 0.0, 'z_offset': 0.0, 'heading': 1.76299}
2026-06-14 11:50:26,387 - INFO - <UBX(RXM-RTCM, version=2, crcFailed=0, msgUsed=2, subType=0, refStation=0, msgType=4072)>
2026-06-14 11:50:26,387 - INFO - 2026-06-14 11:50:26, current_target: {'timestamp': '2026-05-10 13:40:05', 'lat': 37.9008713333, 'lon': -97.66418, 'speed': 0.004629996, 'y_offset': 0.0, 'x_offset': 0.0, 'z_offset': 0.0, 'heading': 1.76477}, next_target: {'timestamp': '2026-05-10 13:40:06', 'lat': 37.9008713333, 'lon': -97.66418, 'speed': 0.00514444, 'y_offset': 0.0, 'x_offset': 0.0, 'z_offset': 0.0, 'heading': 1.76299}
2026-06-14 11:50:26,387 - INFO - 2026-06-14 11:50:26 [3.4 OBSERVED] current_turn_radius: infm
2026-06-14 11:50:26,387 - INFO - 2026-06-14 11:50:26 [3.4 OBSERVED] turn_direction: STRAIGHT
2026-06-14 11:50:26,387 - INFO - 2026-06-14 11:50:26 [3.4 OBSERVED] estimated left/right wheel speeds: 0.112, 0.112 rad/s
2026-06-14 11:50:26,391 - INFO - 2026-06-14 11:50:26 [STATE] Current state: NAVIGATING_TO_START
2026-06-14 11:50:26,391 - INFO - 2026-06-14 11:50:26 [NAV_TO_START] Phase: DRIVE_TO_START, Dist: 3.838m, Bearing err: -3.8°, Heading diff: 29.6°, Elapsed: 0.2s
2026-06-14 11:50:26,392 - INFO - 2026-06-14 11:50:26 [NAV_TO_START] DRIVE: bearing=27.5°, dist=3.84m, turn=LEFT, radius=21.62m, speed=1.00
2026-06-14 11:50:26,392 - INFO - 2026-06-14 11:50:26 Turn: LEFT, Radius: 21.62m, DLWS: 4.55 rad/s, DRWS: 4.70 rad/s
2026-06-14 11:50:26,392 - INFO - 2026-06-14 11:50:26 left_actuator_position: 800 (counts) from DLWS 4.555 rad/s
2026-06-14 11:50:26,392 - INFO - 2026-06-14 11:50:26 right_actuator_position: 790 (counts) from DRWS 4.705 rad/s
2026-06-14 11:50:26,392 - INFO - 2026-06-14 11:50:26 LAM: 24.55 mm/(rad/s), RAM: 24.55 mm/(rad/s)
2026-06-14 11:50:26,392 - INFO - 2026-06-14 11:50:26 DLAP: 111.80 mm, DRAP: 115.48 mm
2026-06-14 11:50:26,405 - INFO - Sent actuator positions to RoboClaw → M1 (left): 800, M2 (right): 790 (counts)
2026-06-14 11:50:26,405 - INFO - 2026-06-14 11:50:26 APPLY → left_pos: 800, right_pos: 790 (counts), DLAP: 111.80 mm, DRAP: 115.48 mm
2026-06-14 11:50:26,520 - INFO - <UBX(RXM-RTCM, version=2, crcFailed=0, msgUsed=2, subType=0, refStation=0, msgType=1074)>
2026-06-14 11:50:26,522 - INFO - <UBX(RXM-RTCM, version=2, crcFailed=0, msgUsed=2, subType=0, refStation=0, msgType=1084)>
2026-06-14 11:50:26,525 - INFO - <UBX(RXM-RTCM, version=2, crcFailed=0, msgUsed=2, subType=0, refStation=0, msgType=1094)>
2026-06-14 11:50:26,528 - INFO - <UBX(RXM-RTCM, version=2, crcFailed=0, msgUsed=2, subType=0, refStation=0, msgType=1124)>
2026-06-14 11:50:26,529 - INFO - <UBX(RXM-RTCM, version=2, crcFailed=0, msgUsed=2, subType=0, refStation=0, msgType=1230)>
2026-06-14 11:50:26,570 - INFO - <UBX(RXM-RTCM, version=2, crcFailed=0, msgUsed=2, subType=0, refStation=0, msgType=4072)>
2026-06-14 11:50:26,571 - INFO - <UBX(NAV-PVT, iTOW=16:50:26.600000, year=2026, month=6, day=14, hour=16, min=50, second=26, validDate=1, validTime=1, fullyResolved=1, validMag=0, tAcc=21, nano=599830400, fixType=3, gnssFixOk=1, diffSoln=1, psmState=0, headVehValid=0, carrSoln=2, confirmedAvai=1, confirmedDate=1, confirmedTime=1, numSV=32, lon=-97.6642001, lat=37.9008406, height=406730, hMSL=432982, hAcc=1056, vAcc=1577, velN=-4, velE=0, velD=18, gSpeed=4, headMot=61.04776, sAcc=82, headAcc=180.0, pDOP=1.09, invalidLlh=0, lastCorrectionAge=1, reserved0=860630572, headVeh=0.0, magDec=0.0, magAcc=0.0)>
2026-06-14 11:50:26,572 - INFO - <NMEA(GNRMC, time=16:50:26.600000, status=A, lat=37.9008406667, NS=N, lon=-97.6642001667, EW=W, spd=0.007, cog=, date=2026-06-14, mv=, mvEW=, posMode=R, navStatus=V)>
2026-06-14 11:50:26,572 - INFO - <NMEA(GNVTG, cogt=, cogtUnit=T, cogm=, cogmUnit=M, sogn=0.007, sognUnit=N, sogk=0.014, sogkUnit=K, posMode=D)>
2026-06-14 11:50:26,573 - INFO - <NMEA(GNGGA, time=16:50:26.600000, lat=37.9008406667, NS=N, lon=-97.6642001667, EW=W, quality=4, numSV=12, HDOP=0.54, alt=433.0, altUnit=M, sep=-26.3, sepUnit=M, diffAge=0.2, diffStation=0)>
2026-06-14 11:50:26,574 - INFO - <NMEA(GNGSA, opMode=M, navMode=3, svid_01=5, svid_02=11, svid_03=12, svid_04=15, svid_05=20, svid_06=21, svid_07=25, svid_08=29, svid_09=, svid_10=, svid_11=, svid_12=, PDOP=1.09, HDOP=0.54, VDOP=0.95, systemId=1)>
2026-06-14 11:50:26,575 - INFO - <NMEA(GNGSA, opMode=M, navMode=3, svid_01=73, svid_02=82, svid_03=74, svid_04=69, svid_05=84, svid_06=83, svid_07=67, svid_08=, svid_09=, svid_10=, svid_11=, svid_12=, PDOP=1.09, HDOP=0.54, VDOP=0.95, systemId=2)>
2026-06-14 11:50:26,576 - INFO - <NMEA(GNGSA, opMode=M, navMode=3, svid_01=2, svid_02=4, svid_03=6, svid_04=9, svid_05=11, svid_06=25, svid_07=34, svid_08=36, svid_09=, svid_10=, svid_11=, svid_12=, PDOP=1.09, HDOP=0.54, VDOP=0.95, systemId=3)>
2026-06-14 11:50:26,577 - INFO - <NMEA(GNGSA, opMode=M, navMode=3, svid_01=13, svid_02=14, svid_03=21, svid_04=37, svid_05=33, svid_06=34, svid_07=23, svid_08=38, svid_09=42, svid_10=, svid_11=, svid_12=, PDOP=1.09, HDOP=0.54, VDOP=0.95, systemId=4)>
2026-06-14 11:50:26,578 - INFO - <NMEA(GNGSA, opMode=M, navMode=3, svid_01=, svid_02=, svid_03=, svid_04=, svid_05=, svid_06=, svid_07=, svid_08=, svid_09=, svid_10=, svid_11=, svid_12=, PDOP=1.09, HDOP=0.54, VDOP=0.95, systemId=5)>
2026-06-14 11:50:26,579 - INFO - <NMEA(GPGSV, numMsg=3, msgNum=1, numSV=11, svid_01=5, elv_01=84.0, az_01=54, cno_01=39, svid_02=11, elv_02=29.0, az_02=70, cno_02=44, svid_03=12, elv_03=22.0, az_03=194, cno_03=36, svid_04=13, elv_04=18.0, az_04=198, cno_04=35, signalID=1)>
2026-06-14 11:50:26,580 - INFO - <NMEA(GPGSV, numMsg=3, msgNum=2, numSV=11, svid_01=15, elv_01=21.0, az_01=170, cno_01=31, svid_02=18, elv_02=20.0, az_02=279, cno_02=30, svid_03=20, elv_03=30.0, az_03=139, cno_03=43, svid_04=21, elv_04=49.0, az_04=48, cno_04=43, signalID=1)>
2026-06-14 11:50:26,580 - INFO - <NMEA(GPGSV, numMsg=3, msgNum=3, numSV=11, svid_01=25, elv_01=35.0, az_01=233, cno_01=40, svid_02=29, elv_02=58.0, az_02=315, cno_02=48, svid_03=46, elv_03=35.0, az_03=225, cno_03=38, signalID=1)>
2026-06-14 11:50:26,581 - INFO - <NMEA(GPGSV, numMsg=3, msgNum=1, numSV=10, svid_01=5, elv_01=84.0, az_01=54, cno_01=34, svid_02=11, elv_02=29.0, az_02=70, cno_02=42, svid_03=12, elv_03=22.0, az_03=194, cno_03=21, svid_04=13, elv_04=18.0, az_04=198, cno_04=31, signalID=6)>
2026-06-14 11:50:26,581 - INFO - <NMEA(GPGSV, numMsg=3, msgNum=2, numSV=10, svid_01=15, elv_01=21.0, az_01=170, cno_01=20, svid_02=18, elv_02=20.0, az_02=279, cno_02=22, svid_03=20, elv_03=30.0, az_03=139, cno_03=38, svid_04=21, elv_04=49.0, az_04=48, cno_04=43, signalID=6)>
2026-06-14 11:50:26,582 - INFO - <NMEA(GPGSV, numMsg=3, msgNum=3, numSV=10, svid_01=25, elv_01=35.0, az_01=233, cno_01=35, svid_02=29, elv_02=58.0, az_02=315, cno_02=44, signalID=6)>
2026-06-14 11:50:26,582 - INFO - <NMEA(GPGSV, numMsg=1, msgNum=1, numSV=3, svid_01=23, elv_01=1.0, az_01=223, cno_01=, svid_02=44, elv_02=42.0, az_02=210, cno_02=, svid_03=48, elv_03=38.0, az_03=220, cno_03=, signalID=0)>
2026-06-14 11:50:26,583 - INFO - <NMEA(GLGSV, numMsg=3, msgNum=1, numSV=10, svid_01=66, elv_01=0.0, az_01=19, cno_01=30, svid_02=67, elv_02=43.0, az_02=54, cno_02=50, svid_03=68, elv_03=49.0, az_03=136, cno_03=37, svid_04=69, elv_04=12.0, az_04=176, cno_04=32, signalID=1)>
2026-06-14 11:50:26,583 - INFO - <NMEA(GLGSV, numMsg=3, msgNum=2, numSV=10, svid_01=73, elv_01=23.0, az_01=258, cno_01=25, svid_02=74, elv_02=21.0, az_02=308, cno_02=32, svid_03=80, elv_03=4.0, az_03=208, cno_03=20, svid_04=82, elv_04=36.0, az_04=71, cno_04=46, signalID=1)>
2026-06-14 11:50:26,584 - INFO - <NMEA(GLGSV, numMsg=3, msgNum=3, numSV=10, svid_01=83, elv_01=54.0, az_01=350, cno_01=50, svid_02=84, elv_02=16.0, az_02=299, cno_02=35, signalID=1)>
2026-06-14 11:50:26,584 - INFO - <NMEA(GLGSV, numMsg=2, msgNum=1, numSV=8, svid_01=67, elv_01=43.0, az_01=54, cno_01=43, svid_02=68, elv_02=49.0, az_02=136, cno_02=35, svid_03=69, elv_03=12.0, az_03=176, cno_03=26, svid_04=73, elv_04=23.0, az_04=258, cno_04=26, signalID=3)>
2026-06-14 11:50:26,584 - INFO - <NMEA(GLGSV, numMsg=2, msgNum=2, numSV=8, svid_01=80, elv_01=4.0, az_01=208, cno_01=17, svid_02=82, elv_02=36.0, az_02=71, cno_02=44, svid_03=83, elv_03=54.0, az_03=350, cno_03=41, svid_04=84, elv_04=16.0, az_04=299, cno_04=34, signalID=3)>
2026-06-14 11:50:26,585 - INFO - <NMEA(GAGSV, numMsg=3, msgNum=1, numSV=11, svid_01=2, elv_01=50.0, az_01=247, cno_01=46, svid_02=4, elv_02=20.0, az_02=62, cno_02=50, svid_03=6, elv_03=26.0, az_03=89, cno_03=47, svid_04=9, elv_04=25.0, az_04=116, cno_04=44, signalID=2)>
2026-06-14 11:50:26,587 - INFO - <NMEA(GAGSV, numMsg=3, msgNum=2, numSV=11, svid_01=10, elv_01=8.0, az_01=71, cno_01=44, svid_02=11, elv_02=33.0, az_02=60, cno_02=43, svid_03=14, elv_03=33.0, az_03=132, cno_03=48, svid_04=25, elv_04=24.0, az_04=185, cno_04=29, signalID=2)>
2026-06-14 11:50:26,588 - INFO - <NMEA(GAGSV, numMsg=3, msgNum=3, numSV=11, svid_01=28, elv_01=8.0, az_01=42, cno_01=36, svid_02=34, elv_02=32.0, az_02=276, cno_02=45, svid_03=36, elv_03=67.0, az_03=350, cno_03=45, signalID=2)>
2026-06-14 11:50:26,590 - INFO - <NMEA(GAGSV, numMsg=3, msgNum=1, numSV=12, svid_01=2, elv_01=50.0, az_01=247, cno_01=42, svid_02=4, elv_02=20.0, az_02=62, cno_02=43, svid_03=5, elv_03=6.0, az_03=164, cno_03=20, svid_04=6, elv_04=26.0, az_04=89, cno_04=41, signalID=7)>
2026-06-14 11:50:26,591 - INFO - <NMEA(GAGSV, numMsg=3, msgNum=2, numSV=12, svid_01=9, elv_01=25.0, az_01=116, cno_01=43, svid_02=10, elv_02=8.0, az_02=71, cno_02=45, svid_03=11, elv_03=33.0, az_03=60, cno_03=41, svid_04=14, elv_04=33.0, az_04=132, cno_04=47, signalID=7)>
2026-06-14 11:50:26,592 - INFO - <NMEA(GAGSV, numMsg=3, msgNum=3, numSV=12, svid_01=25, elv_01=24.0, az_01=185, cno_01=26, svid_02=28, elv_02=8.0, az_02=42, cno_02=45, svid_03=34, elv_03=32.0, az_03=276, cno_03=34, svid_04=36, elv_04=67.0, az_04=350, cno_04=38, signalID=7)>
2026-06-14 11:50:26,592 - INFO - <NMEA(GBGSV, numMsg=3, msgNum=1, numSV=10, svid_01=13, elv_01=56.0, az_01=318, cno_01=47, svid_02=14, elv_02=45.0, az_02=63, cno_02=50, svid_03=21, elv_03=26.0, az_03=44, cno_03=43, svid_04=23, elv_04=13.0, az_04=239, cno_04=25, signalID=1)>
2026-06-14 11:50:26,593 - INFO - <NMEA(GBGSV, numMsg=3, msgNum=2, numSV=10, svid_01=28, elv_01=28.0, az_01=302, cno_01=26, svid_02=33, elv_02=33.0, az_02=181, cno_02=39, svid_03=34, elv_03=30.0, az_03=102, cno_03=39, svid_04=37, elv_04=12.0, az_04=289, cno_04=31, signalID=1)>
2026-06-14 11:50:26,593 - INFO - <NMEA(GBGSV, numMsg=3, msgNum=3, numSV=10, svid_01=38, elv_01=75.0, az_01=13, cno_01=37, svid_02=42, elv_02=59.0, az_02=100, cno_02=45, signalID=1)>
2026-06-14 11:50:26,594 - INFO - <NMEA(GQGSV, numMsg=1, msgNum=1, numSV=0, signalID=0)>
2026-06-14 11:50:26,594 - INFO - <NMEA(GNGLL, lat=37.9008406667, NS=N, lon=-97.6642001667, EW=W, time=16:50:26.600000, status=A, posMode=D)>
2026-06-14 11:50:26,595 - INFO - <UBX(NAV-RELPOSNED, version=1, reserved0=0, refStationID=0, iTOW=16:50:26.600000, relPosN=50.72, relPosE=30.54, relPosD=1.05, relPosLength=59.22, relPosHeading=31.05086, reserved1=0, accN=10.0, accE=10.0, accD=12.6, accLength=10.0, accHeading=0.96769, reserved2=0, gnssFixOK=1, diffSoln=1, relPosValid=1, carrSoln=2, isMoving=1, refPosMiss=0, refObsMiss=0, relPosHeadingValid=1, relPosNormalized=0)>
2026-06-14 11:50:26,597 - INFO - 2026-06-14 11:50:26, current_target: {'timestamp': '2026-05-10 13:40:05', 'lat': 37.9008713333, 'lon': -97.66418, 'speed': 0.004629996, 'y_offset': 0.0, 'x_offset': 0.0, 'z_offset': 0.0, 'heading': 1.76477}, next_target: {'timestamp': '2026-05-10 13:40:06', 'lat': 37.9008713333, 'lon': -97.66418, 'speed': 0.00514444, 'y_offset': 0.0, 'x_offset': 0.0, 'z_offset': 0.0, 'heading': 1.76299}
2026-06-14 11:50:26,597 - INFO - 2026-06-14 11:50:26 [3.4 OBSERVED] current_turn_radius: infm
2026-06-14 11:50:26,597 - INFO - 2026-06-14 11:50:26 [3.4 OBSERVED] turn_direction: LEFT
2026-06-14 11:50:26,597 - INFO - 2026-06-14 11:50:26 [3.4 OBSERVED] estimated left/right wheel speeds: nan, nan rad/s
2026-06-14 11:50:26,601 - INFO - 2026-06-14 11:50:26 [STATE] Current state: NAVIGATING_TO_START
2026-06-14 11:50:26,601 - INFO - 2026-06-14 11:50:26 [NAV_TO_START] Phase: DRIVE_TO_START, Dist: 3.838m, Bearing err: -3.5°, Heading diff: 29.3°, Elapsed: 0.4s
2026-06-14 11:50:26,601 - INFO - 2026-06-14 11:50:26 [NAV_TO_START] DRIVE: bearing=27.5°, dist=3.84m, turn=LEFT, radius=23.39m, speed=1.00
2026-06-14 11:50:26,602 - INFO - 2026-06-14 11:50:26 Turn: LEFT, Radius: 23.39m, DLWS: 4.56 rad/s, DRWS: 4.70 rad/s
2026-06-14 11:50:26,602 - INFO - 2026-06-14 11:50:26 left_actuator_position: 800 (counts) from DLWS 4.560 rad/s
2026-06-14 11:50:26,602 - INFO - 2026-06-14 11:50:26 right_actuator_position: 791 (counts) from DRWS 4.699 rad/s
2026-06-14 11:50:26,602 - INFO - 2026-06-14 11:50:26 LAM: 24.55 mm/(rad/s), RAM: 24.55 mm/(rad/s)
2026-06-14 11:50:26,602 - INFO - 2026-06-14 11:50:26 DLAP: 111.94 mm, DRAP: 115.34 mm
2026-06-14 11:50:26,619 - INFO - Sent actuator positions to RoboClaw → M1 (left): 800, M2 (right): 791 (counts)
2026-06-14 11:50:26,619 - INFO - 2026-06-14 11:50:26 APPLY → left_pos: 800, right_pos: 791 (counts), DLAP: 111.94 mm, DRAP: 115.34 mm
2026-06-14 11:50:26,721 - INFO - <UBX(RXM-RTCM, version=2, crcFailed=0, msgUsed=2, subType=0, refStation=0, msgType=1074)>
2026-06-14 11:50:26,723 - INFO - <UBX(RXM-RTCM, version=2, crcFailed=0, msgUsed=2, subType=0, refStation=0, msgType=1084)>
2026-06-14 11:50:26,725 - INFO - <UBX(RXM-RTCM, version=2, crcFailed=0, msgUsed=2, subType=0, refStation=0, msgType=1094)>
2026-06-14 11:50:26,729 - INFO - <UBX(RXM-RTCM, version=2, crcFailed=0, msgUsed=2, subType=0, refStation=0, msgType=1124)>
2026-06-14 11:50:26,731 - INFO - <UBX(RXM-RTCM, version=2, crcFailed=0, msgUsed=2, subType=0, refStation=0, msgType=1230)>
2026-06-14 11:50:26,769 - INFO - <UBX(RXM-RTCM, version=2, crcFailed=0, msgUsed=2, subType=0, refStation=0, msgType=4072)>
2026-06-14 11:50:26,773 - INFO - <UBX(NAV-PVT, iTOW=16:50:26.800000, year=2026, month=6, day=14, hour=16, min=50, second=26, validDate=1, validTime=1, fullyResolved=1, validMag=0, tAcc=21, nano=799830359, fixType=3, gnssFixOk=1, diffSoln=1, psmState=0, headVehValid=0, carrSoln=2, confirmedAvai=1, confirmedDate=1, confirmedTime=1, numSV=32, lon=-97.6642002, lat=37.9008406, height=406734, hMSL=432986, hAcc=998, vAcc=1490, velN=-4, velE=-3, velD=10, gSpeed=5, headMot=61.04776, sAcc=75, headAcc=180.0, pDOP=1.09, invalidLlh=0, lastCorrectionAge=1, reserved0=860630572, headVeh=0.0, magDec=0.0, magAcc=0.0)>
2026-06-14 11:50:26,776 - INFO - <NMEA(GNRMC, time=16:50:26.800000, status=A, lat=37.9008406667, NS=N, lon=-97.6642001667, EW=W, spd=0.01, cog=, date=2026-06-14, mv=, mvEW=, posMode=R, navStatus=V)>
2026-06-14 11:50:26,776 - INFO - <NMEA(GNVTG, cogt=, cogtUnit=T, cogm=, cogmUnit=M, sogn=0.01, sognUnit=N, sogk=0.018, sogkUnit=K, posMode=D)>
2026-06-14 11:50:26,779 - INFO - <NMEA(GNGGA, time=16:50:26.800000, lat=37.9008406667, NS=N, lon=-97.6642001667, EW=W, quality=4, numSV=12, HDOP=0.54, alt=433.0, altUnit=M, sep=-26.3, sepUnit=M, diffAge=0.2, diffStation=0)>
2026-06-14 11:50:26,780 - INFO - <NMEA(GNGSA, opMode=M, navMode=3, svid_01=5, svid_02=11, svid_03=12, svid_04=15, svid_05=20, svid_06=21, svid_07=25, svid_08=29, svid_09=, svid_10=, svid_11=, svid_12=, PDOP=1.09, HDOP=0.54, VDOP=0.95, systemId=1)>
2026-06-14 11:50:26,781 - INFO - <NMEA(GNGSA, opMode=M, navMode=3, svid_01=73, svid_02=82, svid_03=74, svid_04=69, svid_05=84, svid_06=83, svid_07=67, svid_08=, svid_09=, svid_10=, svid_11=, svid_12=, PDOP=1.09, HDOP=0.54, VDOP=0.95, systemId=2)>
2026-06-14 11:50:26,782 - INFO - <NMEA(GNGSA, opMode=M, navMode=3, svid_01=2, svid_02=4, svid_03=6, svid_04=9, svid_05=11, svid_06=25, svid_07=34, svid_08=36, svid_09=, svid_10=, svid_11=, svid_12=, PDOP=1.09, HDOP=0.54, VDOP=0.95, systemId=3)>
2026-06-14 11:50:26,783 - INFO - <NMEA(GNGSA, opMode=M, navMode=3, svid_01=13, svid_02=14, svid_03=21, svid_04=37, svid_05=33, svid_06=34, svid_07=23, svid_08=38, svid_09=42, svid_10=, svid_11=, svid_12=, PDOP=1.09, HDOP=0.54, VDOP=0.95, systemId=4)>
2026-06-14 11:50:26,784 - INFO - <NMEA(GNGSA, opMode=M, navMode=3, svid_01=, svid_02=, svid_03=, svid_04=, svid_05=, svid_06=, svid_07=, svid_08=, svid_09=, svid_10=, svid_11=, svid_12=, PDOP=1.09, HDOP=0.54, VDOP=0.95, systemId=5)>
2026-06-14 11:50:26,784 - INFO - <NMEA(GPGSV, numMsg=3, msgNum=1, numSV=11, svid_01=5, elv_01=84.0, az_01=54, cno_01=39, svid_02=11, elv_02=29.0, az_02=70, cno_02=44, svid_03=12, elv_03=22.0, az_03=194, cno_03=35, svid_04=13, elv_04=18.0, az_04=198, cno_04=36, signalID=1)>
2026-06-14 11:50:26,785 - INFO - <NMEA(GPGSV, numMsg=3, msgNum=2, numSV=11, svid_01=15, elv_01=21.0, az_01=170, cno_01=31, svid_02=18, elv_02=20.0, az_02=279, cno_02=30, svid_03=20, elv_03=30.0, az_03=139, cno_03=43, svid_04=21, elv_04=49.0, az_04=48, cno_04=43, signalID=1)>
2026-06-14 11:50:26,785 - INFO - <NMEA(GPGSV, numMsg=3, msgNum=3, numSV=11, svid_01=25, elv_01=35.0, az_01=233, cno_01=40, svid_02=29, elv_02=58.0, az_02=315, cno_02=48, svid_03=46, elv_03=35.0, az_03=225, cno_03=38, signalID=1)>
2026-06-14 11:50:26,786 - INFO - <NMEA(GPGSV, numMsg=3, msgNum=1, numSV=10, svid_01=5, elv_01=84.0, az_01=54, cno_01=34, svid_02=11, elv_02=29.0, az_02=70, cno_02=43, svid_03=12, elv_03=22.0, az_03=194, cno_03=22, svid_04=13, elv_04=18.0, az_04=198, cno_04=31, signalID=6)>
2026-06-14 11:50:26,786 - INFO - <NMEA(GPGSV, numMsg=3, msgNum=2, numSV=10, svid_01=15, elv_01=21.0, az_01=170, cno_01=20, svid_02=18, elv_02=20.0, az_02=279, cno_02=22, svid_03=20, elv_03=30.0, az_03=139, cno_03=38, svid_04=21, elv_04=49.0, az_04=48, cno_04=43, signalID=6)>
2026-06-14 11:50:26,787 - INFO - <NMEA(GPGSV, numMsg=3, msgNum=3, numSV=10, svid_01=25, elv_01=35.0, az_01=233, cno_01=35, svid_02=29, elv_02=58.0, az_02=315, cno_02=44, signalID=6)>
2026-06-14 11:50:26,787 - INFO - <NMEA(GPGSV, numMsg=1, msgNum=1, numSV=3, svid_01=23, elv_01=1.0, az_01=223, cno_01=, svid_02=44, elv_02=42.0, az_02=210, cno_02=, svid_03=48, elv_03=38.0, az_03=220, cno_03=, signalID=0)>
2026-06-14 11:50:26,789 - INFO - <NMEA(GLGSV, numMsg=3, msgNum=1, numSV=10, svid_01=66, elv_01=0.0, az_01=19, cno_01=29, svid_02=67, elv_02=43.0, az_02=54, cno_02=51, svid_03=68, elv_03=49.0, az_03=136, cno_03=39, svid_04=69, elv_04=12.0, az_04=176, cno_04=28, signalID=1)>
2026-06-14 11:50:26,791 - INFO - <NMEA(GLGSV, numMsg=3, msgNum=2, numSV=10, svid_01=73, elv_01=23.0, az_01=258, cno_01=34, svid_02=74, elv_02=21.0, az_02=308, cno_02=28, svid_03=80, elv_03=4.0, az_03=208, cno_03=20, svid_04=82, elv_04=36.0, az_04=71, cno_04=47, signalID=1)>
2026-06-14 11:50:26,791 - INFO - <NMEA(GLGSV, numMsg=3, msgNum=3, numSV=10, svid_01=83, elv_01=54.0, az_01=350, cno_01=50, svid_02=84, elv_02=16.0, az_02=299, cno_02=34, signalID=1)>
2026-06-14 11:50:26,794 - INFO - <NMEA(GLGSV, numMsg=2, msgNum=1, numSV=8, svid_01=67, elv_01=43.0, az_01=54, cno_01=43, svid_02=68, elv_02=49.0, az_02=136, cno_02=35, svid_03=69, elv_03=12.0, az_03=176, cno_03=26, svid_04=73, elv_04=23.0, az_04=258, cno_04=31, signalID=3)>
2026-06-14 11:50:26,795 - INFO - <NMEA(GLGSV, numMsg=2, msgNum=2, numSV=8, svid_01=80, elv_01=4.0, az_01=208, cno_01=16, svid_02=82, elv_02=36.0, az_02=71, cno_02=44, svid_03=83, elv_03=54.0, az_03=350, cno_03=41, svid_04=84, elv_04=16.0, az_04=299, cno_04=34, signalID=3)>
2026-06-14 11:50:26,797 - INFO - <NMEA(GAGSV, numMsg=3, msgNum=1, numSV=11, svid_01=2, elv_01=50.0, az_01=247, cno_01=46, svid_02=4, elv_02=20.0, az_02=62, cno_02=50, svid_03=6, elv_03=26.0, az_03=89, cno_03=47, svid_04=9, elv_04=25.0, az_04=116, cno_04=44, signalID=2)>
2026-06-14 11:50:26,799 - INFO - <NMEA(GAGSV, numMsg=3, msgNum=2, numSV=11, svid_01=10, elv_01=8.0, az_01=71, cno_01=44, svid_02=11, elv_02=33.0, az_02=60, cno_02=43, svid_03=14, elv_03=33.0, az_03=132, cno_03=48, svid_04=25, elv_04=24.0, az_04=185, cno_04=29, signalID=2)>
2026-06-14 11:50:26,799 - INFO - <NMEA(GAGSV, numMsg=3, msgNum=3, numSV=11, svid_01=28, elv_01=8.0, az_01=42, cno_01=36, svid_02=34, elv_02=32.0, az_02=276, cno_02=45, svid_03=36, elv_03=67.0, az_03=350, cno_03=45, signalID=2)>
2026-06-14 11:50:26,800 - INFO - <NMEA(GAGSV, numMsg=3, msgNum=1, numSV=12, svid_01=2, elv_01=50.0, az_01=247, cno_01=42, svid_02=4, elv_02=20.0, az_02=62, cno_02=43, svid_03=5, elv_03=6.0, az_03=164, cno_03=21, svid_04=6, elv_04=26.0, az_04=89, cno_04=41, signalID=7)>
2026-06-14 11:50:26,800 - INFO - <NMEA(GAGSV, numMsg=3, msgNum=2, numSV=12, svid_01=9, elv_01=25.0, az_01=116, cno_01=44, svid_02=10, elv_02=8.0, az_02=71, cno_02=45, svid_03=11, elv_03=33.0, az_03=60, cno_03=41, svid_04=14, elv_04=33.0, az_04=132, cno_04=48, signalID=7)>
2026-06-14 11:50:26,801 - INFO - <NMEA(GAGSV, numMsg=3, msgNum=3, numSV=12, svid_01=25, elv_01=24.0, az_01=185, cno_01=26, svid_02=28, elv_02=8.0, az_02=42, cno_02=45, svid_03=34, elv_03=32.0, az_03=276, cno_03=35, svid_04=36, elv_04=67.0, az_04=350, cno_04=38, signalID=7)>
2026-06-14 11:50:26,802 - INFO - <NMEA(GBGSV, numMsg=3, msgNum=1, numSV=10, svid_01=13, elv_01=56.0, az_01=318, cno_01=47, svid_02=14, elv_02=45.0, az_02=63, cno_02=50, svid_03=21, elv_03=26.0, az_03=44, cno_03=43, svid_04=23, elv_04=13.0, az_04=239, cno_04=24, signalID=1)>
2026-06-14 11:50:26,802 - INFO - <NMEA(GBGSV, numMsg=3, msgNum=2, numSV=10, svid_01=28, elv_01=28.0, az_01=302, cno_01=26, svid_02=33, elv_02=33.0, az_02=181, cno_02=39, svid_03=34, elv_03=30.0, az_03=102, cno_03=37, svid_04=37, elv_04=12.0, az_04=289, cno_04=31, signalID=1)>
2026-06-14 11:50:26,803 - INFO - <NMEA(GBGSV, numMsg=3, msgNum=3, numSV=10, svid_01=38, elv_01=75.0, az_01=13, cno_01=37, svid_02=42, elv_02=59.0, az_02=100, cno_02=45, signalID=1)>
2026-06-14 11:50:26,803 - INFO - <NMEA(GQGSV, numMsg=1, msgNum=1, numSV=0, signalID=0)>
2026-06-14 11:50:26,804 - INFO - <NMEA(GNGLL, lat=37.9008406667, NS=N, lon=-97.6642001667, EW=W, time=16:50:26.800000, status=A, posMode=D)>
2026-06-14 11:50:26,804 - INFO - <UBX(NAV-RELPOSNED, version=1, reserved0=0, refStationID=0, iTOW=16:50:26.800000, relPosN=51.07, relPosE=30.36, relPosD=0.91, relPosLength=59.42, relPosHeading=30.72992, reserved1=0, accN=10.0, accE=10.0, accD=12.1, accLength=10.0, accHeading=0.9644, reserved2=0, gnssFixOK=1, diffSoln=1, relPosValid=1, carrSoln=2, isMoving=1, refPosMiss=0, refObsMiss=0, relPosHeadingValid=1, relPosNormalized=0)>
2026-06-14 11:50:26,806 - INFO - 2026-06-14 11:50:26, current_target: {'timestamp': '2026-05-10 13:40:05', 'lat': 37.9008713333, 'lon': -97.66418, 'speed': 0.004629996, 'y_offset': 0.0, 'x_offset': 0.0, 'z_offset': 0.0, 'heading': 1.76477}, next_target: {'timestamp': '2026-05-10 13:40:06', 'lat': 37.9008713333, 'lon': -97.66418, 'speed': 0.00514444, 'y_offset': 0.0, 'x_offset': 0.0, 'z_offset': 0.0, 'heading': 1.76299}
2026-06-14 11:50:26,806 - INFO - 2026-06-14 11:50:26 [3.4 OBSERVED] current_turn_radius: infm
2026-06-14 11:50:26,806 - INFO - 2026-06-14 11:50:26 [3.4 OBSERVED] turn_direction: LEFT
2026-06-14 11:50:26,806 - INFO - 2026-06-14 11:50:26 [3.4 OBSERVED] estimated left/right wheel speeds: nan, nan rad/s
2026-06-14 11:50:26,811 - INFO - 2026-06-14 11:50:26 [STATE] Current state: NAVIGATING_TO_START
2026-06-14 11:50:26,811 - INFO - 2026-06-14 11:50:26 [NAV_TO_START] Phase: DRIVE_TO_START, Dist: 3.838m, Bearing err: -3.2°, Heading diff: 29.0°, Elapsed: 0.6s
2026-06-14 11:50:26,811 - INFO - 2026-06-14 11:50:26 [NAV_TO_START] DRIVE: bearing=27.5°, dist=3.84m, turn=LEFT, radius=25.73m, speed=1.00
2026-06-14 11:50:26,811 - INFO - 2026-06-14 11:50:26 Turn: LEFT, Radius: 25.73m, DLWS: 4.57 rad/s, DRWS: 4.69 rad/s
2026-06-14 11:50:26,811 - INFO - 2026-06-14 11:50:26 left_actuator_position: 799 (counts) from DLWS 4.567 rad/s
2026-06-14 11:50:26,812 - INFO - 2026-06-14 11:50:26 right_actuator_position: 791 (counts) from DRWS 4.693 rad/s
2026-06-14 11:50:26,812 - INFO - 2026-06-14 11:50:26 LAM: 24.55 mm/(rad/s), RAM: 24.55 mm/(rad/s)
2026-06-14 11:50:26,812 - INFO - 2026-06-14 11:50:26 DLAP: 112.09 mm, DRAP: 115.18 mm
2026-06-14 11:50:26,825 - INFO - Sent actuator positions to RoboClaw → M1 (left): 799, M2 (right): 791 (counts)
2026-06-14 11:50:26,825 - INFO - 2026-06-14 11:50:26 APPLY → left_pos: 799, right_pos: 791 (counts), DLAP: 112.09 mm, DRAP: 115.18 mm
2026-06-14 11:50:26,922 - INFO - <UBX(RXM-RTCM, version=2, crcFailed=0, msgUsed=2, subType=0, refStation=0, msgType=1074)>
2026-06-14 11:50:26,923 - INFO - <UBX(RXM-RTCM, version=2, crcFailed=0, msgUsed=2, subType=0, refStation=0, msgType=1084)>
2026-06-14 11:50:26,928 - INFO - <UBX(RXM-RTCM, version=2, crcFailed=0, msgUsed=2, subType=0, refStation=0, msgType=1094)>
2026-06-14 11:50:26,931 - INFO - <UBX(RXM-RTCM, version=2, crcFailed=0, msgUsed=2, subType=0, refStation=0, msgType=1124)>
2026-06-14 11:50:26,931 - INFO - <UBX(RXM-RTCM, version=2, crcFailed=0, msgUsed=2, subType=0, refStation=0, msgType=1230)>
2026-06-14 11:50:26,977 - INFO - <UBX(RXM-RTCM, version=2, crcFailed=0, msgUsed=2, subType=0, refStation=0, msgType=4072)>
2026-06-14 11:50:26,983 - INFO - <UBX(NAV-PVT, iTOW=16:50:27, year=2026, month=6, day=14, hour=16, min=50, second=27, validDate=1, validTime=1, fullyResolved=1, validMag=0, tAcc=21, nano=-169682, fixType=3, gnssFixOk=1, diffSoln=1, psmState=0, headVehValid=0, carrSoln=2, confirmedAvai=1, confirmedDate=1, confirmedTime=1, numSV=32, lon=-97.6642001, lat=37.9008406, height=406739, hMSL=432991, hAcc=952, vAcc=1422, velN=-10, velE=4, velD=-8, gSpeed=11, headMot=61.04776, sAcc=93, headAcc=180.0, pDOP=1.06, invalidLlh=0, lastCorrectionAge=1, reserved0=860630572, headVeh=0.0, magDec=0.0, magAcc=0.0)>
2026-06-14 11:50:26,984 - INFO - <NMEA(GNRMC, time=16:50:27, status=A, lat=37.9008406667, NS=N, lon=-97.6642001667, EW=W, spd=0.021, cog=, date=2026-06-14, mv=, mvEW=, posMode=R, navStatus=V)>
2026-06-14 11:50:26,984 - INFO - <NMEA(GNVTG, cogt=, cogtUnit=T, cogm=, cogmUnit=M, sogn=0.021, sognUnit=N, sogk=0.038, sogkUnit=K, posMode=D)>
2026-06-14 11:50:26,985 - INFO - <NMEA(GNGGA, time=16:50:27, lat=37.9008406667, NS=N, lon=-97.6642001667, EW=W, quality=4, numSV=12, HDOP=0.52, alt=433.0, altUnit=M, sep=-26.3, sepUnit=M, diffAge=0.2, diffStation=0)>
2026-06-14 11:50:26,985 - INFO - <NMEA(GNGSA, opMode=M, navMode=3, svid_01=5, svid_02=11, svid_03=12, svid_04=15, svid_05=20, svid_06=21, svid_07=25, svid_08=29, svid_09=, svid_10=, svid_11=, svid_12=, PDOP=1.06, HDOP=0.52, VDOP=0.93, systemId=1)>
2026-06-14 11:50:26,986 - INFO - <NMEA(GNGSA, opMode=M, navMode=3, svid_01=73, svid_02=82, svid_03=74, svid_04=69, svid_05=84, svid_06=83, svid_07=67, svid_08=, svid_09=, svid_10=, svid_11=, svid_12=, PDOP=1.06, HDOP=0.52, VDOP=0.93, systemId=2)>
2026-06-14 11:50:26,986 - INFO - <NMEA(GNGSA, opMode=M, navMode=3, svid_01=2, svid_02=4, svid_03=6, svid_04=9, svid_05=11, svid_06=25, svid_07=34, svid_08=36, svid_09=, svid_10=, svid_11=, svid_12=, PDOP=1.06, HDOP=0.52, VDOP=0.93, systemId=3)>
2026-06-14 11:50:26,987 - INFO - <NMEA(GNGSA, opMode=M, navMode=3, svid_01=13, svid_02=14, svid_03=21, svid_04=37, svid_05=33, svid_06=34, svid_07=28, svid_08=38, svid_09=42, svid_10=, svid_11=, svid_12=, PDOP=1.06, HDOP=0.52, VDOP=0.93, systemId=4)>
2026-06-14 11:50:26,987 - INFO - <NMEA(GNGSA, opMode=M, navMode=3, svid_01=, svid_02=, svid_03=, svid_04=, svid_05=, svid_06=, svid_07=, svid_08=, svid_09=, svid_10=, svid_11=, svid_12=, PDOP=1.06, HDOP=0.52, VDOP=0.93, systemId=5)>
2026-06-14 11:50:26,987 - INFO - <NMEA(GPGSV, numMsg=3, msgNum=1, numSV=11, svid_01=5, elv_01=84.0, az_01=54, cno_01=39, svid_02=11, elv_02=29.0, az_02=70, cno_02=45, svid_03=12, elv_03=22.0, az_03=194, cno_03=32, svid_04=13, elv_04=18.0, az_04=198, cno_04=35, signalID=1)>
2026-06-14 11:50:26,988 - INFO - <NMEA(GPGSV, numMsg=3, msgNum=2, numSV=11, svid_01=15, elv_01=21.0, az_01=170, cno_01=34, svid_02=18, elv_02=20.0, az_02=279, cno_02=29, svid_03=20, elv_03=30.0, az_03=139, cno_03=44, svid_04=21, elv_04=49.0, az_04=48, cno_04=43, signalID=1)>
2026-06-14 11:50:26,988 - INFO - <NMEA(GPGSV, numMsg=3, msgNum=3, numSV=11, svid_01=25, elv_01=35.0, az_01=233, cno_01=42, svid_02=29, elv_02=58.0, az_02=315, cno_02=48, svid_03=46, elv_03=35.0, az_03=225, cno_03=38, signalID=1)>
2026-06-14 11:50:26,989 - INFO - <NMEA(GPGSV, numMsg=3, msgNum=1, numSV=10, svid_01=5, elv_01=84.0, az_01=54, cno_01=34, svid_02=11, elv_02=29.0, az_02=70, cno_02=42, svid_03=12, elv_03=22.0, az_03=194, cno_03=23, svid_04=13, elv_04=18.0, az_04=198, cno_04=30, signalID=6)>
2026-06-14 11:50:26,990 - INFO - <NMEA(GPGSV, numMsg=3, msgNum=2, numSV=10, svid_01=15, elv_01=21.0, az_01=170, cno_01=19, svid_02=18, elv_02=20.0, az_02=279, cno_02=22, svid_03=20, elv_03=30.0, az_03=139, cno_03=37, svid_04=21, elv_04=49.0, az_04=48, cno_04=43, signalID=6)>
2026-06-14 11:50:26,990 - INFO - <NMEA(GPGSV, numMsg=3, msgNum=3, numSV=10, svid_01=25, elv_01=35.0, az_01=233, cno_01=35, svid_02=29, elv_02=58.0, az_02=315, cno_02=44, signalID=6)>
2026-06-14 11:50:26,991 - INFO - <NMEA(GPGSV, numMsg=1, msgNum=1, numSV=3, svid_01=23, elv_01=1.0, az_01=223, cno_01=, svid_02=44, elv_02=42.0, az_02=210, cno_02=, svid_03=48, elv_03=38.0, az_03=220, cno_03=, signalID=0)>
2026-06-14 11:50:26,991 - INFO - <NMEA(GLGSV, numMsg=3, msgNum=1, numSV=10, svid_01=66, elv_01=0.0, az_01=19, cno_01=29, svid_02=67, elv_02=43.0, az_02=54, cno_02=52, svid_03=68, elv_03=49.0, az_03=136, cno_03=39, svid_04=69, elv_04=12.0, az_04=176, cno_04=28, signalID=1)>
2026-06-14 11:50:26,992 - INFO - <NMEA(GLGSV, numMsg=3, msgNum=2, numSV=10, svid_01=73, elv_01=23.0, az_01=258, cno_01=34, svid_02=74, elv_02=21.0, az_02=308, cno_02=27, svid_03=80, elv_03=4.0, az_03=208, cno_03=18, svid_04=82, elv_04=36.0, az_04=71, cno_04=47, signalID=1)>
2026-06-14 11:50:26,992 - INFO - <NMEA(GLGSV, numMsg=3, msgNum=3, numSV=10, svid_01=83, elv_01=54.0, az_01=350, cno_01=49, svid_02=84, elv_02=16.0, az_02=299, cno_02=35, signalID=1)>
2026-06-14 11:50:26,993 - INFO - <NMEA(GLGSV, numMsg=2, msgNum=1, numSV=8, svid_01=67, elv_01=43.0, az_01=54, cno_01=43, svid_02=68, elv_02=49.0, az_02=136, cno_02=35, svid_03=69, elv_03=12.0, az_03=176, cno_03=26, svid_04=73, elv_04=23.0, az_04=258, cno_04=31, signalID=3)>
2026-06-14 11:50:26,993 - INFO - <NMEA(GLGSV, numMsg=2, msgNum=2, numSV=8, svid_01=80, elv_01=4.0, az_01=208, cno_01=16, svid_02=82, elv_02=36.0, az_02=71, cno_02=44, svid_03=83, elv_03=54.0, az_03=350, cno_03=41, svid_04=84, elv_04=16.0, az_04=299, cno_04=33, signalID=3)>
2026-06-14 11:50:26,994 - INFO - <NMEA(GAGSV, numMsg=3, msgNum=1, numSV=11, svid_01=2, elv_01=50.0, az_01=247, cno_01=46, svid_02=4, elv_02=20.0, az_02=62, cno_02=50, svid_03=6, elv_03=26.0, az_03=89, cno_03=47, svid_04=9, elv_04=25.0, az_04=116, cno_04=44, signalID=2)>
2026-06-14 11:50:26,995 - INFO - <NMEA(GAGSV, numMsg=3, msgNum=2, numSV=11, svid_01=10, elv_01=8.0, az_01=71, cno_01=44, svid_02=11, elv_02=33.0, az_02=60, cno_02=43, svid_03=14, elv_03=33.0, az_03=132, cno_03=48, svid_04=25, elv_04=24.0, az_04=185, cno_04=29, signalID=2)>
2026-06-14 11:50:26,995 - INFO - <NMEA(GAGSV, numMsg=3, msgNum=3, numSV=11, svid_01=28, elv_01=8.0, az_01=42, cno_01=37, svid_02=34, elv_02=32.0, az_02=276, cno_02=45, svid_03=36, elv_03=67.0, az_03=350, cno_03=45, signalID=2)>
2026-06-14 11:50:26,996 - INFO - <NMEA(GAGSV, numMsg=3, msgNum=1, numSV=12, svid_01=2, elv_01=50.0, az_01=247, cno_01=43, svid_02=4, elv_02=20.0, az_02=62, cno_02=43, svid_03=5, elv_03=6.0, az_03=164, cno_03=20, svid_04=6, elv_04=26.0, az_04=89, cno_04=40, signalID=7)>
2026-06-14 11:50:26,996 - INFO - <NMEA(GAGSV, numMsg=3, msgNum=2, numSV=12, svid_01=9, elv_01=25.0, az_01=116, cno_01=44, svid_02=10, elv_02=8.0, az_02=71, cno_02=45, svid_03=11, elv_03=33.0, az_03=60, cno_03=41, svid_04=14, elv_04=33.0, az_04=132, cno_04=48, signalID=7)>
2026-06-14 11:50:26,998 - INFO - <NMEA(GAGSV, numMsg=3, msgNum=3, numSV=12, svid_01=25, elv_01=24.0, az_01=185, cno_01=26, svid_02=28, elv_02=8.0, az_02=42, cno_02=45, svid_03=34, elv_03=32.0, az_03=276, cno_03=37, svid_04=36, elv_04=67.0, az_04=350, cno_04=38, signalID=7)>
2026-06-14 11:50:26,999 - INFO - <NMEA(GBGSV, numMsg=3, msgNum=1, numSV=10, svid_01=13, elv_01=56.0, az_01=318, cno_01=47, svid_02=14, elv_02=45.0, az_02=63, cno_02=49, svid_03=21, elv_03=26.0, az_03=44, cno_03=43, svid_04=23, elv_04=13.0, az_04=239, cno_04=24, signalID=1)>
2026-06-14 11:50:26,999 - INFO - <NMEA(GBGSV, numMsg=3, msgNum=2, numSV=10, svid_01=28, elv_01=28.0, az_01=302, cno_01=26, svid_02=33, elv_02=33.0, az_02=181, cno_02=40, svid_03=34, elv_03=30.0, az_03=102, cno_03=37, svid_04=37, elv_04=12.0, az_04=289, cno_04=30, signalID=1)>
2026-06-14 11:50:27,000 - INFO - <NMEA(GBGSV, numMsg=3, msgNum=3, numSV=10, svid_01=38, elv_01=75.0, az_01=13, cno_01=37, svid_02=42, elv_02=59.0, az_02=100, cno_02=45, signalID=1)>
2026-06-14 11:50:27,000 - INFO - <NMEA(GQGSV, numMsg=1, msgNum=1, numSV=0, signalID=0)>
2026-06-14 11:50:27,001 - INFO - <NMEA(GNGLL, lat=37.9008406667, NS=N, lon=-97.6642001667, EW=W, time=16:50:27, status=A, posMode=D)>
2026-06-14 11:50:27,001 - INFO - <UBX(NAV-RELPOSNED, version=1, reserved0=0, refStationID=0, iTOW=16:50:27, relPosN=50.99, relPosE=30.22, relPosD=0.55, relPosLength=59.27, relPosHeading=30.65752, reserved1=0, accN=10.0, accE=10.0, accD=11.7, accLength=10.0, accHeading=0.96667, reserved2=0, gnssFixOK=1, diffSoln=1, relPosValid=1, carrSoln=2, isMoving=1, refPosMiss=0, refObsMiss=0, relPosHeadingValid=1, relPosNormalized=0)>
2026-06-14 11:50:27,002 - INFO - 2026-06-14 11:50:26, current_target: {'timestamp': '2026-05-10 13:40:05', 'lat': 37.9008713333, 'lon': -97.66418, 'speed': 0.004629996, 'y_offset': 0.0, 'x_offset': 0.0, 'z_offset': 0.0, 'heading': 1.76477}, next_target: {'timestamp': '2026-05-10 13:40:06', 'lat': 37.9008713333, 'lon': -97.66418, 'speed': 0.00514444, 'y_offset': 0.0, 'x_offset': 0.0, 'z_offset': 0.0, 'heading': 1.76299}
2026-06-14 11:50:27,002 - INFO - 2026-06-14 11:50:26 [3.4 OBSERVED] current_turn_radius: infm
2026-06-14 11:50:27,003 - INFO - 2026-06-14 11:50:26 [3.4 OBSERVED] turn_direction: LEFT
2026-06-14 11:50:27,003 - INFO - 2026-06-14 11:50:26 [3.4 OBSERVED] estimated left/right wheel speeds: nan, nan rad/s
2026-06-14 11:50:27,005 - INFO - 2026-06-14 11:50:26 [STATE] Current state: NAVIGATING_TO_START
2026-06-14 11:50:27,005 - INFO - 2026-06-14 11:50:26 [NAV_TO_START] Phase: DRIVE_TO_START, Dist: 3.838m, Bearing err: -3.1°, Heading diff: 28.9°, Elapsed: 0.8s
2026-06-14 11:50:27,005 - INFO - 2026-06-14 11:50:26 [NAV_TO_START] DRIVE: bearing=27.5°, dist=3.84m, turn=LEFT, radius=26.32m, speed=1.00
2026-06-14 11:50:27,006 - INFO - 2026-06-14 11:50:26 Turn: LEFT, Radius: 26.32m, DLWS: 4.57 rad/s, DRWS: 4.69 rad/s
2026-06-14 11:50:27,006 - INFO - 2026-06-14 11:50:26 left_actuator_position: 799 (counts) from DLWS 4.568 rad/s
2026-06-14 11:50:27,006 - INFO - 2026-06-14 11:50:26 right_actuator_position: 791 (counts) from DRWS 4.691 rad/s
2026-06-14 11:50:27,006 - INFO - 2026-06-14 11:50:26 LAM: 24.55 mm/(rad/s), RAM: 24.55 mm/(rad/s)
2026-06-14 11:50:27,006 - INFO - 2026-06-14 11:50:26 DLAP: 112.13 mm, DRAP: 115.15 mm
2026-06-14 11:50:27,019 - INFO - Sent actuator positions to RoboClaw → M1 (left): 799, M2 (right): 791 (counts)
2026-06-14 11:50:27,019 - INFO - 2026-06-14 11:50:26 APPLY → left_pos: 799, right_pos: 791 (counts), DLAP: 112.13 mm, DRAP: 115.15 mm
2026-06-14 11:50:27,124 - INFO - <UBX(RXM-RTCM, version=2, crcFailed=0, msgUsed=2, subType=0, refStation=0, msgType=1074)>
2026-06-14 11:50:27,125 - INFO - <UBX(RXM-RTCM, version=2, crcFailed=0, msgUsed=2, subType=0, refStation=0, msgType=1084)>
2026-06-14 11:50:27,127 - INFO - <UBX(RXM-RTCM, version=2, crcFailed=0, msgUsed=2, subType=0, refStation=0, msgType=1094)>
2026-06-14 11:50:27,129 - INFO - <UBX(RXM-RTCM, version=2, crcFailed=0, msgUsed=2, subType=0, refStation=0, msgType=1124)>
2026-06-14 11:50:27,130 - INFO - <UBX(RXM-RTCM, version=2, crcFailed=0, msgUsed=2, subType=0, refStation=0, msgType=1230)>
2026-06-14 11:50:27,168 - INFO - <UBX(RXM-RTCM, version=2, crcFailed=0, msgUsed=2, subType=0, refStation=0, msgType=4072)>
2026-06-14 11:50:27,176 - INFO - <UBX(NAV-PVT, iTOW=16:50:27.200000, year=2026, month=6, day=14, hour=16, min=50, second=27, validDate=1, validTime=1, fullyResolved=1, validMag=0, tAcc=21, nano=199830276, fixType=3, gnssFixOk=1, diffSoln=1, psmState=0, headVehValid=0, carrSoln=2, confirmedAvai=1, confirmedDate=1, confirmedTime=1, numSV=32, lon=-97.6642001, lat=37.9008407, height=406736, hMSL=432988, hAcc=1024, vAcc=1529, velN=9, velE=24, velD=9, gSpeed=25, headMot=61.04776, sAcc=51, headAcc=170.42894, pDOP=1.06, invalidLlh=0, lastCorrectionAge=1, reserved0=860630572, headVeh=0.0, magDec=0.0, magAcc=0.0)>
2026-06-14 11:50:27,179 - INFO - <NMEA(GNRMC, time=16:50:27.200000, status=A, lat=37.9008406667, NS=N, lon=-97.6642, EW=W, spd=0.049, cog=, date=2026-06-14, mv=, mvEW=, posMode=R, navStatus=V)>
2026-06-14 11:50:27,179 - INFO - <NMEA(GNVTG, cogt=, cogtUnit=T, cogm=, cogmUnit=M, sogn=0.049, sognUnit=N, sogk=0.091, sogkUnit=K, posMode=D)>
2026-06-14 11:50:27,180 - INFO - <NMEA(GNGGA, time=16:50:27.200000, lat=37.9008406667, NS=N, lon=-97.6642, EW=W, quality=4, numSV=12, HDOP=0.52, alt=433.0, altUnit=M, sep=-26.3, sepUnit=M, diffAge=0.2, diffStation=0)>
2026-06-14 11:50:27,180 - INFO - <NMEA(GNGSA, opMode=M, navMode=3, svid_01=5, svid_02=11, svid_03=12, svid_04=15, svid_05=20, svid_06=21, svid_07=25, svid_08=29, svid_09=, svid_10=, svid_11=, svid_12=, PDOP=1.06, HDOP=0.52, VDOP=0.93, systemId=1)>
2026-06-14 11:50:27,181 - INFO - <NMEA(GNGSA, opMode=M, navMode=3, svid_01=73, svid_02=82, svid_03=74, svid_04=69, svid_05=84, svid_06=83, svid_07=67, svid_08=, svid_09=, svid_10=, svid_11=, svid_12=, PDOP=1.06, HDOP=0.52, VDOP=0.93, systemId=2)>
2026-06-14 11:50:27,181 - INFO - <NMEA(GNGSA, opMode=M, navMode=3, svid_01=2, svid_02=4, svid_03=6, svid_04=9, svid_05=11, svid_06=25, svid_07=34, svid_08=36, svid_09=, svid_10=, svid_11=, svid_12=, PDOP=1.06, HDOP=0.52, VDOP=0.93, systemId=3)>
2026-06-14 11:50:27,182 - INFO - <NMEA(GNGSA, opMode=M, navMode=3, svid_01=13, svid_02=14, svid_03=21, svid_04=37, svid_05=33, svid_06=34, svid_07=28, svid_08=38, svid_09=42, svid_10=, svid_11=, svid_12=, PDOP=1.06, HDOP=0.52, VDOP=0.93, systemId=4)>
2026-06-14 11:50:27,182 - INFO - <NMEA(GNGSA, opMode=M, navMode=3, svid_01=, svid_02=, svid_03=, svid_04=, svid_05=, svid_06=, svid_07=, svid_08=, svid_09=, svid_10=, svid_11=, svid_12=, PDOP=1.06, HDOP=0.52, VDOP=0.93, systemId=5)>
2026-06-14 11:50:27,183 - INFO - <NMEA(GPGSV, numMsg=3, msgNum=1, numSV=11, svid_01=5, elv_01=84.0, az_01=54, cno_01=39, svid_02=11, elv_02=29.0, az_02=70, cno_02=45, svid_03=12, elv_03=22.0, az_03=194, cno_03=32, svid_04=13, elv_04=18.0, az_04=198, cno_04=36, signalID=1)>
2026-06-14 11:50:27,183 - INFO - <NMEA(GPGSV, numMsg=3, msgNum=2, numSV=11, svid_01=15, elv_01=21.0, az_01=170, cno_01=34, svid_02=18, elv_02=20.0, az_02=279, cno_02=29, svid_03=20, elv_03=30.0, az_03=139, cno_03=44, svid_04=21, elv_04=49.0, az_04=48, cno_04=43, signalID=1)>
2026-06-14 11:50:27,184 - INFO - <NMEA(GPGSV, numMsg=3, msgNum=3, numSV=11, svid_01=25, elv_01=35.0, az_01=233, cno_01=42, svid_02=29, elv_02=58.0, az_02=315, cno_02=48, svid_03=46, elv_03=35.0, az_03=225, cno_03=38, signalID=1)>
2026-06-14 11:50:27,185 - INFO - <NMEA(GPGSV, numMsg=3, msgNum=1, numSV=10, svid_01=5, elv_01=84.0, az_01=54, cno_01=34, svid_02=11, elv_02=29.0, az_02=70, cno_02=41, svid_03=12, elv_03=22.0, az_03=194, cno_03=23, svid_04=13, elv_04=18.0, az_04=198, cno_04=29, signalID=6)>
2026-06-14 11:50:27,185 - INFO - <NMEA(GPGSV, numMsg=3, msgNum=2, numSV=10, svid_01=15, elv_01=21.0, az_01=170, cno_01=19, svid_02=18, elv_02=20.0, az_02=279, cno_02=22, svid_03=20, elv_03=30.0, az_03=139, cno_03=37, svid_04=21, elv_04=49.0, az_04=48, cno_04=43, signalID=6)>
2026-06-14 11:50:27,186 - INFO - <NMEA(GPGSV, numMsg=3, msgNum=3, numSV=10, svid_01=25, elv_01=35.0, az_01=233, cno_01=35, svid_02=29, elv_02=58.0, az_02=315, cno_02=44, signalID=6)>
2026-06-14 11:50:27,186 - INFO - <NMEA(GPGSV, numMsg=1, msgNum=1, numSV=3, svid_01=23, elv_01=1.0, az_01=223, cno_01=, svid_02=44, elv_02=42.0, az_02=210, cno_02=, svid_03=48, elv_03=38.0, az_03=220, cno_03=, signalID=0)>
2026-06-14 11:50:27,187 - INFO - <NMEA(GLGSV, numMsg=3, msgNum=1, numSV=10, svid_01=66, elv_01=0.0, az_01=19, cno_01=29, svid_02=67, elv_02=43.0, az_02=54, cno_02=51, svid_03=68, elv_03=49.0, az_03=136, cno_03=37, svid_04=69, elv_04=12.0, az_04=176, cno_04=28, signalID=1)>
2026-06-14 11:50:27,187 - INFO - <NMEA(GLGSV, numMsg=3, msgNum=2, numSV=10, svid_01=73, elv_01=23.0, az_01=258, cno_01=34, svid_02=74, elv_02=21.0, az_02=308, cno_02=27, svid_03=80, elv_03=4.0, az_03=208, cno_03=18, svid_04=82, elv_04=36.0, az_04=71, cno_04=47, signalID=1)>
2026-06-14 11:50:27,188 - INFO - <NMEA(GLGSV, numMsg=3, msgNum=3, numSV=10, svid_01=83, elv_01=54.0, az_01=350, cno_01=49, svid_02=84, elv_02=16.0, az_02=299, cno_02=35, signalID=1)>
2026-06-14 11:50:27,188 - INFO - <NMEA(GLGSV, numMsg=2, msgNum=1, numSV=8, svid_01=67, elv_01=43.0, az_01=54, cno_01=43, svid_02=68, elv_02=49.0, az_02=136, cno_02=34, svid_03=69, elv_03=12.0, az_03=176, cno_03=25, svid_04=73, elv_04=23.0, az_04=258, cno_04=30, signalID=3)>
2026-06-14 11:50:27,189 - INFO - <NMEA(GLGSV, numMsg=2, msgNum=2, numSV=8, svid_01=80, elv_01=4.0, az_01=208, cno_01=16, svid_02=82, elv_02=36.0, az_02=71, cno_02=44, svid_03=83, elv_03=54.0, az_03=350, cno_03=42, svid_04=84, elv_04=16.0, az_04=299, cno_04=33, signalID=3)>
2026-06-14 11:50:27,189 - INFO - <NMEA(GAGSV, numMsg=3, msgNum=1, numSV=11, svid_01=2, elv_01=50.0, az_01=247, cno_01=46, svid_02=4, elv_02=20.0, az_02=62, cno_02=49, svid_03=6, elv_03=26.0, az_03=89, cno_03=47, svid_04=9, elv_04=25.0, az_04=116, cno_04=43, signalID=2)>
2026-06-14 11:50:27,190 - INFO - <NMEA(GAGSV, numMsg=3, msgNum=2, numSV=11, svid_01=10, elv_01=8.0, az_01=71, cno_01=44, svid_02=11, elv_02=33.0, az_02=60, cno_02=43, svid_03=14, elv_03=33.0, az_03=132, cno_03=48, svid_04=25, elv_04=24.0, az_04=185, cno_04=29, signalID=2)>
2026-06-14 11:50:27,191 - INFO - <NMEA(GAGSV, numMsg=3, msgNum=3, numSV=11, svid_01=28, elv_01=8.0, az_01=42, cno_01=39, svid_02=34, elv_02=32.0, az_02=276, cno_02=45, svid_03=36, elv_03=67.0, az_03=350, cno_03=45, signalID=2)>
2026-06-14 11:50:27,191 - INFO - <NMEA(GAGSV, numMsg=3, msgNum=1, numSV=12, svid_01=2, elv_01=50.0, az_01=247, cno_01=43, svid_02=4, elv_02=20.0, az_02=62, cno_02=43, svid_03=5, elv_03=6.0, az_03=164, cno_03=20, svid_04=6, elv_04=26.0, az_04=89, cno_04=40, signalID=7)>
2026-06-14 11:50:27,192 - INFO - <NMEA(GAGSV, numMsg=3, msgNum=2, numSV=12, svid_01=9, elv_01=25.0, az_01=116, cno_01=44, svid_02=10, elv_02=8.0, az_02=71, cno_02=45, svid_03=11, elv_03=33.0, az_03=60, cno_03=41, svid_04=14, elv_04=33.0, az_04=132, cno_04=48, signalID=7)>
2026-06-14 11:50:27,192 - INFO - <NMEA(GAGSV, numMsg=3, msgNum=3, numSV=12, svid_01=25, elv_01=24.0, az_01=185, cno_01=27, svid_02=28, elv_02=8.0, az_02=42, cno_02=44, svid_03=34, elv_03=32.0, az_03=276, cno_03=37, svid_04=36, elv_04=67.0, az_04=350, cno_04=38, signalID=7)>
2026-06-14 11:50:27,193 - INFO - <NMEA(GBGSV, numMsg=3, msgNum=1, numSV=10, svid_01=13, elv_01=56.0, az_01=318, cno_01=47, svid_02=14, elv_02=45.0, az_02=63, cno_02=49, svid_03=21, elv_03=26.0, az_03=44, cno_03=44, svid_04=23, elv_04=13.0, az_04=239, cno_04=23, signalID=1)>
2026-06-14 11:50:27,193 - INFO - <NMEA(GBGSV, numMsg=3, msgNum=2, numSV=10, svid_01=28, elv_01=28.0, az_01=302, cno_01=26, svid_02=33, elv_02=33.0, az_02=181, cno_02=40, svid_03=34, elv_03=30.0, az_03=102, cno_03=37, svid_04=37, elv_04=12.0, az_04=289, cno_04=30, signalID=1)>
2026-06-14 11:50:27,194 - INFO - <NMEA(GBGSV, numMsg=3, msgNum=3, numSV=10, svid_01=38, elv_01=75.0, az_01=13, cno_01=38, svid_02=42, elv_02=59.0, az_02=100, cno_02=45, signalID=1)>
2026-06-14 11:50:27,194 - INFO - <NMEA(GQGSV, numMsg=1, msgNum=1, numSV=0, signalID=0)>
2026-06-14 11:50:27,195 - INFO - <NMEA(GNGLL, lat=37.9008406667, NS=N, lon=-97.6642, EW=W, time=16:50:27.200000, status=A, posMode=D)>
2026-06-14 11:50:27,195 - INFO - <UBX(NAV-RELPOSNED, version=1, reserved0=0, refStationID=0, iTOW=16:50:27.200000, relPosN=50.97, relPosE=30.65, relPosD=0.34, relPosLength=59.48, relPosHeading=31.02048, reserved1=0, accN=10.0, accE=10.0, accD=12.9, accLength=10.0, accHeading=0.96333, reserved2=0, gnssFixOK=1, diffSoln=1, relPosValid=1, carrSoln=2, isMoving=1, refPosMiss=0, refObsMiss=0, relPosHeadingValid=1, relPosNormalized=0)>
2026-06-14 11:50:27,196 - INFO - 2026-06-14 11:50:27, current_target: {'timestamp': '2026-05-10 13:40:05', 'lat': 37.9008713333, 'lon': -97.66418, 'speed': 0.004629996, 'y_offset': 0.0, 'x_offset': 0.0, 'z_offset': 0.0, 'heading': 1.76477}, next_target: {'timestamp': '2026-05-10 13:40:06', 'lat': 37.9008713333, 'lon': -97.66418, 'speed': 0.00514444, 'y_offset': 0.0, 'x_offset': 0.0, 'z_offset': 0.0, 'heading': 1.76299}
2026-06-14 11:50:27,196 - INFO - 2026-06-14 11:50:27 [3.4 OBSERVED] current_turn_radius: infm
2026-06-14 11:50:27,196 - INFO - 2026-06-14 11:50:27 [3.4 OBSERVED] turn_direction: RIGHT
2026-06-14 11:50:27,196 - INFO - 2026-06-14 11:50:27 [3.4 OBSERVED] estimated left/right wheel speeds: nan, nan rad/s
2026-06-14 11:50:27,199 - INFO - 2026-06-14 11:50:27 [STATE] Current state: NAVIGATING_TO_START
2026-06-14 11:50:27,199 - INFO - 2026-06-14 11:50:27 [NAV_TO_START] Phase: DRIVE_TO_START, Dist: 3.831m, Bearing err: -3.7°, Heading diff: 29.3°, Elapsed: 1.0s
2026-06-14 11:50:27,199 - INFO - 2026-06-14 11:50:27 [NAV_TO_START] DRIVE: bearing=27.3°, dist=3.83m, turn=LEFT, radius=22.31m, speed=1.00
2026-06-14 11:50:27,199 - INFO - 2026-06-14 11:50:27 Turn: LEFT, Radius: 22.31m, DLWS: 4.56 rad/s, DRWS: 4.70 rad/s
2026-06-14 11:50:27,199 - INFO - 2026-06-14 11:50:27 left_actuator_position: 800 (counts) from DLWS 4.557 rad/s
2026-06-14 11:50:27,200 - INFO - 2026-06-14 11:50:27 right_actuator_position: 791 (counts) from DRWS 4.702 rad/s
2026-06-14 11:50:27,200 - INFO - 2026-06-14 11:50:27 LAM: 24.55 mm/(rad/s), RAM: 24.55 mm/(rad/s)
2026-06-14 11:50:27,200 - INFO - 2026-06-14 11:50:27 DLAP: 111.85 mm, DRAP: 115.42 mm
2026-06-14 11:50:27,212 - INFO - Sent actuator positions to RoboClaw → M1 (left): 800, M2 (right): 791 (counts)
2026-06-14 11:50:27,213 - INFO - 2026-06-14 11:50:27 APPLY → left_pos: 800, right_pos: 791 (counts), DLAP: 111.85 mm, DRAP: 115.42 mm
2026-06-14 11:50:27,320 - INFO - <UBX(RXM-RTCM, version=2, crcFailed=0, msgUsed=2, subType=0, refStation=0, msgType=1074)>
2026-06-14 11:50:27,322 - INFO - <UBX(RXM-RTCM, version=2, crcFailed=0, msgUsed=2, subType=0, refStation=0, msgType=1084)>
2026-06-14 11:50:27,326 - INFO - <UBX(RXM-RTCM, version=2, crcFailed=0, msgUsed=2, subType=0, refStation=0, msgType=1094)>
2026-06-14 11:50:27,327 - INFO - <UBX(RXM-RTCM, version=2, crcFailed=0, msgUsed=2, subType=0, refStation=0, msgType=1124)>
2026-06-14 11:50:27,328 - INFO - <UBX(RXM-RTCM, version=2, crcFailed=0, msgUsed=2, subType=0, refStation=0, msgType=1230)>
2026-06-14 11:50:27,368 - INFO - <UBX(RXM-RTCM, version=2, crcFailed=0, msgUsed=2, subType=0, refStation=0, msgType=4072)>
2026-06-14 11:50:27,375 - INFO - <UBX(NAV-PVT, iTOW=16:50:27.400000, year=2026, month=6, day=14, hour=16, min=50, second=27, validDate=1, validTime=1, fullyResolved=1, validMag=0, tAcc=21, nano=399830235, fixType=3, gnssFixOk=1, diffSoln=1, psmState=0, headVehValid=0, carrSoln=2, confirmedAvai=1, confirmedDate=1, confirmedTime=1, numSV=32, lon=-97.6641996, lat=37.9008411, height=406719, hMSL=432972, hAcc=1039, vAcc=1553, velN=206, velE=164, velD=-2, gSpeed=263, headMot=38.4417, sAcc=66, headAcc=14.64221, pDOP=1.04, invalidLlh=0, lastCorrectionAge=1, reserved0=860630572, headVeh=0.0, magDec=0.0, magAcc=0.0)>
2026-06-14 11:50:27,377 - INFO - <NMEA(GNRMC, time=16:50:27.400000, status=A, lat=37.9008411667, NS=N, lon=-97.6641996667, EW=W, spd=0.511, cog=38.44, date=2026-06-14, mv=, mvEW=, posMode=R, navStatus=V)>
2026-06-14 11:50:27,378 - INFO - <NMEA(GNVTG, cogt=38.44, cogtUnit=T, cogm=, cogmUnit=M, sogn=0.511, sognUnit=N, sogk=0.947, sogkUnit=K, posMode=D)>
2026-06-14 11:50:27,379 - INFO - <NMEA(GNGGA, time=16:50:27.400000, lat=37.9008411667, NS=N, lon=-97.6641996667, EW=W, quality=4, numSV=12, HDOP=0.51, alt=433.0, altUnit=M, sep=-26.3, sepUnit=M, diffAge=0.2, diffStation=0)>
2026-06-14 11:50:27,380 - INFO - <NMEA(GNGSA, opMode=M, navMode=3, svid_01=5, svid_02=11, svid_03=12, svid_04=15, svid_05=20, svid_06=21, svid_07=25, svid_08=29, svid_09=, svid_10=, svid_11=, svid_12=, PDOP=1.04, HDOP=0.51, VDOP=0.91, systemId=1)>
2026-06-14 11:50:27,380 - INFO - <NMEA(GNGSA, opMode=M, navMode=3, svid_01=73, svid_02=82, svid_03=74, svid_04=69, svid_05=84, svid_06=83, svid_07=67, svid_08=, svid_09=, svid_10=, svid_11=, svid_12=, PDOP=1.04, HDOP=0.51, VDOP=0.91, systemId=2)>
