2026-07-18 11:31:59,146 - INFO - Logging initialized to /home/dali/Documents/ReMow-Rover-Tests/Repeat/Logs/readRecordedRun-2026-07-18_11-31-59.log
2026-07-18 11:31:59,148 - INFO - RoboClaw opened successfully on /dev/serial/by-id/usb-Basicmicro_Inc._USB_Roboclaw_2x15A-if00
2026-07-18 11:31:59,449 - INFO - Encoders reset to zero
2026-07-18 11:31:59,449 - INFO - Starting readRecordedRun with combination: 55
2026-07-18 11:31:59,449 - INFO - Selected most recent recording: 55_20260510-134004_GPSData.csv
2026-07-18 11:31:59,453 - INFO - GREEN_LED initialized on GPIO 17
2026-07-18 11:31:59,458 - INFO - ENU origin from first waypoint: 37.9008713333, -97.66418
2026-07-18 11:31:59,531 - INFO - Path model: 42 rows -> 37 points -> 36 segments, 40.7m total, leading dwell 3.0s
2026-07-18 11:31:59,545 - INFO - goto_positions: M1=1100, M2=1100 [Startup - ensuring neutral position]
2026-07-18 11:31:59,545 - INFO - Actuators initialized to neutral (1100)
2026-07-18 11:31:59,545 - INFO - === UNIFIED PATH FOLLOWER INITIALIZED ===
2026-07-18 11:31:59,545 - INFO - First segment: heading 3.8°, length 0.67m; path ends at (2.81E, 0.81N)
2026-07-18 11:31:59,545 - INFO - Initial state: FOLLOWING_PATH (follower mode ACQUIRE)
2026-07-18 11:31:59,545 - INFO - Acquire timeout: 300.0s
2026-07-18 11:31:59,545 - INFO - === WAITING FOR GPS RTK FIX ===
2026-07-18 11:31:59,545 - INFO - Need: relPosValid=1, carrSoln=2, relPosHeadingValid=1 (timeout: 60.0s)
2026-07-18 11:31:59,557 - INFO - GPS status: relPosValid=1, carrSoln=2, headingValid=1 (0.0s)
2026-07-18 11:31:59,558 - INFO - === GPS RTK FIXED — ready to navigate (0.0s) ===
2026-07-18 11:31:59,648 - INFO - <UBX(RXM-RTCM, version=2, crcFailed=0, msgUsed=2, subType=0, refStation=0, msgType=1074)>
2026-07-18 11:31:59,648 - INFO - Using persisted heading from driving to work area: 352.33° (captured at 2026-07-18 11:27:45)
2026-07-18 11:31:59,650 - INFO - <UBX(RXM-RTCM, version=2, crcFailed=0, msgUsed=2, subType=0, refStation=0, msgType=1084)>
2026-07-18 11:31:59,656 - INFO - <UBX(RXM-RTCM, version=2, crcFailed=0, msgUsed=2, subType=0, refStation=0, msgType=1094)>
2026-07-18 11:31:59,656 - INFO - <UBX(RXM-RTCM, version=2, crcFailed=0, msgUsed=2, subType=0, refStation=0, msgType=1124)>
2026-07-18 11:31:59,656 - INFO - <UBX(RXM-RTCM, version=2, crcFailed=0, msgUsed=2, subType=0, refStation=0, msgType=1230)>
2026-07-18 11:31:59,699 - INFO - <UBX(RXM-RTCM, version=2, crcFailed=0, msgUsed=2, subType=0, refStation=0, msgType=4072)>
2026-07-18 11:31:59,702 - INFO - <UBX(NAV-PVT, iTOW=16:31:59.600000, year=2026, month=7, day=18, hour=16, min=31, second=59, validDate=1, validTime=1, fullyResolved=1, validMag=0, tAcc=21, nano=600033218, fixType=3, gnssFixOk=1, diffSoln=1, psmState=0, headVehValid=0, carrSoln=2, confirmedAvai=1, confirmedDate=1, confirmedTime=1, numSV=29, lon=-97.6642091, lat=37.9008526, height=411009, hMSL=437262, hAcc=462, vAcc=742, velN=-1, velE=-3, velD=1, gSpeed=3, headMot=37.12779, sAcc=66, headAcc=180.0, pDOP=1.0, invalidLlh=0, lastCorrectionAge=1, reserved0=860630572, headVeh=0.0, magDec=0.0, magAcc=0.0)>
2026-07-18 11:31:59,703 - INFO - <NMEA(GNRMC, time=16:31:59.600000, status=A, lat=37.9008525, NS=N, lon=-97.6642091667, EW=W, spd=0.006, cog=, date=2026-07-18, mv=, mvEW=, posMode=R, navStatus=V)>
2026-07-18 11:31:59,704 - INFO - <NMEA(GNVTG, cogt=, cogtUnit=T, cogm=, cogmUnit=M, sogn=0.006, sognUnit=N, sogk=0.012, sogkUnit=K, posMode=D)>
2026-07-18 11:31:59,704 - INFO - <NMEA(GNGGA, time=16:31:59.600000, lat=37.9008525, NS=N, lon=-97.6642091667, EW=W, quality=4, numSV=12, HDOP=0.53, alt=437.3, altUnit=M, sep=-26.3, sepUnit=M, diffAge=0.2, diffStation=0)>
2026-07-18 11:31:59,705 - INFO - <NMEA(GNGSA, opMode=M, navMode=3, svid_01=5, svid_02=10, svid_03=15, svid_04=18, svid_05=20, svid_06=23, svid_07=29, svid_08=, svid_09=, svid_10=, svid_11=, svid_12=, PDOP=1.0, HDOP=0.53, VDOP=0.85, systemId=1)>
2026-07-18 11:31:59,705 - INFO - <NMEA(GNGSA, opMode=M, navMode=3, svid_01=70, svid_02=86, svid_03=87, svid_04=85, svid_05=71, svid_06=72, svid_07=, svid_08=, svid_09=, svid_10=, svid_11=, svid_12=, PDOP=1.0, HDOP=0.53, VDOP=0.85, systemId=2)>
2026-07-18 11:31:59,706 - INFO - <NMEA(GNGSA, opMode=M, navMode=3, svid_01=6, svid_02=4, svid_03=9, svid_04=10, svid_05=11, svid_06=12, svid_07=19, svid_08=25, svid_09=28, svid_10=36, svid_11=, svid_12=, PDOP=1.0, HDOP=0.53, VDOP=0.85, systemId=3)>
2026-07-18 11:31:59,707 - INFO - <NMEA(GNGSA, opMode=M, navMode=3, svid_01=28, svid_02=33, svid_03=32, svid_04=13, svid_05=27, svid_06=41, svid_07=, svid_08=, svid_09=, svid_10=, svid_11=, svid_12=, PDOP=1.0, HDOP=0.53, VDOP=0.85, systemId=4)>
2026-07-18 11:31:59,707 - INFO - <NMEA(GNGSA, opMode=M, navMode=3, svid_01=, svid_02=, svid_03=, svid_04=, svid_05=, svid_06=, svid_07=, svid_08=, svid_09=, svid_10=, svid_11=, svid_12=, PDOP=1.0, HDOP=0.53, VDOP=0.85, systemId=5)>
2026-07-18 11:31:59,707 - INFO - <NMEA(GPGSV, numMsg=4, msgNum=1, numSV=14, svid_01=5, elv_01=32.0, az_01=52, cno_01=50, svid_02=10, elv_02=13.0, az_02=249, cno_02=34, svid_03=15, elv_03=69.0, az_03=117, cno_03=45, svid_04=16, elv_04=10.0, az_04=305, cno_04=25, signalID=1)>
2026-07-18 11:31:59,708 - INFO - <NMEA(GPGSV, numMsg=4, msgNum=2, numSV=14, svid_01=18, elv_01=60.0, az_01=327, cno_01=46, svid_02=20, elv_02=47.0, az_02=64, cno_02=44, svid_03=21, elv_03=1.0, az_03=60, cno_03=37, svid_04=23, elv_04=43.0, az_04=262, cno_04=36, signalID=1)>
2026-07-18 11:31:59,709 - INFO - <NMEA(GPGSV, numMsg=4, msgNum=3, numSV=14, svid_01=24, elv_01=7.0, az_01=142, cno_01=39, svid_02=29, elv_02=57.0, az_02=185, cno_02=41, svid_03=30, elv_03=0.0, az_03=39, cno_03=29, svid_04=44, elv_04=42.0, az_04=210, cno_04=40, signalID=1)>
2026-07-18 11:31:59,709 - INFO - <NMEA(GPGSV, numMsg=4, msgNum=4, numSV=14, svid_01=46, elv_01=35.0, az_01=225, cno_01=37, svid_02=48, elv_02=38.0, az_02=220, cno_02=43, signalID=1)>
2026-07-18 11:31:59,711 - INFO - <NMEA(GPGSV, numMsg=3, msgNum=1, numSV=10, svid_01=5, elv_01=32.0, az_01=52, cno_01=39, svid_02=10, elv_02=13.0, az_02=249, cno_02=21, svid_03=15, elv_03=69.0, az_03=117, cno_03=40, svid_04=18, elv_04=60.0, az_04=327, cno_04=44, signalID=6)>
2026-07-18 11:31:59,711 - INFO - <NMEA(GPGSV, numMsg=3, msgNum=2, numSV=10, svid_01=20, elv_01=47.0, az_01=64, cno_01=42, svid_02=21, elv_02=1.0, az_02=60, cno_02=29, svid_03=23, elv_03=43.0, az_03=262, cno_03=35, svid_04=24, elv_04=7.0, az_04=142, cno_04=38, signalID=6)>
2026-07-18 11:31:59,711 - INFO - <NMEA(GPGSV, numMsg=3, msgNum=3, numSV=10, svid_01=26, elv_01=7.0, az_01=279, cno_01=28, svid_02=29, elv_02=57.0, az_02=185, cno_02=38, signalID=6)>
2026-07-18 11:31:59,712 - INFO - <NMEA(GLGSV, numMsg=2, msgNum=1, numSV=8, svid_01=70, elv_01=35.0, az_01=33, cno_01=46, svid_02=71, elv_02=78.0, az_02=182, cno_02=44, svid_03=72, elv_03=24.0, az_03=205, cno_03=35, svid_04=77, elv_04=2.0, az_04=297, cno_04=20, signalID=1)>
2026-07-18 11:31:59,713 - INFO - <NMEA(GLGSV, numMsg=2, msgNum=2, numSV=8, svid_01=84, elv_01=0.0, az_01=126, cno_01=18, svid_02=85, elv_02=40.0, az_02=112, cno_02=44, svid_03=86, elv_03=61.0, az_03=349, cno_03=46, svid_04=87, elv_04=23.0, az_04=322, cno_04=29, signalID=1)>
2026-07-18 11:31:59,713 - INFO - <NMEA(GLGSV, numMsg=2, msgNum=1, numSV=6, svid_01=70, elv_01=35.0, az_01=33, cno_01=39, svid_02=71, elv_02=78.0, az_02=182, cno_02=36, svid_03=72, elv_03=24.0, az_03=205, cno_03=31, svid_04=84, elv_04=0.0, az_04=126, cno_04=19, signalID=3)>
2026-07-18 11:31:59,714 - INFO - <NMEA(GLGSV, numMsg=2, msgNum=2, numSV=6, svid_01=85, elv_01=40.0, az_01=112, cno_01=41, svid_02=86, elv_02=61.0, az_02=349, cno_02=39, signalID=3)>
2026-07-18 11:31:59,714 - INFO - <NMEA(GAGSV, numMsg=3, msgNum=1, numSV=11, svid_01=4, elv_01=52.0, az_01=110, cno_01=42, svid_02=6, elv_02=45.0, az_02=150, cno_02=42, svid_03=9, elv_03=28.0, az_03=174, cno_03=36, svid_04=10, elv_04=55.0, az_04=67, cno_04=46, signalID=2)>
2026-07-18 11:31:59,715 - INFO - <NMEA(GAGSV, numMsg=3, msgNum=2, numSV=11, svid_01=11, elv_01=68.0, az_01=7, cno_01=43, svid_02=12, elv_02=33.0, az_02=86, cno_02=45, svid_03=16, elv_03=4.0, az_03=197, cno_03=22, svid_04=19, elv_04=24.0, az_04=46, cno_04=33, signalID=2)>
2026-07-18 11:31:59,715 - INFO - <NMEA(GAGSV, numMsg=3, msgNum=3, numSV=11, svid_01=25, elv_01=22.0, az_01=240, cno_01=39, svid_02=28, elv_02=43.0, az_02=74, cno_02=44, svid_03=36, elv_03=31.0, az_03=301, cno_03=39, signalID=2)>
2026-07-18 11:31:59,716 - INFO - <NMEA(GAGSV, numMsg=3, msgNum=1, numSV=11, svid_01=4, elv_01=52.0, az_01=110, cno_01=42, svid_02=6, elv_02=45.0, az_02=150, cno_02=38, svid_03=9, elv_03=28.0, az_03=174, cno_03=31, svid_04=10, elv_04=55.0, az_04=67, cno_04=44, signalID=7)>
2026-07-18 11:31:59,717 - INFO - <NMEA(GAGSV, numMsg=3, msgNum=2, numSV=11, svid_01=11, elv_01=68.0, az_01=7, cno_01=42, svid_02=12, elv_02=33.0, az_02=86, cno_02=38, svid_03=16, elv_03=4.0, az_03=197, cno_03=20, svid_04=19, elv_04=24.0, az_04=46, cno_04=40, signalID=7)>
2026-07-18 11:31:59,717 - INFO - <NMEA(GAGSV, numMsg=3, msgNum=3, numSV=11, svid_01=25, elv_01=22.0, az_01=240, cno_01=35, svid_02=28, elv_02=43.0, az_02=74, cno_02=48, svid_03=36, elv_03=31.0, az_03=301, cno_03=32, signalID=7)>
2026-07-18 11:31:59,718 - INFO - <NMEA(GBGSV, numMsg=2, msgNum=1, numSV=7, svid_01=13, elv_01=15.0, az_01=132, cno_01=41, svid_02=27, elv_02=90.0, az_02=13, cno_02=45, svid_03=28, elv_03=44.0, az_03=132, cno_03=40, svid_04=32, elv_04=42.0, az_04=217, cno_04=45, signalID=1)>
2026-07-18 11:31:59,719 - INFO - <NMEA(GBGSV, numMsg=2, msgNum=2, numSV=7, svid_01=33, elv_01=26.0, az_01=43, cno_01=44, svid_02=41, elv_02=76.0, az_02=59, cno_02=36, svid_03=58, elv_03=, az_03=, cno_03=40, signalID=1)>
2026-07-18 11:31:59,719 - INFO - <NMEA(GQGSV, numMsg=1, msgNum=1, numSV=0, signalID=0)>
2026-07-18 11:31:59,719 - INFO - <NMEA(GNGLL, lat=37.9008525, NS=N, lon=-97.6642091667, EW=W, time=16:31:59.600000, status=A, posMode=D)>
2026-07-18 11:31:59,720 - INFO - <UBX(NAV-RELPOSNED, version=1, reserved0=0, refStationID=0, iTOW=16:31:59.600000, relPosN=41.44, relPosE=64.25, relPosD=-14.09, relPosLength=77.74, relPosHeading=57.17642, reserved1=0, accN=10.0, accE=10.0, accD=10.0, accLength=10.0, accHeading=0.74944, reserved2=0, gnssFixOK=1, diffSoln=1, relPosValid=1, carrSoln=2, isMoving=1, refPosMiss=0, refObsMiss=0, relPosHeadingValid=1, relPosNormalized=0)>
2026-07-18 11:31:59,721 - INFO - 2026-07-18 11:31:59 Initial Moving Baseline state: active
2026-07-18 11:31:59,722 - INFO - 2026-07-18 11:31:59 Initial carrier solution: fixed
2026-07-18 11:31:59,848 - INFO - <UBX(RXM-RTCM, version=2, crcFailed=0, msgUsed=2, subType=0, refStation=0, msgType=1074)>
2026-07-18 11:31:59,848 - INFO - 2026-07-18 11:31:59 [3.4 OBSERVED] current_turn_radius: infm
2026-07-18 11:31:59,848 - INFO - 2026-07-18 11:31:59 [3.4 OBSERVED] turn_direction: STRAIGHT
2026-07-18 11:31:59,848 - INFO - 2026-07-18 11:31:59 [3.4 OBSERVED] estimated left/right wheel speeds: 0.003, 0.003 m/s
2026-07-18 11:31:59,851 - INFO - 2026-07-18 11:31:59 [STATE] Current state: FOLLOWING_PATH
2026-07-18 11:31:59,851 - INFO - 2026-07-18 11:31:59 [FOLLOW] ACQUIRE: progress=0.00m/40.7m seg=0 cross=3.31m alpha=-23.7° target=(0.14,1.99) R=3.05 LEFT v=1.07 dwell=0.0s
2026-07-18 11:31:59,851 - INFO - 2026-07-18 11:31:59 Turn: LEFT, R: 3.05m, v_L: 0.95 m/s, v_R: 1.19 m/s
2026-07-18 11:31:59,851 - INFO - 2026-07-18 11:31:59 left_actuator_position: 626 (counts) from v_L 0.947 m/s
2026-07-18 11:31:59,851 - INFO - 2026-07-18 11:31:59 right_actuator_position: 504 (counts) from v_R 1.193 m/s
2026-07-18 11:31:59,865 - INFO - Sent actuator positions to RoboClaw → M1 (left): 626, M2 (right): 504 (counts)
2026-07-18 11:31:59,865 - INFO - 2026-07-18 11:31:59 APPLY → left_pos: 626, right_pos: 504 (counts), v_L: 0.95 m/s, v_R: 1.19 m/s
2026-07-18 11:31:59,865 - INFO - 2026-07-18 11:31:59 Path tracking needs correction: heading_ok=False (alpha=23.7deg), distance_ok=False (cross=3.309m)
2026-07-18 11:31:59,865 - INFO - <UBX(RXM-RTCM, version=2, crcFailed=0, msgUsed=2, subType=0, refStation=0, msgType=1084)>
2026-07-18 11:31:59,865 - INFO - <UBX(RXM-RTCM, version=2, crcFailed=0, msgUsed=2, subType=0, refStation=0, msgType=1094)>
2026-07-18 11:31:59,865 - INFO - <UBX(RXM-RTCM, version=2, crcFailed=0, msgUsed=2, subType=0, refStation=0, msgType=1124)>
2026-07-18 11:31:59,866 - INFO - <UBX(RXM-RTCM, version=2, crcFailed=0, msgUsed=2, subType=0, refStation=0, msgType=1230)>
2026-07-18 11:31:59,897 - INFO - <UBX(RXM-RTCM, version=2, crcFailed=0, msgUsed=2, subType=0, refStation=0, msgType=4072)>
2026-07-18 11:31:59,910 - INFO - <UBX(NAV-PVT, iTOW=16:31:59.800000, year=2026, month=7, day=18, hour=16, min=31, second=59, validDate=1, validTime=1, fullyResolved=1, validMag=0, tAcc=21, nano=800033179, fixType=3, gnssFixOk=1, diffSoln=1, psmState=0, headVehValid=0, carrSoln=2, confirmedAvai=1, confirmedDate=1, confirmedTime=1, numSV=29, lon=-97.6642091, lat=37.9008526, height=411005, hMSL=437258, hAcc=469, vAcc=753, velN=-1, velE=0, velD=13, gSpeed=1, headMot=37.12779, sAcc=87, headAcc=180.0, pDOP=1.0, invalidLlh=0, lastCorrectionAge=1, reserved0=860630572, headVeh=0.0, magDec=0.0, magAcc=0.0)>
2026-07-18 11:31:59,911 - INFO - <NMEA(GNRMC, time=16:31:59.800000, status=A, lat=37.9008525, NS=N, lon=-97.6642091667, EW=W, spd=0.001, cog=, date=2026-07-18, mv=, mvEW=, posMode=R, navStatus=V)>
2026-07-18 11:31:59,911 - INFO - <NMEA(GNVTG, cogt=, cogtUnit=T, cogm=, cogmUnit=M, sogn=0.001, sognUnit=N, sogk=0.002, sogkUnit=K, posMode=D)>
2026-07-18 11:31:59,912 - INFO - <NMEA(GNGGA, time=16:31:59.800000, lat=37.9008525, NS=N, lon=-97.6642091667, EW=W, quality=4, numSV=12, HDOP=0.53, alt=437.3, altUnit=M, sep=-26.3, sepUnit=M, diffAge=0.2, diffStation=0)>
2026-07-18 11:31:59,912 - INFO - <NMEA(GNGSA, opMode=M, navMode=3, svid_01=5, svid_02=10, svid_03=15, svid_04=18, svid_05=20, svid_06=23, svid_07=29, svid_08=, svid_09=, svid_10=, svid_11=, svid_12=, PDOP=1.0, HDOP=0.53, VDOP=0.85, systemId=1)>
2026-07-18 11:31:59,913 - INFO - <NMEA(GNGSA, opMode=M, navMode=3, svid_01=70, svid_02=86, svid_03=87, svid_04=85, svid_05=71, svid_06=72, svid_07=, svid_08=, svid_09=, svid_10=, svid_11=, svid_12=, PDOP=1.0, HDOP=0.53, VDOP=0.85, systemId=2)>
2026-07-18 11:31:59,913 - INFO - <NMEA(GNGSA, opMode=M, navMode=3, svid_01=6, svid_02=4, svid_03=9, svid_04=10, svid_05=11, svid_06=12, svid_07=19, svid_08=25, svid_09=28, svid_10=36, svid_11=, svid_12=, PDOP=1.0, HDOP=0.53, VDOP=0.85, systemId=3)>
2026-07-18 11:31:59,914 - INFO - <NMEA(GNGSA, opMode=M, navMode=3, svid_01=28, svid_02=33, svid_03=32, svid_04=13, svid_05=27, svid_06=41, svid_07=, svid_08=, svid_09=, svid_10=, svid_11=, svid_12=, PDOP=1.0, HDOP=0.53, VDOP=0.85, systemId=4)>
2026-07-18 11:31:59,914 - INFO - <NMEA(GNGSA, opMode=M, navMode=3, svid_01=, svid_02=, svid_03=, svid_04=, svid_05=, svid_06=, svid_07=, svid_08=, svid_09=, svid_10=, svid_11=, svid_12=, PDOP=1.0, HDOP=0.53, VDOP=0.85, systemId=5)>
2026-07-18 11:31:59,915 - INFO - <NMEA(GPGSV, numMsg=4, msgNum=1, numSV=14, svid_01=5, elv_01=32.0, az_01=52, cno_01=50, svid_02=10, elv_02=13.0, az_02=249, cno_02=34, svid_03=15, elv_03=69.0, az_03=117, cno_03=45, svid_04=16, elv_04=10.0, az_04=305, cno_04=25, signalID=1)>
2026-07-18 11:31:59,916 - INFO - <NMEA(GPGSV, numMsg=4, msgNum=2, numSV=14, svid_01=18, elv_01=60.0, az_01=327, cno_01=46, svid_02=20, elv_02=47.0, az_02=64, cno_02=44, svid_03=21, elv_03=1.0, az_03=60, cno_03=37, svid_04=23, elv_04=43.0, az_04=262, cno_04=36, signalID=1)>
2026-07-18 11:31:59,916 - INFO - <NMEA(GPGSV, numMsg=4, msgNum=3, numSV=14, svid_01=24, elv_01=7.0, az_01=142, cno_01=39, svid_02=29, elv_02=57.0, az_02=185, cno_02=41, svid_03=30, elv_03=0.0, az_03=39, cno_03=29, svid_04=44, elv_04=42.0, az_04=210, cno_04=40, signalID=1)>
2026-07-18 11:31:59,917 - INFO - <NMEA(GPGSV, numMsg=4, msgNum=4, numSV=14, svid_01=46, elv_01=35.0, az_01=225, cno_01=37, svid_02=48, elv_02=38.0, az_02=220, cno_02=43, signalID=1)>
2026-07-18 11:31:59,917 - INFO - <NMEA(GPGSV, numMsg=3, msgNum=1, numSV=10, svid_01=5, elv_01=32.0, az_01=52, cno_01=39, svid_02=10, elv_02=13.0, az_02=249, cno_02=21, svid_03=15, elv_03=69.0, az_03=117, cno_03=40, svid_04=18, elv_04=60.0, az_04=327, cno_04=44, signalID=6)>
2026-07-18 11:31:59,918 - INFO - <NMEA(GPGSV, numMsg=3, msgNum=2, numSV=10, svid_01=20, elv_01=47.0, az_01=64, cno_01=42, svid_02=21, elv_02=1.0, az_02=60, cno_02=29, svid_03=23, elv_03=43.0, az_03=262, cno_03=35, svid_04=24, elv_04=7.0, az_04=142, cno_04=38, signalID=6)>
2026-07-18 11:31:59,918 - INFO - <NMEA(GPGSV, numMsg=3, msgNum=3, numSV=10, svid_01=26, elv_01=7.0, az_01=279, cno_01=28, svid_02=29, elv_02=57.0, az_02=185, cno_02=38, signalID=6)>
2026-07-18 11:31:59,919 - INFO - <NMEA(GLGSV, numMsg=2, msgNum=1, numSV=8, svid_01=70, elv_01=35.0, az_01=33, cno_01=46, svid_02=71, elv_02=78.0, az_02=182, cno_02=44, svid_03=72, elv_03=24.0, az_03=205, cno_03=34, svid_04=77, elv_04=2.0, az_04=297, cno_04=20, signalID=1)>
2026-07-18 11:31:59,919 - INFO - <NMEA(GLGSV, numMsg=2, msgNum=2, numSV=8, svid_01=84, elv_01=0.0, az_01=126, cno_01=18, svid_02=85, elv_02=40.0, az_02=112, cno_02=44, svid_03=86, elv_03=61.0, az_03=349, cno_03=46, svid_04=87, elv_04=23.0, az_04=322, cno_04=29, signalID=1)>
2026-07-18 11:31:59,920 - INFO - <NMEA(GLGSV, numMsg=2, msgNum=1, numSV=6, svid_01=70, elv_01=35.0, az_01=33, cno_01=39, svid_02=71, elv_02=78.0, az_02=182, cno_02=36, svid_03=72, elv_03=24.0, az_03=205, cno_03=30, svid_04=84, elv_04=0.0, az_04=126, cno_04=20, signalID=3)>
2026-07-18 11:31:59,920 - INFO - <NMEA(GLGSV, numMsg=2, msgNum=2, numSV=6, svid_01=85, elv_01=40.0, az_01=112, cno_01=41, svid_02=86, elv_02=61.0, az_02=349, cno_02=39, signalID=3)>
2026-07-18 11:31:59,921 - INFO - <NMEA(GAGSV, numMsg=3, msgNum=1, numSV=11, svid_01=4, elv_01=52.0, az_01=110, cno_01=42, svid_02=6, elv_02=45.0, az_02=150, cno_02=42, svid_03=9, elv_03=28.0, az_03=174, cno_03=36, svid_04=10, elv_04=55.0, az_04=67, cno_04=46, signalID=2)>
2026-07-18 11:31:59,922 - INFO - <NMEA(GAGSV, numMsg=3, msgNum=2, numSV=11, svid_01=11, elv_01=68.0, az_01=7, cno_01=43, svid_02=12, elv_02=33.0, az_02=86, cno_02=45, svid_03=16, elv_03=4.0, az_03=197, cno_03=22, svid_04=19, elv_04=24.0, az_04=46, cno_04=33, signalID=2)>
2026-07-18 11:31:59,922 - INFO - <NMEA(GAGSV, numMsg=3, msgNum=3, numSV=11, svid_01=25, elv_01=22.0, az_01=240, cno_01=39, svid_02=28, elv_02=43.0, az_02=74, cno_02=44, svid_03=36, elv_03=31.0, az_03=301, cno_03=39, signalID=2)>
2026-07-18 11:31:59,923 - INFO - <NMEA(GAGSV, numMsg=3, msgNum=1, numSV=11, svid_01=4, elv_01=52.0, az_01=110, cno_01=42, svid_02=6, elv_02=45.0, az_02=150, cno_02=38, svid_03=9, elv_03=28.0, az_03=174, cno_03=31, svid_04=10, elv_04=55.0, az_04=67, cno_04=44, signalID=7)>
2026-07-18 11:31:59,923 - INFO - <NMEA(GAGSV, numMsg=3, msgNum=2, numSV=11, svid_01=11, elv_01=68.0, az_01=7, cno_01=42, svid_02=12, elv_02=33.0, az_02=86, cno_02=38, svid_03=16, elv_03=4.0, az_03=197, cno_03=21, svid_04=19, elv_04=24.0, az_04=46, cno_04=40, signalID=7)>
2026-07-18 11:31:59,924 - INFO - <NMEA(GAGSV, numMsg=3, msgNum=3, numSV=11, svid_01=25, elv_01=22.0, az_01=240, cno_01=36, svid_02=28, elv_02=43.0, az_02=74, cno_02=48, svid_03=36, elv_03=31.0, az_03=301, cno_03=32, signalID=7)>
2026-07-18 11:31:59,924 - INFO - <NMEA(GBGSV, numMsg=2, msgNum=1, numSV=7, svid_01=13, elv_01=15.0, az_01=132, cno_01=41, svid_02=27, elv_02=90.0, az_02=13, cno_02=45, svid_03=28, elv_03=44.0, az_03=132, cno_03=40, svid_04=32, elv_04=42.0, az_04=217, cno_04=45, signalID=1)>
2026-07-18 11:31:59,925 - INFO - <NMEA(GBGSV, numMsg=2, msgNum=2, numSV=7, svid_01=33, elv_01=26.0, az_01=43, cno_01=44, svid_02=41, elv_02=76.0, az_02=59, cno_02=36, svid_03=58, elv_03=, az_03=, cno_03=40, signalID=1)>
2026-07-18 11:31:59,925 - INFO - <NMEA(GQGSV, numMsg=1, msgNum=1, numSV=0, signalID=0)>
2026-07-18 11:31:59,926 - INFO - <NMEA(GNGLL, lat=37.9008525, NS=N, lon=-97.6642091667, EW=W, time=16:31:59.800000, status=A, posMode=D)>
2026-07-18 11:31:59,926 - INFO - <UBX(NAV-RELPOSNED, version=1, reserved0=0, refStationID=0, iTOW=16:31:59.800000, relPosN=41.43, relPosE=64.46, relPosD=-14.14, relPosLength=77.92, relPosHeading=57.26791, reserved1=0, accN=10.0, accE=10.0, accD=10.0, accLength=10.0, accHeading=0.74769, reserved2=0, gnssFixOK=1, diffSoln=1, relPosValid=1, carrSoln=2, isMoving=1, refPosMiss=0, refObsMiss=0, relPosHeadingValid=1, relPosNormalized=0)>
2026-07-18 11:31:59,927 - INFO - 2026-07-18 11:31:59 [3.4 OBSERVED] current_turn_radius: infm
2026-07-18 11:31:59,927 - INFO - 2026-07-18 11:31:59 [3.4 OBSERVED] turn_direction: RIGHT
2026-07-18 11:31:59,927 - INFO - 2026-07-18 11:31:59 [3.4 OBSERVED] estimated left/right wheel speeds: nan, nan m/s
2026-07-18 11:31:59,929 - INFO - 2026-07-18 11:31:59 [STATE] Current state: FOLLOWING_PATH
2026-07-18 11:31:59,929 - INFO - 2026-07-18 11:31:59 [FOLLOW] ACQUIRE: progress=0.00m/40.7m seg=0 cross=3.31m alpha=-23.7° target=(0.14,1.99) R=3.04 LEFT v=1.07 dwell=0.0s
2026-07-18 11:31:59,929 - INFO - 2026-07-18 11:31:59 Turn: LEFT, R: 3.04m, v_L: 0.95 m/s, v_R: 1.19 m/s
2026-07-18 11:31:59,929 - INFO - 2026-07-18 11:31:59 left_actuator_position: 627 (counts) from v_L 0.947 m/s
2026-07-18 11:31:59,929 - INFO - 2026-07-18 11:31:59 right_actuator_position: 503 (counts) from v_R 1.193 m/s
2026-07-18 11:31:59,945 - INFO - Sent actuator positions to RoboClaw → M1 (left): 627, M2 (right): 503 (counts)
2026-07-18 11:31:59,945 - INFO - 2026-07-18 11:31:59 APPLY → left_pos: 627, right_pos: 503 (counts), v_L: 0.95 m/s, v_R: 1.19 m/s
2026-07-18 11:31:59,945 - INFO - 2026-07-18 11:31:59 Path tracking needs correction: heading_ok=False (alpha=23.7deg), distance_ok=False (cross=3.309m)
2026-07-18 11:32:00,047 - INFO - <UBX(RXM-RTCM, version=2, crcFailed=0, msgUsed=2, subType=0, refStation=0, msgType=1074)>
2026-07-18 11:32:00,050 - INFO - <UBX(RXM-RTCM, version=2, crcFailed=0, msgUsed=2, subType=0, refStation=0, msgType=1084)>
2026-07-18 11:32:00,054 - INFO - <UBX(RXM-RTCM, version=2, crcFailed=0, msgUsed=2, subType=0, refStation=0, msgType=1094)>
2026-07-18 11:32:00,056 - INFO - <UBX(RXM-RTCM, version=2, crcFailed=0, msgUsed=2, subType=0, refStation=0, msgType=1124)>
2026-07-18 11:32:00,056 - INFO - <UBX(RXM-RTCM, version=2, crcFailed=0, msgUsed=2, subType=0, refStation=0, msgType=1230)>
2026-07-18 11:32:00,117 - INFO - <UBX(RXM-RTCM, version=2, crcFailed=0, msgUsed=2, subType=0, refStation=0, msgType=4072)>
2026-07-18 11:32:00,128 - INFO - <UBX(NAV-PVT, iTOW=16:32:00, year=2026, month=7, day=18, hour=16, min=32, second=0, validDate=1, validTime=1, fullyResolved=1, validMag=0, tAcc=21, nano=33140, fixType=3, gnssFixOk=1, diffSoln=1, psmState=0, headVehValid=0, carrSoln=2, confirmedAvai=1, confirmedDate=1, confirmedTime=1, numSV=29, lon=-97.6642092, lat=37.9008525, height=411007, hMSL=437260, hAcc=461, vAcc=740, velN=4, velE=-13, velD=14, gSpeed=14, headMot=37.12779, sAcc=89, headAcc=180.0, pDOP=1.0, invalidLlh=0, lastCorrectionAge=1, reserved0=860630572, headVeh=0.0, magDec=0.0, magAcc=0.0)>
2026-07-18 11:32:00,129 - INFO - <NMEA(GNRMC, time=16:32:00, status=A, lat=37.9008525, NS=N, lon=-97.6642091667, EW=W, spd=0.027, cog=, date=2026-07-18, mv=, mvEW=, posMode=R, navStatus=V)>
2026-07-18 11:32:00,130 - INFO - <NMEA(GNVTG, cogt=, cogtUnit=T, cogm=, cogmUnit=M, sogn=0.027, sognUnit=N, sogk=0.05, sogkUnit=K, posMode=D)>
2026-07-18 11:32:00,130 - INFO - <NMEA(GNGGA, time=16:32:00, lat=37.9008525, NS=N, lon=-97.6642091667, EW=W, quality=4, numSV=12, HDOP=0.53, alt=437.3, altUnit=M, sep=-26.3, sepUnit=M, diffAge=0.2, diffStation=0)>
2026-07-18 11:32:00,131 - INFO - <NMEA(GNGSA, opMode=M, navMode=3, svid_01=5, svid_02=10, svid_03=15, svid_04=18, svid_05=20, svid_06=23, svid_07=29, svid_08=, svid_09=, svid_10=, svid_11=, svid_12=, PDOP=1.0, HDOP=0.53, VDOP=0.85, systemId=1)>
2026-07-18 11:32:00,131 - INFO - <NMEA(GNGSA, opMode=M, navMode=3, svid_01=70, svid_02=86, svid_03=87, svid_04=85, svid_05=71, svid_06=72, svid_07=, svid_08=, svid_09=, svid_10=, svid_11=, svid_12=, PDOP=1.0, HDOP=0.53, VDOP=0.85, systemId=2)>
2026-07-18 11:32:00,131 - INFO - <NMEA(GNGSA, opMode=M, navMode=3, svid_01=6, svid_02=4, svid_03=9, svid_04=10, svid_05=11, svid_06=12, svid_07=19, svid_08=25, svid_09=28, svid_10=36, svid_11=, svid_12=, PDOP=1.0, HDOP=0.53, VDOP=0.85, systemId=3)>
2026-07-18 11:32:00,132 - INFO - <NMEA(GNGSA, opMode=M, navMode=3, svid_01=28, svid_02=33, svid_03=32, svid_04=13, svid_05=27, svid_06=41, svid_07=, svid_08=, svid_09=, svid_10=, svid_11=, svid_12=, PDOP=1.0, HDOP=0.53, VDOP=0.85, systemId=4)>
2026-07-18 11:32:00,133 - INFO - <NMEA(GNGSA, opMode=M, navMode=3, svid_01=, svid_02=, svid_03=, svid_04=, svid_05=, svid_06=, svid_07=, svid_08=, svid_09=, svid_10=, svid_11=, svid_12=, PDOP=1.0, HDOP=0.53, VDOP=0.85, systemId=5)>
2026-07-18 11:32:00,133 - INFO - <NMEA(GPGSV, numMsg=4, msgNum=1, numSV=14, svid_01=5, elv_01=32.0, az_01=52, cno_01=50, svid_02=10, elv_02=13.0, az_02=249, cno_02=34, svid_03=15, elv_03=69.0, az_03=117, cno_03=45, svid_04=16, elv_04=10.0, az_04=305, cno_04=24, signalID=1)>
2026-07-18 11:32:00,134 - INFO - <NMEA(GPGSV, numMsg=4, msgNum=2, numSV=14, svid_01=18, elv_01=60.0, az_01=327, cno_01=46, svid_02=20, elv_02=47.0, az_02=64, cno_02=44, svid_03=21, elv_03=1.0, az_03=60, cno_03=37, svid_04=23, elv_04=43.0, az_04=262, cno_04=36, signalID=1)>
2026-07-18 11:32:00,135 - INFO - <NMEA(GPGSV, numMsg=4, msgNum=3, numSV=14, svid_01=24, elv_01=7.0, az_01=142, cno_01=39, svid_02=29, elv_02=57.0, az_02=185, cno_02=41, svid_03=30, elv_03=0.0, az_03=39, cno_03=29, svid_04=44, elv_04=42.0, az_04=210, cno_04=40, signalID=1)>
2026-07-18 11:32:00,136 - INFO - <NMEA(GPGSV, numMsg=4, msgNum=4, numSV=14, svid_01=46, elv_01=35.0, az_01=225, cno_01=38, svid_02=48, elv_02=38.0, az_02=220, cno_02=43, signalID=1)>
2026-07-18 11:32:00,137 - INFO - <NMEA(GPGSV, numMsg=3, msgNum=1, numSV=10, svid_01=5, elv_01=32.0, az_01=52, cno_01=39, svid_02=10, elv_02=13.0, az_02=249, cno_02=21, svid_03=15, elv_03=69.0, az_03=117, cno_03=40, svid_04=18, elv_04=60.0, az_04=327, cno_04=44, signalID=6)>
2026-07-18 11:32:00,138 - INFO - <NMEA(GPGSV, numMsg=3, msgNum=2, numSV=10, svid_01=20, elv_01=47.0, az_01=64, cno_01=42, svid_02=21, elv_02=1.0, az_02=60, cno_02=29, svid_03=23, elv_03=43.0, az_03=262, cno_03=36, svid_04=24, elv_04=7.0, az_04=142, cno_04=38, signalID=6)>
2026-07-18 11:32:00,139 - INFO - <NMEA(GPGSV, numMsg=3, msgNum=3, numSV=10, svid_01=26, elv_01=7.0, az_01=279, cno_01=28, svid_02=29, elv_02=57.0, az_02=185, cno_02=38, signalID=6)>
2026-07-18 11:32:00,139 - INFO - <NMEA(GLGSV, numMsg=2, msgNum=1, numSV=8, svid_01=70, elv_01=35.0, az_01=33, cno_01=45, svid_02=71, elv_02=78.0, az_02=182, cno_02=44, svid_03=72, elv_03=24.0, az_03=205, cno_03=35, svid_04=77, elv_04=2.0, az_04=297, cno_04=20, signalID=1)>
2026-07-18 11:32:00,140 - INFO - <NMEA(GLGSV, numMsg=2, msgNum=2, numSV=8, svid_01=84, elv_01=0.0, az_01=126, cno_01=17, svid_02=85, elv_02=40.0, az_02=112, cno_02=44, svid_03=86, elv_03=61.0, az_03=349, cno_03=46, svid_04=87, elv_04=23.0, az_04=322, cno_04=29, signalID=1)>
2026-07-18 11:32:00,141 - INFO - <NMEA(GLGSV, numMsg=2, msgNum=1, numSV=6, svid_01=70, elv_01=35.0, az_01=33, cno_01=39, svid_02=71, elv_02=78.0, az_02=182, cno_02=36, svid_03=72, elv_03=24.0, az_03=205, cno_03=30, svid_04=84, elv_04=0.0, az_04=126, cno_04=20, signalID=3)>
2026-07-18 11:32:00,141 - INFO - <NMEA(GLGSV, numMsg=2, msgNum=2, numSV=6, svid_01=85, elv_01=40.0, az_01=112, cno_01=41, svid_02=86, elv_02=61.0, az_02=349, cno_02=39, signalID=3)>
2026-07-18 11:32:00,142 - INFO - <NMEA(GAGSV, numMsg=3, msgNum=1, numSV=11, svid_01=4, elv_01=52.0, az_01=110, cno_01=41, svid_02=6, elv_02=45.0, az_02=150, cno_02=42, svid_03=9, elv_03=28.0, az_03=174, cno_03=36, svid_04=10, elv_04=55.0, az_04=67, cno_04=46, signalID=2)>
2026-07-18 11:32:00,143 - INFO - <NMEA(GAGSV, numMsg=3, msgNum=2, numSV=11, svid_01=11, elv_01=68.0, az_01=7, cno_01=43, svid_02=12, elv_02=33.0, az_02=86, cno_02=45, svid_03=16, elv_03=4.0, az_03=197, cno_03=23, svid_04=19, elv_04=24.0, az_04=46, cno_04=33, signalID=2)>
2026-07-18 11:32:00,144 - INFO - <NMEA(GAGSV, numMsg=3, msgNum=3, numSV=11, svid_01=25, elv_01=22.0, az_01=240, cno_01=39, svid_02=28, elv_02=43.0, az_02=74, cno_02=44, svid_03=36, elv_03=31.0, az_03=301, cno_03=40, signalID=2)>
2026-07-18 11:32:00,144 - INFO - <NMEA(GAGSV, numMsg=3, msgNum=1, numSV=11, svid_01=4, elv_01=52.0, az_01=110, cno_01=42, svid_02=6, elv_02=45.0, az_02=150, cno_02=38, svid_03=9, elv_03=28.0, az_03=174, cno_03=31, svid_04=10, elv_04=55.0, az_04=67, cno_04=44, signalID=7)>
2026-07-18 11:32:00,145 - INFO - <NMEA(GAGSV, numMsg=3, msgNum=2, numSV=11, svid_01=11, elv_01=68.0, az_01=7, cno_01=42, svid_02=12, elv_02=33.0, az_02=86, cno_02=38, svid_03=16, elv_03=4.0, az_03=197, cno_03=21, svid_04=19, elv_04=24.0, az_04=46, cno_04=40, signalID=7)>
2026-07-18 11:32:00,146 - INFO - <NMEA(GAGSV, numMsg=3, msgNum=3, numSV=11, svid_01=25, elv_01=22.0, az_01=240, cno_01=36, svid_02=28, elv_02=43.0, az_02=74, cno_02=48, svid_03=36, elv_03=31.0, az_03=301, cno_03=32, signalID=7)>
2026-07-18 11:32:00,147 - INFO - <NMEA(GBGSV, numMsg=2, msgNum=1, numSV=7, svid_01=13, elv_01=15.0, az_01=132, cno_01=41, svid_02=27, elv_02=90.0, az_02=13, cno_02=45, svid_03=28, elv_03=44.0, az_03=132, cno_03=40, svid_04=32, elv_04=42.0, az_04=217, cno_04=45, signalID=1)>
2026-07-18 11:32:00,148 - INFO - <NMEA(GBGSV, numMsg=2, msgNum=2, numSV=7, svid_01=33, elv_01=26.0, az_01=43, cno_01=44, svid_02=41, elv_02=76.0, az_02=59, cno_02=36, svid_03=58, elv_03=, az_03=, cno_03=40, signalID=1)>
2026-07-18 11:32:00,148 - INFO - <NMEA(GQGSV, numMsg=1, msgNum=1, numSV=0, signalID=0)>
2026-07-18 11:32:00,148 - INFO - <NMEA(GNGLL, lat=37.9008525, NS=N, lon=-97.6642091667, EW=W, time=16:32:00, status=A, posMode=D)>
2026-07-18 11:32:00,149 - INFO - <UBX(NAV-RELPOSNED, version=1, reserved0=0, refStationID=0, iTOW=16:32:00, relPosN=41.2, relPosE=64.18, relPosD=-14.21, relPosLength=77.57, relPosHeading=57.30166, reserved1=0, accN=10.0, accE=10.0, accD=10.0, accLength=10.0, accHeading=0.75129, reserved2=0, gnssFixOK=1, diffSoln=1, relPosValid=1, carrSoln=2, isMoving=1, refPosMiss=0, refObsMiss=0, relPosHeadingValid=1, relPosNormalized=0)>
2026-07-18 11:32:00,150 - INFO - 2026-07-18 11:32:00 [3.4 OBSERVED] current_turn_radius: infm
2026-07-18 11:32:00,151 - INFO - 2026-07-18 11:32:00 [3.4 OBSERVED] turn_direction: RIGHT
2026-07-18 11:32:00,151 - INFO - 2026-07-18 11:32:00 [3.4 OBSERVED] estimated left/right wheel speeds: nan, nan m/s
2026-07-18 11:32:00,155 - INFO - 2026-07-18 11:32:00 [STATE] Current state: FOLLOWING_PATH
2026-07-18 11:32:00,155 - INFO - 2026-07-18 11:32:00 [FOLLOW] ACQUIRE: progress=0.00m/40.7m seg=0 cross=3.31m alpha=-23.8° target=(0.14,1.99) R=3.04 LEFT v=1.07 dwell=0.0s
2026-07-18 11:32:00,155 - INFO - 2026-07-18 11:32:00 Turn: LEFT, R: 3.04m, v_L: 0.95 m/s, v_R: 1.19 m/s
2026-07-18 11:32:00,155 - INFO - 2026-07-18 11:32:00 left_actuator_position: 627 (counts) from v_L 0.947 m/s
2026-07-18 11:32:00,155 - INFO - 2026-07-18 11:32:00 right_actuator_position: 503 (counts) from v_R 1.193 m/s
2026-07-18 11:32:00,170 - INFO - Sent actuator positions to RoboClaw → M1 (left): 627, M2 (right): 503 (counts)
2026-07-18 11:32:00,170 - INFO - 2026-07-18 11:32:00 APPLY → left_pos: 627, right_pos: 503 (counts), v_L: 0.95 m/s, v_R: 1.19 m/s
2026-07-18 11:32:00,170 - INFO - 2026-07-18 11:32:00 Path tracking needs correction: heading_ok=False (alpha=23.8deg), distance_ok=False (cross=3.309m)
2026-07-18 11:32:00,248 - INFO - <UBX(RXM-RTCM, version=2, crcFailed=0, msgUsed=2, subType=0, refStation=0, msgType=1074)>
2026-07-18 11:32:00,250 - INFO - <UBX(RXM-RTCM, version=2, crcFailed=0, msgUsed=2, subType=0, refStation=0, msgType=1084)>
2026-07-18 11:32:00,257 - INFO - <UBX(RXM-RTCM, version=2, crcFailed=0, msgUsed=2, subType=0, refStation=0, msgType=1094)>
2026-07-18 11:32:00,257 - INFO - <UBX(RXM-RTCM, version=2, crcFailed=0, msgUsed=2, subType=0, refStation=0, msgType=1124)>
2026-07-18 11:32:00,258 - INFO - <UBX(RXM-RTCM, version=2, crcFailed=0, msgUsed=2, subType=0, refStation=0, msgType=1230)>
2026-07-18 11:32:00,300 - INFO - <UBX(RXM-RTCM, version=2, crcFailed=0, msgUsed=2, subType=0, refStation=0, msgType=4072)>
2026-07-18 11:32:00,310 - INFO - <UBX(NAV-PVT, iTOW=16:32:00.200000, year=2026, month=7, day=18, hour=16, min=32, second=0, validDate=1, validTime=1, fullyResolved=1, validMag=0, tAcc=21, nano=200033100, fixType=3, gnssFixOk=1, diffSoln=1, psmState=0, headVehValid=0, carrSoln=2, confirmedAvai=1, confirmedDate=1, confirmedTime=1, numSV=29, lon=-97.6642091, lat=37.9008526, height=411007, hMSL=437260, hAcc=434, vAcc=698, velN=6, velE=9, velD=20, gSpeed=11, headMot=37.12779, sAcc=85, headAcc=180.0, pDOP=1.0, invalidLlh=0, lastCorrectionAge=1, reserved0=860630572, headVeh=0.0, magDec=0.0, magAcc=0.0)>
2026-07-18 11:32:00,311 - INFO - <NMEA(GNRMC, time=16:32:00.200000, status=A, lat=37.9008525, NS=N, lon=-97.6642091667, EW=W, spd=0.021, cog=, date=2026-07-18, mv=, mvEW=, posMode=R, navStatus=V)>
2026-07-18 11:32:00,312 - INFO - <NMEA(GNVTG, cogt=, cogtUnit=T, cogm=, cogmUnit=M, sogn=0.021, sognUnit=N, sogk=0.04, sogkUnit=K, posMode=D)>
2026-07-18 11:32:00,313 - INFO - <NMEA(GNGGA, time=16:32:00.200000, lat=37.9008525, NS=N, lon=-97.6642091667, EW=W, quality=4, numSV=12, HDOP=0.53, alt=437.3, altUnit=M, sep=-26.3, sepUnit=M, diffAge=0.2, diffStation=0)>
2026-07-18 11:32:00,314 - INFO - <NMEA(GNGSA, opMode=M, navMode=3, svid_01=5, svid_02=10, svid_03=15, svid_04=18, svid_05=20, svid_06=23, svid_07=29, svid_08=, svid_09=, svid_10=, svid_11=, svid_12=, PDOP=1.0, HDOP=0.53, VDOP=0.85, systemId=1)>
2026-07-18 11:32:00,314 - INFO - <NMEA(GNGSA, opMode=M, navMode=3, svid_01=70, svid_02=86, svid_03=87, svid_04=85, svid_05=71, svid_06=72, svid_07=, svid_08=, svid_09=, svid_10=, svid_11=, svid_12=, PDOP=1.0, HDOP=0.53, VDOP=0.85, systemId=2)>
2026-07-18 11:32:00,315 - INFO - <NMEA(GNGSA, opMode=M, navMode=3, svid_01=6, svid_02=4, svid_03=9, svid_04=10, svid_05=11, svid_06=12, svid_07=19, svid_08=25, svid_09=28, svid_10=36, svid_11=, svid_12=, PDOP=1.0, HDOP=0.53, VDOP=0.85, systemId=3)>
2026-07-18 11:32:00,316 - INFO - <NMEA(GNGSA, opMode=M, navMode=3, svid_01=28, svid_02=33, svid_03=32, svid_04=13, svid_05=27, svid_06=41, svid_07=, svid_08=, svid_09=, svid_10=, svid_11=, svid_12=, PDOP=1.0, HDOP=0.53, VDOP=0.85, systemId=4)>
2026-07-18 11:32:00,316 - INFO - <NMEA(GNGSA, opMode=M, navMode=3, svid_01=, svid_02=, svid_03=, svid_04=, svid_05=, svid_06=, svid_07=, svid_08=, svid_09=, svid_10=, svid_11=, svid_12=, PDOP=1.0, HDOP=0.53, VDOP=0.85, systemId=5)>
2026-07-18 11:32:00,317 - INFO - <NMEA(GPGSV, numMsg=4, msgNum=1, numSV=14, svid_01=5, elv_01=32.0, az_01=52, cno_01=50, svid_02=10, elv_02=13.0, az_02=249, cno_02=34, svid_03=15, elv_03=69.0, az_03=117, cno_03=45, svid_04=16, elv_04=10.0, az_04=305, cno_04=23, signalID=1)>
2026-07-18 11:32:00,318 - INFO - <NMEA(GPGSV, numMsg=4, msgNum=2, numSV=14, svid_01=18, elv_01=60.0, az_01=327, cno_01=46, svid_02=20, elv_02=47.0, az_02=64, cno_02=44, svid_03=21, elv_03=1.0, az_03=60, cno_03=37, svid_04=23, elv_04=43.0, az_04=262, cno_04=36, signalID=1)>
2026-07-18 11:32:00,319 - INFO - <NMEA(GPGSV, numMsg=4, msgNum=3, numSV=14, svid_01=24, elv_01=7.0, az_01=142, cno_01=39, svid_02=29, elv_02=57.0, az_02=185, cno_02=41, svid_03=30, elv_03=0.0, az_03=39, cno_03=29, svid_04=44, elv_04=42.0, az_04=210, cno_04=40, signalID=1)>
2026-07-18 11:32:00,320 - INFO - <NMEA(GPGSV, numMsg=4, msgNum=4, numSV=14, svid_01=46, elv_01=35.0, az_01=225, cno_01=38, svid_02=48, elv_02=38.0, az_02=220, cno_02=43, signalID=1)>
2026-07-18 11:32:00,320 - INFO - <NMEA(GPGSV, numMsg=3, msgNum=1, numSV=10, svid_01=5, elv_01=32.0, az_01=52, cno_01=39, svid_02=10, elv_02=13.0, az_02=249, cno_02=21, svid_03=15, elv_03=69.0, az_03=117, cno_03=40, svid_04=18, elv_04=60.0, az_04=327, cno_04=44, signalID=6)>
2026-07-18 11:32:00,321 - INFO - <NMEA(GPGSV, numMsg=3, msgNum=2, numSV=10, svid_01=20, elv_01=47.0, az_01=64, cno_01=42, svid_02=21, elv_02=1.0, az_02=60, cno_02=29, svid_03=23, elv_03=43.0, az_03=262, cno_03=36, svid_04=24, elv_04=7.0, az_04=142, cno_04=38, signalID=6)>
2026-07-18 11:32:00,321 - INFO - <NMEA(GPGSV, numMsg=3, msgNum=3, numSV=10, svid_01=26, elv_01=7.0, az_01=279, cno_01=28, svid_02=29, elv_02=57.0, az_02=185, cno_02=38, signalID=6)>
2026-07-18 11:32:00,321 - INFO - <NMEA(GLGSV, numMsg=2, msgNum=1, numSV=8, svid_01=70, elv_01=35.0, az_01=33, cno_01=45, svid_02=71, elv_02=78.0, az_02=182, cno_02=44, svid_03=72, elv_03=24.0, az_03=205, cno_03=35, svid_04=77, elv_04=2.0, az_04=297, cno_04=20, signalID=1)>
2026-07-18 11:32:00,322 - INFO - <NMEA(GLGSV, numMsg=2, msgNum=2, numSV=8, svid_01=84, elv_01=0.0, az_01=126, cno_01=17, svid_02=85, elv_02=40.0, az_02=112, cno_02=44, svid_03=86, elv_03=61.0, az_03=349, cno_03=46, svid_04=87, elv_04=23.0, az_04=322, cno_04=29, signalID=1)>
2026-07-18 11:32:00,322 - INFO - <NMEA(GLGSV, numMsg=2, msgNum=1, numSV=6, svid_01=70, elv_01=35.0, az_01=33, cno_01=39, svid_02=71, elv_02=78.0, az_02=182, cno_02=36, svid_03=72, elv_03=24.0, az_03=205, cno_03=30, svid_04=84, elv_04=0.0, az_04=126, cno_04=20, signalID=3)>
2026-07-18 11:32:00,323 - INFO - <NMEA(GLGSV, numMsg=2, msgNum=2, numSV=6, svid_01=85, elv_01=40.0, az_01=112, cno_01=41, svid_02=86, elv_02=61.0, az_02=349, cno_02=39, signalID=3)>
2026-07-18 11:32:00,323 - INFO - <NMEA(GAGSV, numMsg=3, msgNum=1, numSV=11, svid_01=4, elv_01=52.0, az_01=110, cno_01=41, svid_02=6, elv_02=45.0, az_02=150, cno_02=42, svid_03=9, elv_03=28.0, az_03=174, cno_03=36, svid_04=10, elv_04=55.0, az_04=67, cno_04=46, signalID=2)>
2026-07-18 11:32:00,324 - INFO - <NMEA(GAGSV, numMsg=3, msgNum=2, numSV=11, svid_01=11, elv_01=68.0, az_01=7, cno_01=43, svid_02=12, elv_02=33.0, az_02=86, cno_02=45, svid_03=16, elv_03=4.0, az_03=197, cno_03=23, svid_04=19, elv_04=24.0, az_04=46, cno_04=33, signalID=2)>
2026-07-18 11:32:00,325 - INFO - <NMEA(GAGSV, numMsg=3, msgNum=3, numSV=11, svid_01=25, elv_01=22.0, az_01=240, cno_01=39, svid_02=28, elv_02=43.0, az_02=74, cno_02=44, svid_03=36, elv_03=31.0, az_03=301, cno_03=40, signalID=2)>
2026-07-18 11:32:00,326 - INFO - <NMEA(GAGSV, numMsg=3, msgNum=1, numSV=11, svid_01=4, elv_01=52.0, az_01=110, cno_01=42, svid_02=6, elv_02=45.0, az_02=150, cno_02=38, svid_03=9, elv_03=28.0, az_03=174, cno_03=31, svid_04=10, elv_04=55.0, az_04=67, cno_04=44, signalID=7)>
2026-07-18 11:32:00,327 - INFO - <NMEA(GAGSV, numMsg=3, msgNum=2, numSV=11, svid_01=11, elv_01=68.0, az_01=7, cno_01=42, svid_02=12, elv_02=33.0, az_02=86, cno_02=38, svid_03=16, elv_03=4.0, az_03=197, cno_03=21, svid_04=19, elv_04=24.0, az_04=46, cno_04=40, signalID=7)>
2026-07-18 11:32:00,328 - INFO - <NMEA(GAGSV, numMsg=3, msgNum=3, numSV=11, svid_01=25, elv_01=22.0, az_01=240, cno_01=36, svid_02=28, elv_02=43.0, az_02=74, cno_02=48, svid_03=36, elv_03=31.0, az_03=301, cno_03=31, signalID=7)>
2026-07-18 11:32:00,329 - INFO - <NMEA(GBGSV, numMsg=2, msgNum=1, numSV=7, svid_01=13, elv_01=15.0, az_01=132, cno_01=41, svid_02=27, elv_02=90.0, az_02=13, cno_02=45, svid_03=28, elv_03=44.0, az_03=132, cno_03=40, svid_04=32, elv_04=42.0, az_04=217, cno_04=44, signalID=1)>
2026-07-18 11:32:00,330 - INFO - <NMEA(GBGSV, numMsg=2, msgNum=2, numSV=7, svid_01=33, elv_01=26.0, az_01=43, cno_01=44, svid_02=41, elv_02=76.0, az_02=59, cno_02=35, svid_03=58, elv_03=, az_03=, cno_03=40, signalID=1)>
2026-07-18 11:32:00,330 - INFO - <NMEA(GQGSV, numMsg=1, msgNum=1, numSV=0, signalID=0)>
2026-07-18 11:32:00,330 - INFO - <NMEA(GNGLL, lat=37.9008525, NS=N, lon=-97.6642091667, EW=W, time=16:32:00.200000, status=A, posMode=D)>
2026-07-18 11:32:00,330 - INFO - <UBX(NAV-RELPOSNED, version=1, reserved0=0, refStationID=0, iTOW=16:32:00.200000, relPosN=41.52, relPosE=64.28, relPosD=-14.58, relPosLength=77.9, relPosHeading=57.13795, reserved1=0, accN=10.0, accE=10.0, accD=10.0, accLength=10.0, accHeading=0.74873, reserved2=0, gnssFixOK=1, diffSoln=1, relPosValid=1, carrSoln=2, isMoving=1, refPosMiss=0, refObsMiss=0, relPosHeadingValid=1, relPosNormalized=0)>
2026-07-18 11:32:00,332 - INFO - 2026-07-18 11:32:00 [3.4 OBSERVED] current_turn_radius: infm
2026-07-18 11:32:00,332 - INFO - 2026-07-18 11:32:00 [3.4 OBSERVED] turn_direction: LEFT
2026-07-18 11:32:00,332 - INFO - 2026-07-18 11:32:00 [3.4 OBSERVED] estimated left/right wheel speeds: nan, nan m/s
2026-07-18 11:32:00,335 - INFO - 2026-07-18 11:32:00 [STATE] Current state: FOLLOWING_PATH
2026-07-18 11:32:00,335 - INFO - 2026-07-18 11:32:00 [FOLLOW] ACQUIRE: progress=0.00m/40.7m seg=0 cross=3.31m alpha=-23.6° target=(0.14,1.99) R=3.06 LEFT v=1.07 dwell=0.0s
2026-07-18 11:32:00,335 - INFO - 2026-07-18 11:32:00 Turn: LEFT, R: 3.06m, v_L: 0.95 m/s, v_R: 1.19 m/s
2026-07-18 11:32:00,335 - INFO - 2026-07-18 11:32:00 left_actuator_position: 626 (counts) from v_L 0.948 m/s
2026-07-18 11:32:00,335 - INFO - 2026-07-18 11:32:00 right_actuator_position: 504 (counts) from v_R 1.192 m/s
2026-07-18 11:32:00,351 - INFO - Sent actuator positions to RoboClaw → M1 (left): 626, M2 (right): 504 (counts)
2026-07-18 11:32:00,351 - INFO - 2026-07-18 11:32:00 APPLY → left_pos: 626, right_pos: 504 (counts), v_L: 0.95 m/s, v_R: 1.19 m/s
2026-07-18 11:32:00,351 - INFO - 2026-07-18 11:32:00 Path tracking needs correction: heading_ok=False (alpha=23.6deg), distance_ok=False (cross=3.309m)
2026-07-18 11:32:00,448 - INFO - <UBX(RXM-RTCM, version=2, crcFailed=0, msgUsed=2, subType=0, refStation=0, msgType=1074)>
2026-07-18 11:32:00,450 - INFO - <UBX(RXM-RTCM, version=2, crcFailed=0, msgUsed=2, subType=0, refStation=0, msgType=1084)>
2026-07-18 11:32:00,455 - INFO - <UBX(RXM-RTCM, version=2, crcFailed=0, msgUsed=2, subType=0, refStation=0, msgType=1094)>
2026-07-18 11:32:00,457 - INFO - <UBX(RXM-RTCM, version=2, crcFailed=0, msgUsed=2, subType=0, refStation=0, msgType=1124)>
2026-07-18 11:32:00,457 - INFO - <UBX(RXM-RTCM, version=2, crcFailed=0, msgUsed=2, subType=0, refStation=0, msgType=1230)>
2026-07-18 11:32:00,497 - INFO - <UBX(RXM-RTCM, version=2, crcFailed=0, msgUsed=2, subType=0, refStation=0, msgType=4072)>
2026-07-18 11:32:00,513 - INFO - <UBX(NAV-PVT, iTOW=16:32:00.400000, year=2026, month=7, day=18, hour=16, min=32, second=0, validDate=1, validTime=1, fullyResolved=1, validMag=0, tAcc=21, nano=400033061, fixType=3, gnssFixOk=1, diffSoln=1, psmState=0, headVehValid=0, carrSoln=2, confirmedAvai=1, confirmedDate=1, confirmedTime=1, numSV=29, lon=-97.6642091, lat=37.9008526, height=411007, hMSL=437260, hAcc=444, vAcc=714, velN=0, velE=-10, velD=15, gSpeed=10, headMot=37.12779, sAcc=91, headAcc=180.0, pDOP=1.0, invalidLlh=0, lastCorrectionAge=1, reserved0=860630572, headVeh=0.0, magDec=0.0, magAcc=0.0)>
2026-07-18 11:32:00,514 - INFO - <NMEA(GNRMC, time=16:32:00.400000, status=A, lat=37.9008525, NS=N, lon=-97.6642091667, EW=W, spd=0.019, cog=, date=2026-07-18, mv=, mvEW=, posMode=R, navStatus=V)>
2026-07-18 11:32:00,515 - INFO - <NMEA(GNVTG, cogt=, cogtUnit=T, cogm=, cogmUnit=M, sogn=0.019, sognUnit=N, sogk=0.035, sogkUnit=K, posMode=D)>
2026-07-18 11:32:00,516 - INFO - <NMEA(GNGGA, time=16:32:00.400000, lat=37.9008525, NS=N, lon=-97.6642091667, EW=W, quality=4, numSV=12, HDOP=0.53, alt=437.3, altUnit=M, sep=-26.3, sepUnit=M, diffAge=0.2, diffStation=0)>
2026-07-18 11:32:00,517 - INFO - <NMEA(GNGSA, opMode=M, navMode=3, svid_01=5, svid_02=10, svid_03=15, svid_04=18, svid_05=20, svid_06=23, svid_07=29, svid_08=, svid_09=, svid_10=, svid_11=, svid_12=, PDOP=1.0, HDOP=0.53, VDOP=0.85, systemId=1)>
2026-07-18 11:32:00,517 - INFO - <NMEA(GNGSA, opMode=M, navMode=3, svid_01=70, svid_02=86, svid_03=87, svid_04=85, svid_05=71, svid_06=72, svid_07=, svid_08=, svid_09=, svid_10=, svid_11=, svid_12=, PDOP=1.0, HDOP=0.53, VDOP=0.85, systemId=2)>
2026-07-18 11:32:00,519 - INFO - <NMEA(GNGSA, opMode=M, navMode=3, svid_01=6, svid_02=4, svid_03=9, svid_04=10, svid_05=11, svid_06=12, svid_07=19, svid_08=25, svid_09=28, svid_10=36, svid_11=, svid_12=, PDOP=1.0, HDOP=0.53, VDOP=0.85, systemId=3)>
2026-07-18 11:32:00,520 - INFO - <NMEA(GNGSA, opMode=M, navMode=3, svid_01=28, svid_02=33, svid_03=32, svid_04=13, svid_05=27, svid_06=41, svid_07=, svid_08=, svid_09=, svid_10=, svid_11=, svid_12=, PDOP=1.0, HDOP=0.53, VDOP=0.85, systemId=4)>
2026-07-18 11:32:00,520 - INFO - <NMEA(GNGSA, opMode=M, navMode=3, svid_01=, svid_02=, svid_03=, svid_04=, svid_05=, svid_06=, svid_07=, svid_08=, svid_09=, svid_10=, svid_11=, svid_12=, PDOP=1.0, HDOP=0.53, VDOP=0.85, systemId=5)>
2026-07-18 11:32:00,521 - INFO - <NMEA(GPGSV, numMsg=4, msgNum=1, numSV=14, svid_01=5, elv_01=32.0, az_01=52, cno_01=50, svid_02=10, elv_02=13.0, az_02=249, cno_02=34, svid_03=15, elv_03=69.0, az_03=117, cno_03=45, svid_04=16, elv_04=10.0, az_04=305, cno_04=23, signalID=1)>
2026-07-18 11:32:00,521 - INFO - <NMEA(GPGSV, numMsg=4, msgNum=2, numSV=14, svid_01=18, elv_01=60.0, az_01=327, cno_01=46, svid_02=20, elv_02=47.0, az_02=64, cno_02=44, svid_03=21, elv_03=1.0, az_03=60, cno_03=37, svid_04=23, elv_04=43.0, az_04=262, cno_04=35, signalID=1)>
2026-07-18 11:32:00,522 - INFO - <NMEA(GPGSV, numMsg=4, msgNum=3, numSV=14, svid_01=24, elv_01=7.0, az_01=142, cno_01=39, svid_02=29, elv_02=57.0, az_02=185, cno_02=41, svid_03=30, elv_03=0.0, az_03=39, cno_03=29, svid_04=44, elv_04=42.0, az_04=210, cno_04=40, signalID=1)>
2026-07-18 11:32:00,522 - INFO - <NMEA(GPGSV, numMsg=4, msgNum=4, numSV=14, svid_01=46, elv_01=35.0, az_01=225, cno_01=38, svid_02=48, elv_02=38.0, az_02=220, cno_02=43, signalID=1)>
2026-07-18 11:32:00,522 - INFO - <NMEA(GPGSV, numMsg=3, msgNum=1, numSV=10, svid_01=5, elv_01=32.0, az_01=52, cno_01=39, svid_02=10, elv_02=13.0, az_02=249, cno_02=21, svid_03=15, elv_03=69.0, az_03=117, cno_03=40, svid_04=18, elv_04=60.0, az_04=327, cno_04=44, signalID=6)>
2026-07-18 11:32:00,523 - INFO - <NMEA(GPGSV, numMsg=3, msgNum=2, numSV=10, svid_01=20, elv_01=47.0, az_01=64, cno_01=43, svid_02=21, elv_02=1.0, az_02=60, cno_02=29, svid_03=23, elv_03=43.0, az_03=262, cno_03=36, svid_04=24, elv_04=7.0, az_04=142, cno_04=38, signalID=6)>
2026-07-18 11:32:00,523 - INFO - <NMEA(GPGSV, numMsg=3, msgNum=3, numSV=10, svid_01=26, elv_01=7.0, az_01=279, cno_01=28, svid_02=29, elv_02=57.0, az_02=185, cno_02=38, signalID=6)>
2026-07-18 11:32:00,524 - INFO - <NMEA(GLGSV, numMsg=2, msgNum=1, numSV=8, svid_01=70, elv_01=35.0, az_01=33, cno_01=45, svid_02=71, elv_02=78.0, az_02=182, cno_02=44, svid_03=72, elv_03=24.0, az_03=205, cno_03=35, svid_04=77, elv_04=2.0, az_04=297, cno_04=20, signalID=1)>
2026-07-18 11:32:00,524 - INFO - <NMEA(GLGSV, numMsg=2, msgNum=2, numSV=8, svid_01=84, elv_01=0.0, az_01=126, cno_01=16, svid_02=85, elv_02=40.0, az_02=112, cno_02=44, svid_03=86, elv_03=61.0, az_03=349, cno_03=46, svid_04=87, elv_04=23.0, az_04=322, cno_04=29, signalID=1)>
2026-07-18 11:32:00,525 - INFO - <NMEA(GLGSV, numMsg=2, msgNum=1, numSV=6, svid_01=70, elv_01=35.0, az_01=33, cno_01=39, svid_02=71, elv_02=78.0, az_02=182, cno_02=36, svid_03=72, elv_03=24.0, az_03=205, cno_03=30, svid_04=84, elv_04=0.0, az_04=126, cno_04=20, signalID=3)>
2026-07-18 11:32:00,525 - INFO - <NMEA(GLGSV, numMsg=2, msgNum=2, numSV=6, svid_01=85, elv_01=40.0, az_01=112, cno_01=41, svid_02=86, elv_02=61.0, az_02=349, cno_02=39, signalID=3)>
2026-07-18 11:32:00,526 - INFO - <NMEA(GAGSV, numMsg=3, msgNum=1, numSV=11, svid_01=4, elv_01=52.0, az_01=110, cno_01=41, svid_02=6, elv_02=45.0, az_02=150, cno_02=42, svid_03=9, elv_03=28.0, az_03=174, cno_03=36, svid_04=10, elv_04=55.0, az_04=67, cno_04=46, signalID=2)>
2026-07-18 11:32:00,527 - INFO - <NMEA(GAGSV, numMsg=3, msgNum=2, numSV=11, svid_01=11, elv_01=68.0, az_01=7, cno_01=43, svid_02=12, elv_02=33.0, az_02=86, cno_02=45, svid_03=16, elv_03=4.0, az_03=197, cno_03=22, svid_04=19, elv_04=24.0, az_04=46, cno_04=33, signalID=2)>
2026-07-18 11:32:00,528 - INFO - <NMEA(GAGSV, numMsg=3, msgNum=3, numSV=11, svid_01=25, elv_01=22.0, az_01=240, cno_01=39, svid_02=28, elv_02=43.0, az_02=74, cno_02=44, svid_03=36, elv_03=31.0, az_03=301, cno_03=40, signalID=2)>
2026-07-18 11:32:00,529 - INFO - <NMEA(GAGSV, numMsg=3, msgNum=1, numSV=11, svid_01=4, elv_01=52.0, az_01=110, cno_01=42, svid_02=6, elv_02=45.0, az_02=150, cno_02=38, svid_03=9, elv_03=28.0, az_03=174, cno_03=31, svid_04=10, elv_04=55.0, az_04=67, cno_04=44, signalID=7)>
2026-07-18 11:32:00,530 - INFO - <NMEA(GAGSV, numMsg=3, msgNum=2, numSV=11, svid_01=11, elv_01=68.0, az_01=7, cno_01=42, svid_02=12, elv_02=33.0, az_02=86, cno_02=38, svid_03=16, elv_03=4.0, az_03=197, cno_03=21, svid_04=19, elv_04=24.0, az_04=46, cno_04=40, signalID=7)>
2026-07-18 11:32:00,531 - INFO - <NMEA(GAGSV, numMsg=3, msgNum=3, numSV=11, svid_01=25, elv_01=22.0, az_01=240, cno_01=36, svid_02=28, elv_02=43.0, az_02=74, cno_02=48, svid_03=36, elv_03=31.0, az_03=301, cno_03=31, signalID=7)>
2026-07-18 11:32:00,531 - INFO - <NMEA(GBGSV, numMsg=2, msgNum=1, numSV=7, svid_01=13, elv_01=15.0, az_01=132, cno_01=42, svid_02=27, elv_02=90.0, az_02=13, cno_02=45, svid_03=28, elv_03=44.0, az_03=132, cno_03=40, svid_04=32, elv_04=42.0, az_04=217, cno_04=44, signalID=1)>
2026-07-18 11:32:00,532 - INFO - <NMEA(GBGSV, numMsg=2, msgNum=2, numSV=7, svid_01=33, elv_01=26.0, az_01=43, cno_01=45, svid_02=41, elv_02=76.0, az_02=59, cno_02=35, svid_03=58, elv_03=, az_03=, cno_03=40, signalID=1)>
2026-07-18 11:32:00,532 - INFO - <NMEA(GQGSV, numMsg=1, msgNum=1, numSV=0, signalID=0)>
2026-07-18 11:32:00,532 - INFO - <NMEA(GNGLL, lat=37.9008525, NS=N, lon=-97.6642091667, EW=W, time=16:32:00.400000, status=A, posMode=D)>
2026-07-18 11:32:00,532 - INFO - <UBX(NAV-RELPOSNED, version=1, reserved0=0, refStationID=0, iTOW=16:32:00.400000, relPosN=41.4, relPosE=64.35, relPosD=-14.01, relPosLength=77.79, relPosHeading=57.24254, reserved1=0, accN=10.0, accE=10.0, accD=10.0, accLength=10.0, accHeading=0.74883, reserved2=0, gnssFixOK=1, diffSoln=1, relPosValid=1, carrSoln=2, isMoving=1, refPosMiss=0, refObsMiss=0, relPosHeadingValid=1, relPosNormalized=0)>
2026-07-18 11:32:00,534 - INFO - 2026-07-18 11:32:00 [3.4 OBSERVED] current_turn_radius: infm
2026-07-18 11:32:00,534 - INFO - 2026-07-18 11:32:00 [3.4 OBSERVED] turn_direction: RIGHT
2026-07-18 11:32:00,534 - INFO - 2026-07-18 11:32:00 [3.4 OBSERVED] estimated left/right wheel speeds: nan, nan m/s
2026-07-18 11:32:00,536 - INFO - 2026-07-18 11:32:00 [STATE] Current state: FOLLOWING_PATH
2026-07-18 11:32:00,536 - INFO - 2026-07-18 11:32:00 [FOLLOW] ACQUIRE: progress=0.00m/40.7m seg=0 cross=3.31m alpha=-23.7° target=(0.14,1.99) R=3.05 LEFT v=1.07 dwell=0.0s
2026-07-18 11:32:00,536 - INFO - 2026-07-18 11:32:00 Turn: LEFT, R: 3.05m, v_L: 0.95 m/s, v_R: 1.19 m/s
2026-07-18 11:32:00,536 - INFO - 2026-07-18 11:32:00 left_actuator_position: 626 (counts) from v_L 0.947 m/s
2026-07-18 11:32:00,536 - INFO - 2026-07-18 11:32:00 right_actuator_position: 504 (counts) from v_R 1.193 m/s
2026-07-18 11:32:00,549 - INFO - Sent actuator positions to RoboClaw → M1 (left): 626, M2 (right): 504 (counts)
2026-07-18 11:32:00,549 - INFO - 2026-07-18 11:32:00 APPLY → left_pos: 626, right_pos: 504 (counts), v_L: 0.95 m/s, v_R: 1.19 m/s
2026-07-18 11:32:00,549 - INFO - 2026-07-18 11:32:00 Path tracking needs correction: heading_ok=False (alpha=23.7deg), distance_ok=False (cross=3.309m)
2026-07-18 11:32:00,651 - INFO - <UBX(RXM-RTCM, version=2, crcFailed=0, msgUsed=2, subType=0, refStation=0, msgType=1074)>
2026-07-18 11:32:00,651 - INFO - <UBX(RXM-RTCM, version=2, crcFailed=0, msgUsed=2, subType=0, refStation=0, msgType=1084)>
2026-07-18 11:32:00,654 - INFO - <UBX(RXM-RTCM, version=2, crcFailed=0, msgUsed=2, subType=0, refStation=0, msgType=1094)>
2026-07-18 11:32:00,656 - INFO - <UBX(RXM-RTCM, version=2, crcFailed=0, msgUsed=2, subType=0, refStation=0, msgType=1124)>
2026-07-18 11:32:00,656 - INFO - <UBX(RXM-RTCM, version=2, crcFailed=0, msgUsed=2, subType=0, refStation=0, msgType=1230)>
2026-07-18 11:32:00,700 - INFO - <UBX(RXM-RTCM, version=2, crcFailed=0, msgUsed=2, subType=0, refStation=0, msgType=4072)>
2026-07-18 11:32:00,715 - INFO - <UBX(NAV-PVT, iTOW=16:32:00.600000, year=2026, month=7, day=18, hour=16, min=32, second=0, validDate=1, validTime=1, fullyResolved=1, validMag=0, tAcc=21, nano=600033022, fixType=3, gnssFixOk=1, diffSoln=1, psmState=0, headVehValid=0, carrSoln=2, confirmedAvai=1, confirmedDate=1, confirmedTime=1, numSV=29, lon=-97.664209, lat=37.9008528, height=411000, hMSL=437253, hAcc=484, vAcc=778, velN=36, velE=57, velD=11, gSpeed=68, headMot=37.12779, sAcc=60, headAcc=65.0778, pDOP=1.0, invalidLlh=0, lastCorrectionAge=1, reserved0=860630572, headVeh=0.0, magDec=0.0, magAcc=0.0)>
2026-07-18 11:32:00,716 - INFO - <NMEA(GNRMC, time=16:32:00.600000, status=A, lat=37.9008528333, NS=N, lon=-97.664209, EW=W, spd=0.131, cog=, date=2026-07-18, mv=, mvEW=, posMode=R, navStatus=V)>
2026-07-18 11:32:00,717 - INFO - <NMEA(GNVTG, cogt=, cogtUnit=T, cogm=, cogmUnit=M, sogn=0.131, sognUnit=N, sogk=0.243, sogkUnit=K, posMode=D)>
2026-07-18 11:32:00,718 - INFO - <NMEA(GNGGA, time=16:32:00.600000, lat=37.9008528333, NS=N, lon=-97.664209, EW=W, quality=4, numSV=12, HDOP=0.53, alt=437.3, altUnit=M, sep=-26.3, sepUnit=M, diffAge=0.2, diffStation=0)>
2026-07-18 11:32:00,719 - INFO - <NMEA(GNGSA, opMode=M, navMode=3, svid_01=5, svid_02=10, svid_03=15, svid_04=18, svid_05=20, svid_06=23, svid_07=29, svid_08=, svid_09=, svid_10=, svid_11=, svid_12=, PDOP=1.0, HDOP=0.53, VDOP=0.85, systemId=1)>
2026-07-18 11:32:00,719 - INFO - <NMEA(GNGSA, opMode=M, navMode=3, svid_01=70, svid_02=86, svid_03=87, svid_04=85, svid_05=71, svid_06=72, svid_07=, svid_08=, svid_09=, svid_10=, svid_11=, svid_12=, PDOP=1.0, HDOP=0.53, VDOP=0.85, systemId=2)>
2026-07-18 11:32:00,721 - INFO - <NMEA(GNGSA, opMode=M, navMode=3, svid_01=6, svid_02=4, svid_03=9, svid_04=10, svid_05=11, svid_06=12, svid_07=19, svid_08=25, svid_09=28, svid_10=36, svid_11=, svid_12=, PDOP=1.0, HDOP=0.53, VDOP=0.85, systemId=3)>
2026-07-18 11:32:00,722 - INFO - <NMEA(GNGSA, opMode=M, navMode=3, svid_01=28, svid_02=33, svid_03=32, svid_04=13, svid_05=27, svid_06=41, svid_07=, svid_08=, svid_09=, svid_10=, svid_11=, svid_12=, PDOP=1.0, HDOP=0.53, VDOP=0.85, systemId=4)>
2026-07-18 11:32:00,722 - INFO - <NMEA(GNGSA, opMode=M, navMode=3, svid_01=, svid_02=, svid_03=, svid_04=, svid_05=, svid_06=, svid_07=, svid_08=, svid_09=, svid_10=, svid_11=, svid_12=, PDOP=1.0, HDOP=0.53, VDOP=0.85, systemId=5)>
2026-07-18 11:32:00,724 - INFO - <NMEA(GPGSV, numMsg=4, msgNum=1, numSV=14, svid_01=5, elv_01=32.0, az_01=52, cno_01=49, svid_02=10, elv_02=13.0, az_02=249, cno_02=34, svid_03=15, elv_03=69.0, az_03=117, cno_03=45, svid_04=16, elv_04=10.0, az_04=305, cno_04=22, signalID=1)>
2026-07-18 11:32:00,725 - INFO - <NMEA(GPGSV, numMsg=4, msgNum=2, numSV=14, svid_01=18, elv_01=60.0, az_01=327, cno_01=46, svid_02=20, elv_02=47.0, az_02=64, cno_02=44, svid_03=21, elv_03=1.0, az_03=60, cno_03=37, svid_04=23, elv_04=43.0, az_04=262, cno_04=36, signalID=1)>
2026-07-18 11:32:00,726 - INFO - <NMEA(GPGSV, numMsg=4, msgNum=3, numSV=14, svid_01=24, elv_01=7.0, az_01=142, cno_01=39, svid_02=29, elv_02=57.0, az_02=185, cno_02=41, svid_03=30, elv_03=0.0, az_03=39, cno_03=29, svid_04=44, elv_04=42.0, az_04=210, cno_04=40, signalID=1)>
2026-07-18 11:32:00,727 - INFO - <NMEA(GPGSV, numMsg=4, msgNum=4, numSV=14, svid_01=46, elv_01=35.0, az_01=225, cno_01=38, svid_02=48, elv_02=38.0, az_02=220, cno_02=43, signalID=1)>
2026-07-18 11:32:00,728 - INFO - <NMEA(GPGSV, numMsg=3, msgNum=1, numSV=10, svid_01=5, elv_01=32.0, az_01=52, cno_01=39, svid_02=10, elv_02=13.0, az_02=249, cno_02=21, svid_03=15, elv_03=69.0, az_03=117, cno_03=40, svid_04=18, elv_04=60.0, az_04=327, cno_04=44, signalID=6)>
2026-07-18 11:32:00,729 - INFO - <NMEA(GPGSV, numMsg=3, msgNum=2, numSV=10, svid_01=20, elv_01=47.0, az_01=64, cno_01=43, svid_02=21, elv_02=1.0, az_02=60, cno_02=29, svid_03=23, elv_03=43.0, az_03=262, cno_03=36, svid_04=24, elv_04=7.0, az_04=142, cno_04=38, signalID=6)>
2026-07-18 11:32:00,730 - INFO - <NMEA(GPGSV, numMsg=3, msgNum=3, numSV=10, svid_01=26, elv_01=7.0, az_01=279, cno_01=28, svid_02=29, elv_02=57.0, az_02=185, cno_02=38, signalID=6)>
2026-07-18 11:32:00,731 - INFO - <NMEA(GLGSV, numMsg=2, msgNum=1, numSV=8, svid_01=70, elv_01=35.0, az_01=33, cno_01=46, svid_02=71, elv_02=78.0, az_02=182, cno_02=44, svid_03=72, elv_03=24.0, az_03=205, cno_03=35, svid_04=77, elv_04=2.0, az_04=297, cno_04=20, signalID=1)>
2026-07-18 11:32:00,732 - INFO - <NMEA(GLGSV, numMsg=2, msgNum=2, numSV=8, svid_01=84, elv_01=0.0, az_01=126, cno_01=16, svid_02=85, elv_02=40.0, az_02=112, cno_02=45, svid_03=86, elv_03=61.0, az_03=349, cno_03=46, svid_04=87, elv_04=23.0, az_04=322, cno_04=29, signalID=1)>
2026-07-18 11:32:00,733 - INFO - <NMEA(GLGSV, numMsg=2, msgNum=1, numSV=6, svid_01=70, elv_01=35.0, az_01=33, cno_01=39, svid_02=71, elv_02=78.0, az_02=182, cno_02=36, svid_03=72, elv_03=24.0, az_03=205, cno_03=30, svid_04=84, elv_04=0.0, az_04=126, cno_04=20, signalID=3)>
2026-07-18 11:32:00,734 - INFO - <NMEA(GLGSV, numMsg=2, msgNum=2, numSV=6, svid_01=85, elv_01=40.0, az_01=112, cno_01=41, svid_02=86, elv_02=61.0, az_02=349, cno_02=39, signalID=3)>
2026-07-18 11:32:00,735 - INFO - <NMEA(GAGSV, numMsg=3, msgNum=1, numSV=11, svid_01=4, elv_01=52.0, az_01=110, cno_01=42, svid_02=6, elv_02=45.0, az_02=150, cno_02=42, svid_03=9, elv_03=28.0, az_03=174, cno_03=36, svid_04=10, elv_04=55.0, az_04=67, cno_04=46, signalID=2)>
2026-07-18 11:32:00,736 - INFO - <NMEA(GAGSV, numMsg=3, msgNum=2, numSV=11, svid_01=11, elv_01=68.0, az_01=7, cno_01=43, svid_02=12, elv_02=33.0, az_02=86, cno_02=45, svid_03=16, elv_03=4.0, az_03=197, cno_03=22, svid_04=19, elv_04=24.0, az_04=46, cno_04=33, signalID=2)>
2026-07-18 11:32:00,737 - INFO - <NMEA(GAGSV, numMsg=3, msgNum=3, numSV=11, svid_01=25, elv_01=22.0, az_01=240, cno_01=39, svid_02=28, elv_02=43.0, az_02=74, cno_02=44, svid_03=36, elv_03=31.0, az_03=301, cno_03=40, signalID=2)>
2026-07-18 11:32:00,738 - INFO - <NMEA(GAGSV, numMsg=3, msgNum=1, numSV=11, svid_01=4, elv_01=52.0, az_01=110, cno_01=41, svid_02=6, elv_02=45.0, az_02=150, cno_02=37, svid_03=9, elv_03=28.0, az_03=174, cno_03=30, svid_04=10, elv_04=55.0, az_04=67, cno_04=44, signalID=7)>
2026-07-18 11:32:00,739 - INFO - <NMEA(GAGSV, numMsg=3, msgNum=2, numSV=11, svid_01=11, elv_01=68.0, az_01=7, cno_01=42, svid_02=12, elv_02=33.0, az_02=86, cno_02=38, svid_03=16, elv_03=4.0, az_03=197, cno_03=22, svid_04=19, elv_04=24.0, az_04=46, cno_04=40, signalID=7)>
2026-07-18 11:32:00,740 - INFO - <NMEA(GAGSV, numMsg=3, msgNum=3, numSV=11, svid_01=25, elv_01=22.0, az_01=240, cno_01=35, svid_02=28, elv_02=43.0, az_02=74, cno_02=48, svid_03=36, elv_03=31.0, az_03=301, cno_03=31, signalID=7)>
2026-07-18 11:32:00,741 - INFO - <NMEA(GBGSV, numMsg=2, msgNum=1, numSV=7, svid_01=13, elv_01=15.0, az_01=132, cno_01=42, svid_02=27, elv_02=90.0, az_02=13, cno_02=45, svid_03=28, elv_03=44.0, az_03=132, cno_03=40, svid_04=32, elv_04=42.0, az_04=217, cno_04=44, signalID=1)>
2026-07-18 11:32:00,742 - INFO - <NMEA(GBGSV, numMsg=2, msgNum=2, numSV=7, svid_01=33, elv_01=26.0, az_01=43, cno_01=46, svid_02=41, elv_02=76.0, az_02=59, cno_02=35, svid_03=58, elv_03=, az_03=, cno_03=40, signalID=1)>
2026-07-18 11:32:00,742 - INFO - <NMEA(GQGSV, numMsg=1, msgNum=1, numSV=0, signalID=0)>
2026-07-18 11:32:00,742 - INFO - <NMEA(GNGLL, lat=37.9008528333, NS=N, lon=-97.664209, EW=W, time=16:32:00.600000, status=A, posMode=D)>
2026-07-18 11:32:00,744 - INFO - <UBX(NAV-RELPOSNED, version=1, reserved0=0, refStationID=0, iTOW=16:32:00.600000, relPosN=41.76, relPosE=63.96, relPosD=-14.01, relPosLength=77.66, relPosHeading=56.85826, reserved1=0, accN=10.0, accE=10.0, accD=10.0, accLength=10.0, accHeading=0.75006, reserved2=0, gnssFixOK=1, diffSoln=1, relPosValid=1, carrSoln=2, isMoving=1, refPosMiss=0, refObsMiss=0, relPosHeadingValid=1, relPosNormalized=0)>
2026-07-18 11:32:00,745 - INFO - 2026-07-18 11:32:00 [3.4 OBSERVED] current_turn_radius: infm
2026-07-18 11:32:00,745 - INFO - 2026-07-18 11:32:00 [3.4 OBSERVED] turn_direction: LEFT
2026-07-18 11:32:00,745 - INFO - 2026-07-18 11:32:00 [3.4 OBSERVED] estimated left/right wheel speeds: nan, nan m/s
