2026-07-05 11:13:37,124 - INFO - Logging initialized to /home/dali/Documents/ReMow-Rover-Tests/Repeat/Logs/readRecordedRun-2026-07-05_11-13-37.log
2026-07-05 11:13:37,126 - INFO - RoboClaw opened successfully on /dev/serial/by-id/usb-Basicmicro_Inc._USB_Roboclaw_2x15A-if00
2026-07-05 11:13:37,429 - INFO - Encoders reset to zero
2026-07-05 11:13:37,430 - INFO - Starting readRecordedRun with combination: 55
2026-07-05 11:13:37,430 - INFO - Selected most recent recording: 55_20260510-134004_GPSData.csv
2026-07-05 11:13:37,434 - INFO - GREEN_LED initialized on GPIO 17
2026-07-05 11:13:37,439 - INFO - ENU origin from first waypoint: 37.9008713333, -97.66418
2026-07-05 11:13:37,494 - INFO - goto_positions: M1=1100, M2=1100 [Startup - ensuring neutral position]
2026-07-05 11:13:37,494 - INFO - Actuators initialized to neutral (1100)
2026-07-05 11:13:37,494 - INFO - === STATE MACHINE INITIALIZED ===
2026-07-05 11:13:37,494 - INFO - Start waypoint: East=0.000m, North=0.000m, Heading=1.8°
2026-07-05 11:13:37,494 - INFO - Initial state: NAVIGATING_TO_START
2026-07-05 11:13:37,494 - INFO - Navigation timeout: 300.0s
2026-07-05 11:13:37,495 - INFO - === WAITING FOR GPS RTK FIX ===
2026-07-05 11:13:37,495 - INFO - Need: relPosValid=1, carrSoln=2, relPosHeadingValid=1 (timeout: 60.0s)
2026-07-05 11:13:37,512 - INFO - GPS status: relPosValid=1, carrSoln=2, headingValid=1 (0.0s)
2026-07-05 11:13:37,512 - INFO - === GPS RTK FIXED — ready to navigate (0.0s) ===
2026-07-05 11:13:37,649 - INFO - <UBX(RXM-RTCM, version=2, crcFailed=0, msgUsed=2, subType=0, refStation=0, msgType=1074)>
2026-07-05 11:13:37,650 - INFO - Using persisted heading from driving to work area: 50.17° (captured at 2026-07-05 11:12:42)
2026-07-05 11:13:37,651 - INFO - <UBX(RXM-RTCM, version=2, crcFailed=0, msgUsed=2, subType=0, refStation=0, msgType=1084)>
2026-07-05 11:13:37,654 - INFO - <UBX(RXM-RTCM, version=2, crcFailed=0, msgUsed=2, subType=0, refStation=0, msgType=1094)>
2026-07-05 11:13:37,656 - INFO - <UBX(RXM-RTCM, version=2, crcFailed=0, msgUsed=2, subType=0, refStation=0, msgType=1124)>
2026-07-05 11:13:37,657 - INFO - <UBX(RXM-RTCM, version=2, crcFailed=0, msgUsed=2, subType=0, refStation=0, msgType=1230)>
2026-07-05 11:13:37,696 - INFO - <UBX(NAV-PVT, iTOW=16:13:37.600000, year=2026, month=7, day=5, hour=16, min=13, second=37, validDate=1, validTime=1, fullyResolved=1, validMag=0, tAcc=22, nano=599688143, fixType=3, gnssFixOk=1, diffSoln=1, psmState=0, headVehValid=0, carrSoln=2, confirmedAvai=1, confirmedDate=1, confirmedTime=1, numSV=32, lon=-97.6641934, lat=37.9008382, height=405627, hMSL=431880, hAcc=1079, vAcc=1629, velN=0, velE=5, velD=-5, gSpeed=5, headMot=33.92585, sAcc=78, headAcc=180.0, pDOP=0.9, invalidLlh=0, lastCorrectionAge=1, reserved0=860630572, headVeh=0.0, magDec=0.0, magAcc=0.0)>
2026-07-05 11:13:37,697 - INFO - <NMEA(GNRMC, time=16:13:37.600000, status=A, lat=37.9008381667, NS=N, lon=-97.6641933333, EW=W, spd=0.011, cog=, date=2026-07-05, mv=, mvEW=, posMode=R, navStatus=V)>
2026-07-05 11:13:37,697 - INFO - <NMEA(GNVTG, cogt=, cogtUnit=T, cogm=, cogmUnit=M, sogn=0.011, sognUnit=N, sogk=0.019, sogkUnit=K, posMode=D)>
2026-07-05 11:13:37,698 - INFO - <NMEA(GNGGA, time=16:13:37.600000, lat=37.9008381667, NS=N, lon=-97.6641933333, EW=W, quality=4, numSV=12, HDOP=0.49, alt=431.9, altUnit=M, sep=-26.3, sepUnit=M, diffAge=0.2, diffStation=0)>
2026-07-05 11:13:37,698 - INFO - <NMEA(GNGSA, opMode=M, navMode=3, svid_01=5, svid_02=11, svid_03=15, svid_04=18, svid_05=20, svid_06=21, svid_07=23, svid_08=25, svid_09=29, svid_10=, svid_11=, svid_12=, PDOP=0.9, HDOP=0.49, VDOP=0.75, systemId=1)>
2026-07-05 11:13:37,699 - INFO - <NMEA(GNGSA, opMode=M, navMode=3, svid_01=81, svid_02=66, svid_03=79, svid_04=65, svid_05=88, svid_06=87, svid_07=72, svid_08=, svid_09=, svid_10=, svid_11=, svid_12=, PDOP=0.9, HDOP=0.49, VDOP=0.75, systemId=2)>
2026-07-05 11:13:37,699 - INFO - <NMEA(GNGSA, opMode=M, navMode=3, svid_01=10, svid_02=12, svid_03=16, svid_04=19, svid_05=25, svid_06=11, svid_07=28, svid_08=29, svid_09=33, svid_10=, svid_11=, svid_12=, PDOP=0.9, HDOP=0.49, VDOP=0.75, systemId=3)>
2026-07-05 11:13:37,700 - INFO - <NMEA(GNGSA, opMode=M, navMode=3, svid_01=13, svid_02=14, svid_03=21, svid_04=28, svid_05=34, svid_06=38, svid_07=42, svid_08=, svid_09=, svid_10=, svid_11=, svid_12=, PDOP=0.9, HDOP=0.49, VDOP=0.75, systemId=4)>
2026-07-05 11:13:37,700 - INFO - <NMEA(GNGSA, opMode=M, navMode=3, svid_01=, svid_02=, svid_03=, svid_04=, svid_05=, svid_06=, svid_07=, svid_08=, svid_09=, svid_10=, svid_11=, svid_12=, PDOP=0.9, HDOP=0.49, VDOP=0.75, systemId=5)>
2026-07-05 11:13:37,701 - INFO - <NMEA(GPGSV, numMsg=4, msgNum=1, numSV=13, svid_01=5, elv_01=61.0, az_01=37, cno_01=45, svid_02=11, elv_02=13.0, az_02=88, cno_02=43, svid_03=15, elv_03=42.0, az_03=161, cno_03=41, svid_04=18, elv_04=36.0, az_04=297, cno_04=36, signalID=1)>
2026-07-05 11:13:37,702 - INFO - <NMEA(GPGSV, numMsg=4, msgNum=2, numSV=13, svid_01=20, elv_01=46.0, az_01=115, cno_01=30, svid_02=21, elv_02=27.0, az_02=47, cno_02=42, svid_03=23, elv_03=19.0, az_03=234, cno_03=31, svid_04=25, elv_04=18.0, az_04=217, cno_04=32, signalID=1)>
2026-07-05 11:13:37,702 - INFO - <NMEA(GPGSV, numMsg=4, msgNum=3, numSV=13, svid_01=26, elv_01=11.0, az_01=307, cno_01=26, svid_02=29, elv_02=79.0, az_02=282, cno_02=44, svid_03=44, elv_03=42.0, az_03=210, cno_03=34, svid_04=46, elv_04=35.0, az_04=225, cno_04=44, signalID=1)>
2026-07-05 11:13:37,703 - INFO - <NMEA(GPGSV, numMsg=4, msgNum=4, numSV=13, svid_01=48, elv_01=38.0, az_01=220, cno_01=40, signalID=1)>
2026-07-05 11:13:37,703 - INFO - <NMEA(GPGSV, numMsg=3, msgNum=1, numSV=10, svid_01=5, elv_01=61.0, az_01=37, cno_01=40, svid_02=11, elv_02=13.0, az_02=88, cno_02=36, svid_03=15, elv_03=42.0, az_03=161, cno_03=39, svid_04=18, elv_04=36.0, az_04=297, cno_04=38, signalID=6)>
2026-07-05 11:13:37,704 - INFO - <NMEA(GPGSV, numMsg=3, msgNum=2, numSV=10, svid_01=20, elv_01=46.0, az_01=115, cno_01=43, svid_02=21, elv_02=27.0, az_02=47, cno_02=41, svid_03=23, elv_03=19.0, az_03=234, cno_03=33, svid_04=25, elv_04=18.0, az_04=217, cno_04=24, signalID=6)>
2026-07-05 11:13:37,704 - INFO - <NMEA(GPGSV, numMsg=3, msgNum=3, numSV=10, svid_01=26, elv_01=11.0, az_01=307, cno_01=17, svid_02=29, elv_02=79.0, az_02=282, cno_02=42, signalID=6)>
2026-07-05 11:13:37,704 - INFO - <NMEA(GPGSV, numMsg=1, msgNum=1, numSV=2, svid_01=12, elv_01=3.0, az_01=186, cno_01=, svid_02=13, elv_02=0.0, az_02=187, cno_02=, signalID=0)>
2026-07-05 11:13:37,705 - INFO - <NMEA(GLGSV, numMsg=3, msgNum=1, numSV=9, svid_01=65, elv_01=68.0, az_01=91, cno_01=44, svid_02=66, elv_02=37.0, az_02=177, cno_02=36, svid_03=72, elv_03=26.0, az_03=33, cno_03=43, svid_04=78, elv_04=6.0, az_04=236, cno_04=27, signalID=1)>
2026-07-05 11:13:37,705 - INFO - <NMEA(GLGSV, numMsg=3, msgNum=2, numSV=9, svid_01=79, elv_01=16.0, az_01=284, cno_01=34, svid_02=80, elv_02=7.0, az_02=334, cno_02=22, svid_03=81, elv_03=29.0, az_03=318, cno_03=35, svid_04=87, elv_04=15.0, az_04=101, cno_04=37, signalID=1)>
2026-07-05 11:13:37,705 - INFO - <UBX(RXM-RTCM, version=2, crcFailed=0, msgUsed=2, subType=0, refStation=0, msgType=4072)>
2026-07-05 11:13:37,706 - INFO - <NMEA(GLGSV, numMsg=3, msgNum=3, numSV=9, svid_01=88, elv_01=62.0, az_01=32, cno_01=48, signalID=1)>
2026-07-05 11:13:37,706 - INFO - <NMEA(GLGSV, numMsg=2, msgNum=1, numSV=7, svid_01=66, elv_01=37.0, az_01=177, cno_01=24, svid_02=72, elv_02=26.0, az_02=33, cno_02=40, svid_03=78, elv_03=6.0, az_03=236, cno_03=28, svid_04=79, elv_04=16.0, az_04=284, cno_04=34, signalID=3)>
2026-07-05 11:13:37,707 - INFO - <NMEA(GLGSV, numMsg=2, msgNum=2, numSV=7, svid_01=80, elv_01=7.0, az_01=334, cno_01=21, svid_02=81, elv_02=29.0, az_02=318, cno_02=28, svid_03=88, elv_03=62.0, az_03=32, cno_03=38, signalID=3)>
2026-07-05 11:13:37,707 - INFO - <NMEA(GAGSV, numMsg=3, msgNum=1, numSV=12, svid_01=4, elv_01=9.0, az_01=173, cno_01=25, svid_02=10, elv_02=47.0, az_02=299, cno_02=48, svid_03=11, elv_03=23.0, az_03=282, cno_03=28, svid_04=12, elv_04=64.0, az_04=335, cno_04=40, signalID=2)>
2026-07-05 11:13:37,708 - INFO - <NMEA(GAGSV, numMsg=3, msgNum=2, numSV=12, svid_01=14, elv_01=73.0, az_01=261, cno_01=49, svid_02=16, elv_02=39.0, az_02=257, cno_02=46, svid_03=19, elv_03=35.0, az_03=122, cno_03=40, svid_04=25, elv_04=21.0, az_04=309, cno_04=32, signalID=2)>
2026-07-05 11:13:37,709 - INFO - <NMEA(GAGSV, numMsg=3, msgNum=3, numSV=12, svid_01=28, elv_01=23.0, az_01=153, cno_01=45, svid_02=29, elv_02=28.0, az_02=64, cno_02=45, svid_03=31, elv_03=20.0, az_03=196, cno_03=31, svid_04=33, elv_04=38.0, az_04=66, cno_04=46, signalID=2)>
2026-07-05 11:13:37,710 - INFO - <NMEA(GAGSV, numMsg=3, msgNum=1, numSV=11, svid_01=4, elv_01=9.0, az_01=173, cno_01=25, svid_02=10, elv_02=47.0, az_02=299, cno_02=48, svid_03=12, elv_03=64.0, az_03=335, cno_03=42, svid_04=14, elv_04=73.0, az_04=261, cno_04=44, signalID=7)>
2026-07-05 11:13:37,711 - INFO - <NMEA(GAGSV, numMsg=3, msgNum=2, numSV=11, svid_01=16, elv_01=39.0, az_01=257, cno_01=38, svid_02=19, elv_02=35.0, az_02=122, cno_02=36, svid_03=25, elv_03=21.0, az_03=309, cno_03=24, svid_04=28, elv_04=23.0, az_04=153, cno_04=39, signalID=7)>
2026-07-05 11:13:37,711 - INFO - <NMEA(GAGSV, numMsg=3, msgNum=3, numSV=11, svid_01=29, elv_01=28.0, az_01=64, cno_01=43, svid_02=31, elv_02=20.0, az_02=196, cno_02=35, svid_03=33, elv_03=38.0, az_03=66, cno_03=45, signalID=7)>
2026-07-05 11:13:37,712 - INFO - <NMEA(GBGSV, numMsg=2, msgNum=1, numSV=8, svid_01=13, elv_01=72.0, az_01=339, cno_01=41, svid_02=14, elv_02=33.0, az_02=47, cno_02=42, svid_03=21, elv_03=10.0, az_03=37, cno_03=41, svid_04=28, elv_04=43.0, az_04=312, cno_04=44, signalID=1)>
2026-07-05 11:13:37,713 - INFO - <NMEA(GBGSV, numMsg=2, msgNum=2, numSV=8, svid_01=33, elv_01=54.0, az_01=181, cno_01=23, svid_02=34, elv_02=16.0, az_02=117, cno_02=42, svid_03=38, elv_03=73.0, az_03=89, cno_03=44, svid_04=42, elv_04=55.0, az_04=62, cno_04=48, signalID=1)>
2026-07-05 11:13:37,713 - INFO - <NMEA(GQGSV, numMsg=1, msgNum=1, numSV=0, signalID=0)>
2026-07-05 11:13:37,713 - INFO - <NMEA(GNGLL, lat=37.9008381667, NS=N, lon=-97.6641933333, EW=W, time=16:13:37.600000, status=A, posMode=D)>
2026-07-05 11:13:37,714 - INFO - <UBX(NAV-RELPOSNED, version=1, reserved0=0, refStationID=0, iTOW=16:13:37.600000, relPosN=36.92, relPosE=45.09, relPosD=3.58, relPosLength=58.39, relPosHeading=50.6905, reserved1=0, accN=10.0, accE=10.0, accD=11.0, accLength=10.0, accHeading=0.98319, reserved2=0, gnssFixOK=1, diffSoln=1, relPosValid=1, carrSoln=2, isMoving=1, refPosMiss=0, refObsMiss=0, relPosHeadingValid=1, relPosNormalized=0)>
2026-07-05 11:13:37,715 - INFO - 2026-07-05 11:13:37 Initial Moving Baseline state: active
2026-07-05 11:13:37,715 - INFO - 2026-07-05 11:13:37 Initial carrier solution: fixed
2026-07-05 11:13:37,715 - INFO - 2026-07-05 11:13:37, current_target: {'timestamp': '2026-05-10 13:40:05', 'lat': 37.9008713333, 'lon': -97.66418, 'speed': 0.004629996, 'y_offset': 0.0, 'x_offset': 0.0, 'z_offset': 0.0, 'heading': 1.76477}, next_target: {'timestamp': '2026-05-10 13:40:06', 'lat': 37.9008713333, 'lon': -97.66418, 'speed': 0.00514444, 'y_offset': 0.0, 'x_offset': 0.0, 'z_offset': 0.0, 'heading': 1.76299}
2026-07-05 11:13:37,848 - INFO - <UBX(RXM-RTCM, version=2, crcFailed=0, msgUsed=2, subType=0, refStation=0, msgType=1074)>
2026-07-05 11:13:37,849 - INFO - 2026-07-05 11:13:37, current_target: {'timestamp': '2026-05-10 13:40:05', 'lat': 37.9008713333, 'lon': -97.66418, 'speed': 0.004629996, 'y_offset': 0.0, 'x_offset': 0.0, 'z_offset': 0.0, 'heading': 1.76477}, next_target: {'timestamp': '2026-05-10 13:40:06', 'lat': 37.9008713333, 'lon': -97.66418, 'speed': 0.00514444, 'y_offset': 0.0, 'x_offset': 0.0, 'z_offset': 0.0, 'heading': 1.76299}
2026-07-05 11:13:37,849 - INFO - 2026-07-05 11:13:37 [3.4 OBSERVED] current_turn_radius: infm
2026-07-05 11:13:37,849 - INFO - 2026-07-05 11:13:37 [3.4 OBSERVED] turn_direction: STRAIGHT
2026-07-05 11:13:37,849 - INFO - 2026-07-05 11:13:37 [3.4 OBSERVED] estimated left/right wheel speeds: 0.006, 0.006 m/s
2026-07-05 11:13:37,850 - INFO - 2026-07-05 11:13:37 [STATE] Current state: NAVIGATING_TO_START
2026-07-05 11:13:37,850 - INFO - 2026-07-05 11:13:37 [NAV_TO_START] Phase: DRIVE_TO_START, Dist: 3.864m, Bearing err: -33.0°, Heading diff: 48.9°, Elapsed: 0.4s
2026-07-05 11:13:37,850 - INFO - 2026-07-05 11:13:37 [NAV_TO_START] DRIVE: bearing=17.7°, dist=3.86m, turn=LEFT, radius=2.66m, speed=1.00
2026-07-05 11:13:37,851 - INFO - 2026-07-05 11:13:37 Turn: LEFT, R: 2.66m, v_L: 0.87 m/s, v_R: 1.13 m/s
2026-07-05 11:13:37,851 - INFO - 2026-07-05 11:13:37 left_actuator_position: 666 (counts) from v_L 0.868 m/s
2026-07-05 11:13:37,851 - INFO - 2026-07-05 11:13:37 right_actuator_position: 534 (counts) from v_R 1.132 m/s
2026-07-05 11:13:37,864 - INFO - Sent actuator positions to RoboClaw → M1 (left): 666, M2 (right): 534 (counts)
2026-07-05 11:13:37,864 - INFO - 2026-07-05 11:13:37 APPLY → left_pos: 666, right_pos: 534 (counts), v_L: 0.87 m/s, v_R: 1.13 m/s
2026-07-05 11:13:37,865 - INFO - <UBX(RXM-RTCM, version=2, crcFailed=0, msgUsed=2, subType=0, refStation=0, msgType=1084)>
2026-07-05 11:13:37,865 - INFO - <UBX(RXM-RTCM, version=2, crcFailed=0, msgUsed=2, subType=0, refStation=0, msgType=1094)>
2026-07-05 11:13:37,865 - INFO - <UBX(RXM-RTCM, version=2, crcFailed=0, msgUsed=2, subType=0, refStation=0, msgType=1124)>
2026-07-05 11:13:37,865 - INFO - <UBX(RXM-RTCM, version=2, crcFailed=0, msgUsed=2, subType=0, refStation=0, msgType=1230)>
2026-07-05 11:13:37,899 - INFO - <UBX(RXM-RTCM, version=2, crcFailed=0, msgUsed=2, subType=0, refStation=0, msgType=4072)>
2026-07-05 11:13:37,902 - INFO - <UBX(NAV-PVT, iTOW=16:13:37.800000, year=2026, month=7, day=5, hour=16, min=13, second=37, validDate=1, validTime=1, fullyResolved=1, validMag=0, tAcc=22, nano=799688092, fixType=3, gnssFixOk=1, diffSoln=1, psmState=0, headVehValid=0, carrSoln=2, confirmedAvai=1, confirmedDate=1, confirmedTime=1, numSV=32, lon=-97.6641934, lat=37.9008381, height=405623, hMSL=431876, hAcc=1037, vAcc=1565, velN=-1, velE=-1, velD=-6, gSpeed=2, headMot=33.92585, sAcc=81, headAcc=180.0, pDOP=0.9, invalidLlh=0, lastCorrectionAge=1, reserved0=860630572, headVeh=0.0, magDec=0.0, magAcc=0.0)>
2026-07-05 11:13:37,902 - INFO - <NMEA(GNRMC, time=16:13:37.800000, status=A, lat=37.9008381667, NS=N, lon=-97.6641933333, EW=W, spd=0.004, cog=, date=2026-07-05, mv=, mvEW=, posMode=R, navStatus=V)>
2026-07-05 11:13:37,903 - INFO - <NMEA(GNVTG, cogt=, cogtUnit=T, cogm=, cogmUnit=M, sogn=0.004, sognUnit=N, sogk=0.007, sogkUnit=K, posMode=D)>
2026-07-05 11:13:37,903 - INFO - <NMEA(GNGGA, time=16:13:37.800000, lat=37.9008381667, NS=N, lon=-97.6641933333, EW=W, quality=4, numSV=12, HDOP=0.49, alt=431.9, altUnit=M, sep=-26.3, sepUnit=M, diffAge=0.2, diffStation=0)>
2026-07-05 11:13:37,904 - INFO - <NMEA(GNGSA, opMode=M, navMode=3, svid_01=5, svid_02=11, svid_03=15, svid_04=18, svid_05=20, svid_06=21, svid_07=23, svid_08=25, svid_09=29, svid_10=, svid_11=, svid_12=, PDOP=0.9, HDOP=0.49, VDOP=0.75, systemId=1)>
2026-07-05 11:13:37,904 - INFO - <NMEA(GNGSA, opMode=M, navMode=3, svid_01=81, svid_02=66, svid_03=79, svid_04=65, svid_05=88, svid_06=87, svid_07=72, svid_08=, svid_09=, svid_10=, svid_11=, svid_12=, PDOP=0.9, HDOP=0.49, VDOP=0.75, systemId=2)>
2026-07-05 11:13:37,905 - INFO - <NMEA(GNGSA, opMode=M, navMode=3, svid_01=10, svid_02=12, svid_03=16, svid_04=19, svid_05=25, svid_06=11, svid_07=28, svid_08=29, svid_09=33, svid_10=, svid_11=, svid_12=, PDOP=0.9, HDOP=0.49, VDOP=0.75, systemId=3)>
2026-07-05 11:13:37,905 - INFO - <NMEA(GNGSA, opMode=M, navMode=3, svid_01=13, svid_02=14, svid_03=21, svid_04=28, svid_05=34, svid_06=38, svid_07=42, svid_08=, svid_09=, svid_10=, svid_11=, svid_12=, PDOP=0.9, HDOP=0.49, VDOP=0.75, systemId=4)>
2026-07-05 11:13:37,905 - INFO - <NMEA(GNGSA, opMode=M, navMode=3, svid_01=, svid_02=, svid_03=, svid_04=, svid_05=, svid_06=, svid_07=, svid_08=, svid_09=, svid_10=, svid_11=, svid_12=, PDOP=0.9, HDOP=0.49, VDOP=0.75, systemId=5)>
2026-07-05 11:13:37,906 - INFO - <NMEA(GPGSV, numMsg=4, msgNum=1, numSV=13, svid_01=5, elv_01=61.0, az_01=37, cno_01=45, svid_02=11, elv_02=13.0, az_02=88, cno_02=43, svid_03=15, elv_03=42.0, az_03=161, cno_03=41, svid_04=18, elv_04=36.0, az_04=297, cno_04=36, signalID=1)>
2026-07-05 11:13:37,906 - INFO - <NMEA(GPGSV, numMsg=4, msgNum=2, numSV=13, svid_01=20, elv_01=46.0, az_01=115, cno_01=30, svid_02=21, elv_02=27.0, az_02=47, cno_02=42, svid_03=23, elv_03=19.0, az_03=234, cno_03=31, svid_04=25, elv_04=18.0, az_04=217, cno_04=32, signalID=1)>
2026-07-05 11:13:37,907 - INFO - <NMEA(GPGSV, numMsg=4, msgNum=3, numSV=13, svid_01=26, elv_01=11.0, az_01=307, cno_01=26, svid_02=29, elv_02=79.0, az_02=282, cno_02=44, svid_03=44, elv_03=42.0, az_03=210, cno_03=34, svid_04=46, elv_04=35.0, az_04=225, cno_04=44, signalID=1)>
2026-07-05 11:13:37,907 - INFO - <NMEA(GPGSV, numMsg=4, msgNum=4, numSV=13, svid_01=48, elv_01=38.0, az_01=220, cno_01=40, signalID=1)>
2026-07-05 11:13:37,907 - INFO - <NMEA(GPGSV, numMsg=3, msgNum=1, numSV=10, svid_01=5, elv_01=61.0, az_01=37, cno_01=40, svid_02=11, elv_02=13.0, az_02=88, cno_02=36, svid_03=15, elv_03=42.0, az_03=161, cno_03=39, svid_04=18, elv_04=36.0, az_04=297, cno_04=38, signalID=6)>
2026-07-05 11:13:37,908 - INFO - <NMEA(GPGSV, numMsg=3, msgNum=2, numSV=10, svid_01=20, elv_01=46.0, az_01=115, cno_01=43, svid_02=21, elv_02=27.0, az_02=47, cno_02=41, svid_03=23, elv_03=19.0, az_03=234, cno_03=33, svid_04=25, elv_04=18.0, az_04=217, cno_04=24, signalID=6)>
2026-07-05 11:13:37,909 - INFO - <NMEA(GPGSV, numMsg=3, msgNum=3, numSV=10, svid_01=26, elv_01=11.0, az_01=307, cno_01=17, svid_02=29, elv_02=79.0, az_02=282, cno_02=42, signalID=6)>
2026-07-05 11:13:37,909 - INFO - <NMEA(GPGSV, numMsg=1, msgNum=1, numSV=2, svid_01=12, elv_01=3.0, az_01=186, cno_01=, svid_02=13, elv_02=0.0, az_02=187, cno_02=, signalID=0)>
2026-07-05 11:13:37,910 - INFO - <NMEA(GLGSV, numMsg=3, msgNum=1, numSV=9, svid_01=65, elv_01=68.0, az_01=91, cno_01=44, svid_02=66, elv_02=37.0, az_02=177, cno_02=36, svid_03=72, elv_03=26.0, az_03=33, cno_03=43, svid_04=78, elv_04=6.0, az_04=236, cno_04=27, signalID=1)>
2026-07-05 11:13:37,911 - INFO - <NMEA(GLGSV, numMsg=3, msgNum=2, numSV=9, svid_01=79, elv_01=16.0, az_01=284, cno_01=34, svid_02=80, elv_02=7.0, az_02=334, cno_02=23, svid_03=81, elv_03=29.0, az_03=318, cno_03=35, svid_04=87, elv_04=15.0, az_04=101, cno_04=36, signalID=1)>
2026-07-05 11:13:37,911 - INFO - <NMEA(GLGSV, numMsg=3, msgNum=3, numSV=9, svid_01=88, elv_01=62.0, az_01=32, cno_01=48, signalID=1)>
2026-07-05 11:13:37,912 - INFO - <NMEA(GLGSV, numMsg=2, msgNum=1, numSV=7, svid_01=66, elv_01=37.0, az_01=177, cno_01=24, svid_02=72, elv_02=26.0, az_02=33, cno_02=40, svid_03=78, elv_03=6.0, az_03=236, cno_03=28, svid_04=79, elv_04=16.0, az_04=284, cno_04=34, signalID=3)>
2026-07-05 11:13:37,912 - INFO - <NMEA(GLGSV, numMsg=2, msgNum=2, numSV=7, svid_01=80, elv_01=7.0, az_01=334, cno_01=21, svid_02=81, elv_02=29.0, az_02=318, cno_02=29, svid_03=88, elv_03=62.0, az_03=32, cno_03=38, signalID=3)>
2026-07-05 11:13:37,913 - INFO - <NMEA(GAGSV, numMsg=3, msgNum=1, numSV=12, svid_01=4, elv_01=9.0, az_01=173, cno_01=25, svid_02=10, elv_02=47.0, az_02=299, cno_02=48, svid_03=11, elv_03=23.0, az_03=282, cno_03=28, svid_04=12, elv_04=64.0, az_04=335, cno_04=40, signalID=2)>
2026-07-05 11:13:37,913 - INFO - <NMEA(GAGSV, numMsg=3, msgNum=2, numSV=12, svid_01=14, elv_01=73.0, az_01=261, cno_01=49, svid_02=16, elv_02=39.0, az_02=257, cno_02=46, svid_03=19, elv_03=35.0, az_03=122, cno_03=40, svid_04=25, elv_04=21.0, az_04=309, cno_04=32, signalID=2)>
2026-07-05 11:13:37,914 - INFO - <NMEA(GAGSV, numMsg=3, msgNum=3, numSV=12, svid_01=28, elv_01=23.0, az_01=153, cno_01=45, svid_02=29, elv_02=28.0, az_02=64, cno_02=45, svid_03=31, elv_03=20.0, az_03=196, cno_03=31, svid_04=33, elv_04=38.0, az_04=66, cno_04=46, signalID=2)>
2026-07-05 11:13:37,914 - INFO - <NMEA(GAGSV, numMsg=3, msgNum=1, numSV=11, svid_01=4, elv_01=9.0, az_01=173, cno_01=25, svid_02=10, elv_02=47.0, az_02=299, cno_02=48, svid_03=12, elv_03=64.0, az_03=335, cno_03=42, svid_04=14, elv_04=73.0, az_04=261, cno_04=44, signalID=7)>
2026-07-05 11:13:37,915 - INFO - <NMEA(GAGSV, numMsg=3, msgNum=2, numSV=11, svid_01=16, elv_01=39.0, az_01=257, cno_01=38, svid_02=19, elv_02=35.0, az_02=122, cno_02=36, svid_03=25, elv_03=21.0, az_03=309, cno_03=24, svid_04=28, elv_04=23.0, az_04=153, cno_04=39, signalID=7)>
2026-07-05 11:13:37,915 - INFO - <NMEA(GAGSV, numMsg=3, msgNum=3, numSV=11, svid_01=29, elv_01=28.0, az_01=64, cno_01=43, svid_02=31, elv_02=20.0, az_02=196, cno_02=35, svid_03=33, elv_03=38.0, az_03=66, cno_03=46, signalID=7)>
2026-07-05 11:13:37,916 - INFO - <NMEA(GBGSV, numMsg=2, msgNum=1, numSV=8, svid_01=13, elv_01=72.0, az_01=339, cno_01=41, svid_02=14, elv_02=33.0, az_02=47, cno_02=42, svid_03=21, elv_03=10.0, az_03=37, cno_03=41, svid_04=28, elv_04=43.0, az_04=312, cno_04=44, signalID=1)>
2026-07-05 11:13:37,916 - INFO - <NMEA(GBGSV, numMsg=2, msgNum=2, numSV=8, svid_01=33, elv_01=54.0, az_01=181, cno_01=23, svid_02=34, elv_02=16.0, az_02=117, cno_02=41, svid_03=38, elv_03=73.0, az_03=89, cno_03=44, svid_04=42, elv_04=55.0, az_04=62, cno_04=48, signalID=1)>
2026-07-05 11:13:37,917 - INFO - <NMEA(GQGSV, numMsg=1, msgNum=1, numSV=0, signalID=0)>
2026-07-05 11:13:37,917 - INFO - <NMEA(GNGLL, lat=37.9008381667, NS=N, lon=-97.6641933333, EW=W, time=16:13:37.800000, status=A, posMode=D)>
2026-07-05 11:13:37,917 - INFO - <UBX(NAV-RELPOSNED, version=1, reserved0=0, refStationID=0, iTOW=16:13:37.800000, relPosN=36.67, relPosE=45.07, relPosD=3.98, relPosLength=58.24, relPosHeading=50.86687, reserved1=0, accN=10.0, accE=10.0, accD=10.4, accLength=10.0, accHeading=0.98606, reserved2=0, gnssFixOK=1, diffSoln=1, relPosValid=1, carrSoln=2, isMoving=1, refPosMiss=0, refObsMiss=0, relPosHeadingValid=1, relPosNormalized=0)>
2026-07-05 11:13:37,918 - INFO - 2026-07-05 11:13:37, current_target: {'timestamp': '2026-05-10 13:40:05', 'lat': 37.9008713333, 'lon': -97.66418, 'speed': 0.004629996, 'y_offset': 0.0, 'x_offset': 0.0, 'z_offset': 0.0, 'heading': 1.76477}, next_target: {'timestamp': '2026-05-10 13:40:06', 'lat': 37.9008713333, 'lon': -97.66418, 'speed': 0.00514444, 'y_offset': 0.0, 'x_offset': 0.0, 'z_offset': 0.0, 'heading': 1.76299}
2026-07-05 11:13:37,919 - INFO - 2026-07-05 11:13:37 [3.4 OBSERVED] current_turn_radius: infm
2026-07-05 11:13:37,919 - INFO - 2026-07-05 11:13:37 [3.4 OBSERVED] turn_direction: RIGHT
2026-07-05 11:13:37,919 - INFO - 2026-07-05 11:13:37 [3.4 OBSERVED] estimated left/right wheel speeds: nan, nan m/s
2026-07-05 11:13:37,920 - INFO - 2026-07-05 11:13:37 [STATE] Current state: NAVIGATING_TO_START
2026-07-05 11:13:37,920 - INFO - 2026-07-05 11:13:37 [NAV_TO_START] Phase: DRIVE_TO_START, Dist: 3.864m, Bearing err: -33.2°, Heading diff: 49.1°, Elapsed: 0.4s
2026-07-05 11:13:37,921 - INFO - 2026-07-05 11:13:37 [NAV_TO_START] DRIVE: bearing=17.7°, dist=3.86m, turn=LEFT, radius=2.65m, speed=1.00
2026-07-05 11:13:37,921 - INFO - 2026-07-05 11:13:37 Turn: LEFT, R: 2.65m, v_L: 0.87 m/s, v_R: 1.13 m/s
2026-07-05 11:13:37,921 - INFO - 2026-07-05 11:13:37 left_actuator_position: 666 (counts) from v_L 0.868 m/s
2026-07-05 11:13:37,921 - INFO - 2026-07-05 11:13:37 right_actuator_position: 534 (counts) from v_R 1.132 m/s
2026-07-05 11:13:37,937 - INFO - Sent actuator positions to RoboClaw → M1 (left): 666, M2 (right): 534 (counts)
2026-07-05 11:13:37,937 - INFO - 2026-07-05 11:13:37 APPLY → left_pos: 666, right_pos: 534 (counts), v_L: 0.87 m/s, v_R: 1.13 m/s
2026-07-05 11:13:38,048 - INFO - <UBX(RXM-RTCM, version=2, crcFailed=0, msgUsed=2, subType=0, refStation=0, msgType=1074)>
2026-07-05 11:13:38,052 - INFO - <UBX(RXM-RTCM, version=2, crcFailed=0, msgUsed=2, subType=0, refStation=0, msgType=1084)>
2026-07-05 11:13:38,054 - INFO - <UBX(RXM-RTCM, version=2, crcFailed=0, msgUsed=2, subType=0, refStation=0, msgType=1094)>
2026-07-05 11:13:38,057 - INFO - <UBX(RXM-RTCM, version=2, crcFailed=0, msgUsed=2, subType=0, refStation=0, msgType=1124)>
2026-07-05 11:13:38,057 - INFO - <UBX(RXM-RTCM, version=2, crcFailed=0, msgUsed=2, subType=0, refStation=0, msgType=1230)>
2026-07-05 11:13:38,115 - INFO - <UBX(NAV-PVT, iTOW=16:13:38, year=2026, month=7, day=5, hour=16, min=13, second=38, validDate=1, validTime=1, fullyResolved=1, validMag=0, tAcc=22, nano=-311959, fixType=3, gnssFixOk=1, diffSoln=1, psmState=0, headVehValid=0, carrSoln=2, confirmedAvai=1, confirmedDate=1, confirmedTime=1, numSV=32, lon=-97.6641934, lat=37.9008382, height=405621, hMSL=431874, hAcc=1066, vAcc=1610, velN=6, velE=0, velD=3, gSpeed=6, headMot=33.92585, sAcc=77, headAcc=180.0, pDOP=0.9, invalidLlh=0, lastCorrectionAge=1, reserved0=860630572, headVeh=0.0, magDec=0.0, magAcc=0.0)>
2026-07-05 11:13:38,117 - INFO - <NMEA(GNRMC, time=16:13:38, status=A, lat=37.9008381667, NS=N, lon=-97.6641933333, EW=W, spd=0.011, cog=, date=2026-07-05, mv=, mvEW=, posMode=R, navStatus=V)>
2026-07-05 11:13:38,117 - INFO - <NMEA(GNVTG, cogt=, cogtUnit=T, cogm=, cogmUnit=M, sogn=0.011, sognUnit=N, sogk=0.021, sogkUnit=K, posMode=D)>
2026-07-05 11:13:38,119 - INFO - <NMEA(GNGGA, time=16:13:38, lat=37.9008381667, NS=N, lon=-97.6641933333, EW=W, quality=4, numSV=12, HDOP=0.49, alt=431.9, altUnit=M, sep=-26.3, sepUnit=M, diffAge=0.2, diffStation=0)>
2026-07-05 11:13:38,119 - INFO - <NMEA(GNGSA, opMode=M, navMode=3, svid_01=5, svid_02=11, svid_03=15, svid_04=18, svid_05=20, svid_06=21, svid_07=23, svid_08=25, svid_09=29, svid_10=, svid_11=, svid_12=, PDOP=0.9, HDOP=0.49, VDOP=0.75, systemId=1)>
2026-07-05 11:13:38,120 - INFO - <NMEA(GNGSA, opMode=M, navMode=3, svid_01=81, svid_02=66, svid_03=79, svid_04=65, svid_05=88, svid_06=87, svid_07=72, svid_08=, svid_09=, svid_10=, svid_11=, svid_12=, PDOP=0.9, HDOP=0.49, VDOP=0.75, systemId=2)>
2026-07-05 11:13:38,120 - INFO - <NMEA(GNGSA, opMode=M, navMode=3, svid_01=10, svid_02=12, svid_03=16, svid_04=19, svid_05=25, svid_06=11, svid_07=28, svid_08=29, svid_09=33, svid_10=, svid_11=, svid_12=, PDOP=0.9, HDOP=0.49, VDOP=0.75, systemId=3)>
2026-07-05 11:13:38,121 - INFO - <NMEA(GNGSA, opMode=M, navMode=3, svid_01=13, svid_02=14, svid_03=21, svid_04=28, svid_05=34, svid_06=38, svid_07=42, svid_08=, svid_09=, svid_10=, svid_11=, svid_12=, PDOP=0.9, HDOP=0.49, VDOP=0.75, systemId=4)>
2026-07-05 11:13:38,121 - INFO - <NMEA(GNGSA, opMode=M, navMode=3, svid_01=, svid_02=, svid_03=, svid_04=, svid_05=, svid_06=, svid_07=, svid_08=, svid_09=, svid_10=, svid_11=, svid_12=, PDOP=0.9, HDOP=0.49, VDOP=0.75, systemId=5)>
2026-07-05 11:13:38,122 - INFO - <NMEA(GPGSV, numMsg=4, msgNum=1, numSV=13, svid_01=5, elv_01=61.0, az_01=37, cno_01=45, svid_02=11, elv_02=13.0, az_02=88, cno_02=43, svid_03=15, elv_03=42.0, az_03=161, cno_03=41, svid_04=18, elv_04=36.0, az_04=297, cno_04=36, signalID=1)>
2026-07-05 11:13:38,123 - INFO - <NMEA(GPGSV, numMsg=4, msgNum=2, numSV=13, svid_01=20, elv_01=46.0, az_01=115, cno_01=30, svid_02=21, elv_02=27.0, az_02=47, cno_02=42, svid_03=23, elv_03=19.0, az_03=234, cno_03=31, svid_04=25, elv_04=18.0, az_04=217, cno_04=32, signalID=1)>
2026-07-05 11:13:38,124 - INFO - <NMEA(GPGSV, numMsg=4, msgNum=3, numSV=13, svid_01=26, elv_01=11.0, az_01=307, cno_01=26, svid_02=29, elv_02=79.0, az_02=282, cno_02=44, svid_03=44, elv_03=42.0, az_03=210, cno_03=34, svid_04=46, elv_04=35.0, az_04=225, cno_04=44, signalID=1)>
2026-07-05 11:13:38,125 - INFO - <NMEA(GPGSV, numMsg=4, msgNum=4, numSV=13, svid_01=48, elv_01=38.0, az_01=220, cno_01=40, signalID=1)>
2026-07-05 11:13:38,126 - INFO - <NMEA(GPGSV, numMsg=3, msgNum=1, numSV=10, svid_01=5, elv_01=61.0, az_01=37, cno_01=40, svid_02=11, elv_02=13.0, az_02=88, cno_02=36, svid_03=15, elv_03=42.0, az_03=161, cno_03=39, svid_04=18, elv_04=36.0, az_04=297, cno_04=38, signalID=6)>
2026-07-05 11:13:38,126 - INFO - <NMEA(GPGSV, numMsg=3, msgNum=2, numSV=10, svid_01=20, elv_01=46.0, az_01=115, cno_01=43, svid_02=21, elv_02=27.0, az_02=47, cno_02=41, svid_03=23, elv_03=19.0, az_03=234, cno_03=33, svid_04=25, elv_04=18.0, az_04=217, cno_04=24, signalID=6)>
2026-07-05 11:13:38,126 - INFO - <NMEA(GPGSV, numMsg=3, msgNum=3, numSV=10, svid_01=26, elv_01=11.0, az_01=307, cno_01=17, svid_02=29, elv_02=79.0, az_02=282, cno_02=43, signalID=6)>
2026-07-05 11:13:38,127 - INFO - <NMEA(GPGSV, numMsg=1, msgNum=1, numSV=2, svid_01=12, elv_01=3.0, az_01=186, cno_01=, svid_02=13, elv_02=0.0, az_02=187, cno_02=, signalID=0)>
2026-07-05 11:13:38,127 - INFO - <NMEA(GLGSV, numMsg=3, msgNum=1, numSV=9, svid_01=65, elv_01=68.0, az_01=91, cno_01=44, svid_02=66, elv_02=37.0, az_02=177, cno_02=36, svid_03=72, elv_03=26.0, az_03=33, cno_03=43, svid_04=78, elv_04=6.0, az_04=236, cno_04=27, signalID=1)>
2026-07-05 11:13:38,127 - INFO - <UBX(RXM-RTCM, version=2, crcFailed=0, msgUsed=2, subType=0, refStation=0, msgType=4072)>
2026-07-05 11:13:38,128 - INFO - <NMEA(GLGSV, numMsg=3, msgNum=2, numSV=9, svid_01=79, elv_01=16.0, az_01=284, cno_01=34, svid_02=80, elv_02=7.0, az_02=334, cno_02=24, svid_03=81, elv_03=29.0, az_03=318, cno_03=35, svid_04=87, elv_04=15.0, az_04=101, cno_04=36, signalID=1)>
2026-07-05 11:13:38,128 - INFO - <NMEA(GLGSV, numMsg=3, msgNum=3, numSV=9, svid_01=88, elv_01=62.0, az_01=32, cno_01=48, signalID=1)>
2026-07-05 11:13:38,129 - INFO - <NMEA(GLGSV, numMsg=2, msgNum=1, numSV=7, svid_01=66, elv_01=37.0, az_01=177, cno_01=24, svid_02=72, elv_02=26.0, az_02=33, cno_02=40, svid_03=78, elv_03=6.0, az_03=236, cno_03=28, svid_04=79, elv_04=16.0, az_04=284, cno_04=34, signalID=3)>
2026-07-05 11:13:38,130 - INFO - <NMEA(GLGSV, numMsg=2, msgNum=2, numSV=7, svid_01=80, elv_01=7.0, az_01=334, cno_01=21, svid_02=81, elv_02=29.0, az_02=318, cno_02=29, svid_03=88, elv_03=62.0, az_03=32, cno_03=38, signalID=3)>
2026-07-05 11:13:38,131 - INFO - <NMEA(GAGSV, numMsg=3, msgNum=1, numSV=12, svid_01=4, elv_01=9.0, az_01=173, cno_01=25, svid_02=10, elv_02=47.0, az_02=299, cno_02=48, svid_03=11, elv_03=23.0, az_03=282, cno_03=28, svid_04=12, elv_04=64.0, az_04=335, cno_04=40, signalID=2)>
2026-07-05 11:13:38,132 - INFO - <NMEA(GAGSV, numMsg=3, msgNum=2, numSV=12, svid_01=14, elv_01=73.0, az_01=261, cno_01=49, svid_02=16, elv_02=39.0, az_02=257, cno_02=46, svid_03=19, elv_03=35.0, az_03=122, cno_03=40, svid_04=25, elv_04=21.0, az_04=309, cno_04=32, signalID=2)>
2026-07-05 11:13:38,132 - INFO - <NMEA(GAGSV, numMsg=3, msgNum=3, numSV=12, svid_01=28, elv_01=23.0, az_01=153, cno_01=45, svid_02=29, elv_02=28.0, az_02=64, cno_02=45, svid_03=31, elv_03=20.0, az_03=196, cno_03=31, svid_04=33, elv_04=38.0, az_04=66, cno_04=46, signalID=2)>
2026-07-05 11:13:38,133 - INFO - <NMEA(GAGSV, numMsg=3, msgNum=1, numSV=11, svid_01=4, elv_01=9.0, az_01=173, cno_01=26, svid_02=10, elv_02=47.0, az_02=299, cno_02=48, svid_03=12, elv_03=64.0, az_03=335, cno_03=42, svid_04=14, elv_04=73.0, az_04=261, cno_04=44, signalID=7)>
2026-07-05 11:13:38,134 - INFO - <NMEA(GAGSV, numMsg=3, msgNum=2, numSV=11, svid_01=16, elv_01=39.0, az_01=257, cno_01=38, svid_02=19, elv_02=35.0, az_02=122, cno_02=36, svid_03=25, elv_03=21.0, az_03=309, cno_03=24, svid_04=28, elv_04=23.0, az_04=153, cno_04=39, signalID=7)>
2026-07-05 11:13:38,134 - INFO - <NMEA(GAGSV, numMsg=3, msgNum=3, numSV=11, svid_01=29, elv_01=28.0, az_01=64, cno_01=43, svid_02=31, elv_02=20.0, az_02=196, cno_02=35, svid_03=33, elv_03=38.0, az_03=66, cno_03=46, signalID=7)>
2026-07-05 11:13:38,135 - INFO - <NMEA(GBGSV, numMsg=2, msgNum=1, numSV=8, svid_01=13, elv_01=72.0, az_01=339, cno_01=41, svid_02=14, elv_02=33.0, az_02=47, cno_02=42, svid_03=21, elv_03=10.0, az_03=37, cno_03=41, svid_04=28, elv_04=43.0, az_04=312, cno_04=44, signalID=1)>
2026-07-05 11:13:38,136 - INFO - <NMEA(GBGSV, numMsg=2, msgNum=2, numSV=8, svid_01=33, elv_01=54.0, az_01=181, cno_01=23, svid_02=34, elv_02=16.0, az_02=117, cno_02=41, svid_03=38, elv_03=73.0, az_03=89, cno_03=44, svid_04=42, elv_04=55.0, az_04=62, cno_04=48, signalID=1)>
2026-07-05 11:13:38,136 - INFO - <NMEA(GQGSV, numMsg=1, msgNum=1, numSV=0, signalID=0)>
2026-07-05 11:13:38,136 - INFO - <NMEA(GNGLL, lat=37.9008381667, NS=N, lon=-97.6641933333, EW=W, time=16:13:38, status=A, posMode=D)>
2026-07-05 11:13:38,138 - INFO - <UBX(NAV-RELPOSNED, version=1, reserved0=0, refStationID=0, iTOW=16:13:38, relPosN=37.0, relPosE=45.14, relPosD=4.14, relPosLength=58.51, relPosHeading=50.65857, reserved1=0, accN=10.0, accE=10.0, accD=10.9, accLength=10.0, accHeading=0.98169, reserved2=0, gnssFixOK=1, diffSoln=1, relPosValid=1, carrSoln=2, isMoving=1, refPosMiss=0, refObsMiss=0, relPosHeadingValid=1, relPosNormalized=0)>
2026-07-05 11:13:38,139 - INFO - 2026-07-05 11:13:38, current_target: {'timestamp': '2026-05-10 13:40:05', 'lat': 37.9008713333, 'lon': -97.66418, 'speed': 0.004629996, 'y_offset': 0.0, 'x_offset': 0.0, 'z_offset': 0.0, 'heading': 1.76477}, next_target: {'timestamp': '2026-05-10 13:40:06', 'lat': 37.9008713333, 'lon': -97.66418, 'speed': 0.00514444, 'y_offset': 0.0, 'x_offset': 0.0, 'z_offset': 0.0, 'heading': 1.76299}
2026-07-05 11:13:38,139 - INFO - 2026-07-05 11:13:38 [3.4 OBSERVED] current_turn_radius: infm
2026-07-05 11:13:38,139 - INFO - 2026-07-05 11:13:38 [3.4 OBSERVED] turn_direction: LEFT
2026-07-05 11:13:38,139 - INFO - 2026-07-05 11:13:38 [3.4 OBSERVED] estimated left/right wheel speeds: nan, nan m/s
2026-07-05 11:13:38,141 - INFO - 2026-07-05 11:13:38 [STATE] Current state: NAVIGATING_TO_START
2026-07-05 11:13:38,141 - INFO - 2026-07-05 11:13:38 [NAV_TO_START] Phase: DRIVE_TO_START, Dist: 3.864m, Bearing err: -33.0°, Heading diff: 48.9°, Elapsed: 0.7s
2026-07-05 11:13:38,142 - INFO - 2026-07-05 11:13:38 [NAV_TO_START] DRIVE: bearing=17.7°, dist=3.86m, turn=LEFT, radius=2.66m, speed=1.00
2026-07-05 11:13:38,142 - INFO - 2026-07-05 11:13:38 Turn: LEFT, R: 2.66m, v_L: 0.87 m/s, v_R: 1.13 m/s
2026-07-05 11:13:38,142 - INFO - 2026-07-05 11:13:38 left_actuator_position: 666 (counts) from v_L 0.868 m/s
2026-07-05 11:13:38,142 - INFO - 2026-07-05 11:13:38 right_actuator_position: 534 (counts) from v_R 1.132 m/s
2026-07-05 11:13:38,157 - INFO - Sent actuator positions to RoboClaw → M1 (left): 666, M2 (right): 534 (counts)
2026-07-05 11:13:38,157 - INFO - 2026-07-05 11:13:38 APPLY → left_pos: 666, right_pos: 534 (counts), v_L: 0.87 m/s, v_R: 1.13 m/s
2026-07-05 11:13:38,247 - INFO - <UBX(RXM-RTCM, version=2, crcFailed=0, msgUsed=2, subType=0, refStation=0, msgType=1074)>
2026-07-05 11:13:38,248 - INFO - <UBX(RXM-RTCM, version=2, crcFailed=0, msgUsed=2, subType=0, refStation=0, msgType=1084)>
2026-07-05 11:13:38,252 - INFO - <UBX(RXM-RTCM, version=2, crcFailed=0, msgUsed=2, subType=0, refStation=0, msgType=1094)>
2026-07-05 11:13:38,255 - INFO - <UBX(RXM-RTCM, version=2, crcFailed=0, msgUsed=2, subType=0, refStation=0, msgType=1124)>
2026-07-05 11:13:38,255 - INFO - <UBX(RXM-RTCM, version=2, crcFailed=0, msgUsed=2, subType=0, refStation=0, msgType=1230)>
2026-07-05 11:13:38,295 - INFO - <UBX(RXM-RTCM, version=2, crcFailed=0, msgUsed=2, subType=0, refStation=0, msgType=4072)>
2026-07-05 11:13:38,299 - INFO - <UBX(NAV-PVT, iTOW=16:13:38.200000, year=2026, month=7, day=5, hour=16, min=13, second=38, validDate=1, validTime=1, fullyResolved=1, validMag=0, tAcc=22, nano=199687989, fixType=3, gnssFixOk=1, diffSoln=1, psmState=0, headVehValid=0, carrSoln=2, confirmedAvai=1, confirmedDate=1, confirmedTime=1, numSV=32, lon=-97.6641934, lat=37.9008381, height=405614, hMSL=431866, hAcc=1043, vAcc=1574, velN=1, velE=-4, velD=12, gSpeed=4, headMot=33.92585, sAcc=87, headAcc=180.0, pDOP=0.9, invalidLlh=0, lastCorrectionAge=1, reserved0=860630572, headVeh=0.0, magDec=0.0, magAcc=0.0)>
2026-07-05 11:13:38,300 - INFO - <NMEA(GNRMC, time=16:13:38.200000, status=A, lat=37.9008381667, NS=N, lon=-97.6641933333, EW=W, spd=0.007, cog=, date=2026-07-05, mv=, mvEW=, posMode=R, navStatus=V)>
2026-07-05 11:13:38,300 - INFO - <NMEA(GNVTG, cogt=, cogtUnit=T, cogm=, cogmUnit=M, sogn=0.007, sognUnit=N, sogk=0.013, sogkUnit=K, posMode=D)>
2026-07-05 11:13:38,301 - INFO - <NMEA(GNGGA, time=16:13:38.200000, lat=37.9008381667, NS=N, lon=-97.6641933333, EW=W, quality=4, numSV=12, HDOP=0.49, alt=431.9, altUnit=M, sep=-26.3, sepUnit=M, diffAge=0.2, diffStation=0)>
2026-07-05 11:13:38,301 - INFO - <NMEA(GNGSA, opMode=M, navMode=3, svid_01=5, svid_02=11, svid_03=15, svid_04=18, svid_05=20, svid_06=21, svid_07=23, svid_08=25, svid_09=29, svid_10=, svid_11=, svid_12=, PDOP=0.9, HDOP=0.49, VDOP=0.75, systemId=1)>
2026-07-05 11:13:38,302 - INFO - <NMEA(GNGSA, opMode=M, navMode=3, svid_01=81, svid_02=66, svid_03=79, svid_04=65, svid_05=88, svid_06=87, svid_07=72, svid_08=, svid_09=, svid_10=, svid_11=, svid_12=, PDOP=0.9, HDOP=0.49, VDOP=0.75, systemId=2)>
2026-07-05 11:13:38,303 - INFO - <NMEA(GNGSA, opMode=M, navMode=3, svid_01=10, svid_02=12, svid_03=16, svid_04=19, svid_05=25, svid_06=11, svid_07=28, svid_08=29, svid_09=33, svid_10=, svid_11=, svid_12=, PDOP=0.9, HDOP=0.49, VDOP=0.75, systemId=3)>
2026-07-05 11:13:38,304 - INFO - <NMEA(GNGSA, opMode=M, navMode=3, svid_01=13, svid_02=14, svid_03=21, svid_04=28, svid_05=34, svid_06=38, svid_07=42, svid_08=, svid_09=, svid_10=, svid_11=, svid_12=, PDOP=0.9, HDOP=0.49, VDOP=0.75, systemId=4)>
2026-07-05 11:13:38,305 - INFO - <NMEA(GNGSA, opMode=M, navMode=3, svid_01=, svid_02=, svid_03=, svid_04=, svid_05=, svid_06=, svid_07=, svid_08=, svid_09=, svid_10=, svid_11=, svid_12=, PDOP=0.9, HDOP=0.49, VDOP=0.75, systemId=5)>
2026-07-05 11:13:38,306 - INFO - <NMEA(GPGSV, numMsg=4, msgNum=1, numSV=13, svid_01=5, elv_01=61.0, az_01=37, cno_01=45, svid_02=11, elv_02=13.0, az_02=88, cno_02=43, svid_03=15, elv_03=42.0, az_03=161, cno_03=41, svid_04=18, elv_04=36.0, az_04=297, cno_04=36, signalID=1)>
2026-07-05 11:13:38,306 - INFO - <NMEA(GPGSV, numMsg=4, msgNum=2, numSV=13, svid_01=20, elv_01=46.0, az_01=115, cno_01=30, svid_02=21, elv_02=27.0, az_02=47, cno_02=42, svid_03=23, elv_03=19.0, az_03=234, cno_03=31, svid_04=25, elv_04=18.0, az_04=217, cno_04=32, signalID=1)>
2026-07-05 11:13:38,307 - INFO - <NMEA(GPGSV, numMsg=4, msgNum=3, numSV=13, svid_01=26, elv_01=11.0, az_01=307, cno_01=26, svid_02=29, elv_02=79.0, az_02=282, cno_02=44, svid_03=44, elv_03=42.0, az_03=210, cno_03=34, svid_04=46, elv_04=35.0, az_04=225, cno_04=44, signalID=1)>
2026-07-05 11:13:38,307 - INFO - <NMEA(GPGSV, numMsg=4, msgNum=4, numSV=13, svid_01=48, elv_01=38.0, az_01=220, cno_01=40, signalID=1)>
2026-07-05 11:13:38,307 - INFO - <NMEA(GPGSV, numMsg=3, msgNum=1, numSV=10, svid_01=5, elv_01=61.0, az_01=37, cno_01=40, svid_02=11, elv_02=13.0, az_02=88, cno_02=36, svid_03=15, elv_03=42.0, az_03=161, cno_03=39, svid_04=18, elv_04=36.0, az_04=297, cno_04=38, signalID=6)>
2026-07-05 11:13:38,308 - INFO - <NMEA(GPGSV, numMsg=3, msgNum=2, numSV=10, svid_01=20, elv_01=46.0, az_01=115, cno_01=43, svid_02=21, elv_02=27.0, az_02=47, cno_02=41, svid_03=23, elv_03=19.0, az_03=234, cno_03=33, svid_04=25, elv_04=18.0, az_04=217, cno_04=24, signalID=6)>
2026-07-05 11:13:38,308 - INFO - <NMEA(GPGSV, numMsg=3, msgNum=3, numSV=10, svid_01=26, elv_01=11.0, az_01=307, cno_01=18, svid_02=29, elv_02=79.0, az_02=282, cno_02=43, signalID=6)>
2026-07-05 11:13:38,309 - INFO - <NMEA(GPGSV, numMsg=1, msgNum=1, numSV=2, svid_01=12, elv_01=3.0, az_01=186, cno_01=, svid_02=13, elv_02=0.0, az_02=187, cno_02=, signalID=0)>
2026-07-05 11:13:38,309 - INFO - <NMEA(GLGSV, numMsg=3, msgNum=1, numSV=9, svid_01=65, elv_01=68.0, az_01=91, cno_01=44, svid_02=66, elv_02=37.0, az_02=177, cno_02=36, svid_03=72, elv_03=26.0, az_03=33, cno_03=43, svid_04=78, elv_04=6.0, az_04=236, cno_04=27, signalID=1)>
2026-07-05 11:13:38,310 - INFO - <NMEA(GLGSV, numMsg=3, msgNum=2, numSV=9, svid_01=79, elv_01=16.0, az_01=284, cno_01=34, svid_02=80, elv_02=7.0, az_02=334, cno_02=25, svid_03=81, elv_03=29.0, az_03=318, cno_03=35, svid_04=87, elv_04=15.0, az_04=101, cno_04=36, signalID=1)>
2026-07-05 11:13:38,310 - INFO - <NMEA(GLGSV, numMsg=3, msgNum=3, numSV=9, svid_01=88, elv_01=62.0, az_01=32, cno_01=48, signalID=1)>
2026-07-05 11:13:38,312 - INFO - <NMEA(GLGSV, numMsg=2, msgNum=1, numSV=7, svid_01=66, elv_01=37.0, az_01=177, cno_01=24, svid_02=72, elv_02=26.0, az_02=33, cno_02=40, svid_03=78, elv_03=6.0, az_03=236, cno_03=28, svid_04=79, elv_04=16.0, az_04=284, cno_04=34, signalID=3)>
2026-07-05 11:13:38,312 - INFO - <NMEA(GLGSV, numMsg=2, msgNum=2, numSV=7, svid_01=80, elv_01=7.0, az_01=334, cno_01=21, svid_02=81, elv_02=29.0, az_02=318, cno_02=29, svid_03=88, elv_03=62.0, az_03=32, cno_03=38, signalID=3)>
2026-07-05 11:13:38,313 - INFO - <NMEA(GAGSV, numMsg=3, msgNum=1, numSV=12, svid_01=4, elv_01=9.0, az_01=173, cno_01=25, svid_02=10, elv_02=47.0, az_02=299, cno_02=48, svid_03=11, elv_03=23.0, az_03=282, cno_03=28, svid_04=12, elv_04=64.0, az_04=335, cno_04=41, signalID=2)>
2026-07-05 11:13:38,314 - INFO - <NMEA(GAGSV, numMsg=3, msgNum=2, numSV=12, svid_01=14, elv_01=73.0, az_01=261, cno_01=49, svid_02=16, elv_02=39.0, az_02=257, cno_02=46, svid_03=19, elv_03=35.0, az_03=122, cno_03=40, svid_04=25, elv_04=21.0, az_04=309, cno_04=32, signalID=2)>
2026-07-05 11:13:38,315 - INFO - <NMEA(GAGSV, numMsg=3, msgNum=3, numSV=12, svid_01=28, elv_01=23.0, az_01=153, cno_01=45, svid_02=29, elv_02=28.0, az_02=64, cno_02=45, svid_03=31, elv_03=20.0, az_03=196, cno_03=31, svid_04=33, elv_04=38.0, az_04=66, cno_04=46, signalID=2)>
2026-07-05 11:13:38,316 - INFO - <NMEA(GAGSV, numMsg=3, msgNum=1, numSV=11, svid_01=4, elv_01=9.0, az_01=173, cno_01=26, svid_02=10, elv_02=47.0, az_02=299, cno_02=48, svid_03=12, elv_03=64.0, az_03=335, cno_03=42, svid_04=14, elv_04=73.0, az_04=261, cno_04=44, signalID=7)>
2026-07-05 11:13:38,317 - INFO - <NMEA(GAGSV, numMsg=3, msgNum=2, numSV=11, svid_01=16, elv_01=39.0, az_01=257, cno_01=38, svid_02=19, elv_02=35.0, az_02=122, cno_02=36, svid_03=25, elv_03=21.0, az_03=309, cno_03=24, svid_04=28, elv_04=23.0, az_04=153, cno_04=39, signalID=7)>
2026-07-05 11:13:38,317 - INFO - <NMEA(GAGSV, numMsg=3, msgNum=3, numSV=11, svid_01=29, elv_01=28.0, az_01=64, cno_01=43, svid_02=31, elv_02=20.0, az_02=196, cno_02=35, svid_03=33, elv_03=38.0, az_03=66, cno_03=45, signalID=7)>
2026-07-05 11:13:38,319 - INFO - <NMEA(GBGSV, numMsg=2, msgNum=1, numSV=8, svid_01=13, elv_01=72.0, az_01=339, cno_01=41, svid_02=14, elv_02=33.0, az_02=47, cno_02=42, svid_03=21, elv_03=10.0, az_03=37, cno_03=41, svid_04=28, elv_04=43.0, az_04=312, cno_04=44, signalID=1)>
2026-07-05 11:13:38,320 - INFO - <NMEA(GBGSV, numMsg=2, msgNum=2, numSV=8, svid_01=33, elv_01=54.0, az_01=181, cno_01=23, svid_02=34, elv_02=16.0, az_02=117, cno_02=41, svid_03=38, elv_03=73.0, az_03=89, cno_03=44, svid_04=42, elv_04=55.0, az_04=62, cno_04=48, signalID=1)>
2026-07-05 11:13:38,320 - INFO - <NMEA(GQGSV, numMsg=1, msgNum=1, numSV=0, signalID=0)>
2026-07-05 11:13:38,321 - INFO - <NMEA(GNGLL, lat=37.9008381667, NS=N, lon=-97.6641933333, EW=W, time=16:13:38.200000, status=A, posMode=D)>
2026-07-05 11:13:38,322 - INFO - <UBX(NAV-RELPOSNED, version=1, reserved0=0, refStationID=0, iTOW=16:13:38.200000, relPosN=36.74, relPosE=45.03, relPosD=3.75, relPosLength=58.23, relPosHeading=50.79157, reserved1=0, accN=10.0, accE=10.0, accD=10.7, accLength=10.0, accHeading=0.98595, reserved2=0, gnssFixOK=1, diffSoln=1, relPosValid=1, carrSoln=2, isMoving=1, refPosMiss=0, refObsMiss=0, relPosHeadingValid=1, relPosNormalized=0)>
2026-07-05 11:13:38,323 - INFO - 2026-07-05 11:13:38, current_target: {'timestamp': '2026-05-10 13:40:05', 'lat': 37.9008713333, 'lon': -97.66418, 'speed': 0.004629996, 'y_offset': 0.0, 'x_offset': 0.0, 'z_offset': 0.0, 'heading': 1.76477}, next_target: {'timestamp': '2026-05-10 13:40:06', 'lat': 37.9008713333, 'lon': -97.66418, 'speed': 0.00514444, 'y_offset': 0.0, 'x_offset': 0.0, 'z_offset': 0.0, 'heading': 1.76299}
2026-07-05 11:13:38,323 - INFO - 2026-07-05 11:13:38 [3.4 OBSERVED] current_turn_radius: infm
2026-07-05 11:13:38,323 - INFO - 2026-07-05 11:13:38 [3.4 OBSERVED] turn_direction: RIGHT
2026-07-05 11:13:38,323 - INFO - 2026-07-05 11:13:38 [3.4 OBSERVED] estimated left/right wheel speeds: nan, nan m/s
2026-07-05 11:13:38,324 - INFO - 2026-07-05 11:13:38 [STATE] Current state: NAVIGATING_TO_START
2026-07-05 11:13:38,324 - INFO - 2026-07-05 11:13:38 [NAV_TO_START] Phase: DRIVE_TO_START, Dist: 3.864m, Bearing err: -33.1°, Heading diff: 49.0°, Elapsed: 0.8s
2026-07-05 11:13:38,324 - INFO - 2026-07-05 11:13:38 [NAV_TO_START] DRIVE: bearing=17.7°, dist=3.86m, turn=LEFT, radius=2.65m, speed=1.00
2026-07-05 11:13:38,325 - INFO - 2026-07-05 11:13:38 Turn: LEFT, R: 2.65m, v_L: 0.87 m/s, v_R: 1.13 m/s
2026-07-05 11:13:38,325 - INFO - 2026-07-05 11:13:38 left_actuator_position: 666 (counts) from v_L 0.868 m/s
2026-07-05 11:13:38,325 - INFO - 2026-07-05 11:13:38 right_actuator_position: 534 (counts) from v_R 1.132 m/s
2026-07-05 11:13:38,337 - INFO - Sent actuator positions to RoboClaw → M1 (left): 666, M2 (right): 534 (counts)
2026-07-05 11:13:38,338 - INFO - 2026-07-05 11:13:38 APPLY → left_pos: 666, right_pos: 534 (counts), v_L: 0.87 m/s, v_R: 1.13 m/s
2026-07-05 11:13:38,451 - INFO - <UBX(RXM-RTCM, version=2, crcFailed=0, msgUsed=2, subType=0, refStation=0, msgType=1074)>
2026-07-05 11:13:38,453 - INFO - <UBX(RXM-RTCM, version=2, crcFailed=0, msgUsed=2, subType=0, refStation=0, msgType=1084)>
2026-07-05 11:13:38,457 - INFO - <UBX(RXM-RTCM, version=2, crcFailed=0, msgUsed=2, subType=0, refStation=0, msgType=1094)>
2026-07-05 11:13:38,459 - INFO - <UBX(RXM-RTCM, version=2, crcFailed=0, msgUsed=2, subType=0, refStation=0, msgType=1124)>
2026-07-05 11:13:38,460 - INFO - <UBX(RXM-RTCM, version=2, crcFailed=0, msgUsed=2, subType=0, refStation=0, msgType=1230)>
2026-07-05 11:13:38,497 - INFO - <UBX(NAV-PVT, iTOW=16:13:38.400000, year=2026, month=7, day=5, hour=16, min=13, second=38, validDate=1, validTime=1, fullyResolved=1, validMag=0, tAcc=22, nano=399687937, fixType=3, gnssFixOk=1, diffSoln=1, psmState=0, headVehValid=0, carrSoln=2, confirmedAvai=1, confirmedDate=1, confirmedTime=1, numSV=32, lon=-97.6641934, lat=37.9008381, height=405614, hMSL=431867, hAcc=1085, vAcc=1638, velN=10, velE=-4, velD=1, gSpeed=10, headMot=33.92585, sAcc=72, headAcc=180.0, pDOP=0.9, invalidLlh=0, lastCorrectionAge=1, reserved0=860630572, headVeh=0.0, magDec=0.0, magAcc=0.0)>
2026-07-05 11:13:38,498 - INFO - <NMEA(GNRMC, time=16:13:38.400000, status=A, lat=37.9008381667, NS=N, lon=-97.6641933333, EW=W, spd=0.02, cog=, date=2026-07-05, mv=, mvEW=, posMode=R, navStatus=V)>
2026-07-05 11:13:38,498 - INFO - <NMEA(GNVTG, cogt=, cogtUnit=T, cogm=, cogmUnit=M, sogn=0.02, sognUnit=N, sogk=0.037, sogkUnit=K, posMode=D)>
2026-07-05 11:13:38,500 - INFO - <NMEA(GNGGA, time=16:13:38.400000, lat=37.9008381667, NS=N, lon=-97.6641933333, EW=W, quality=4, numSV=12, HDOP=0.49, alt=431.9, altUnit=M, sep=-26.3, sepUnit=M, diffAge=0.2, diffStation=0)>
2026-07-05 11:13:38,500 - INFO - <NMEA(GNGSA, opMode=M, navMode=3, svid_01=5, svid_02=11, svid_03=15, svid_04=18, svid_05=20, svid_06=21, svid_07=23, svid_08=25, svid_09=29, svid_10=, svid_11=, svid_12=, PDOP=0.9, HDOP=0.49, VDOP=0.75, systemId=1)>
2026-07-05 11:13:38,501 - INFO - <NMEA(GNGSA, opMode=M, navMode=3, svid_01=81, svid_02=66, svid_03=79, svid_04=65, svid_05=88, svid_06=87, svid_07=72, svid_08=, svid_09=, svid_10=, svid_11=, svid_12=, PDOP=0.9, HDOP=0.49, VDOP=0.75, systemId=2)>
2026-07-05 11:13:38,502 - INFO - <NMEA(GNGSA, opMode=M, navMode=3, svid_01=10, svid_02=12, svid_03=16, svid_04=19, svid_05=25, svid_06=11, svid_07=28, svid_08=29, svid_09=33, svid_10=, svid_11=, svid_12=, PDOP=0.9, HDOP=0.49, VDOP=0.75, systemId=3)>
2026-07-05 11:13:38,502 - INFO - <NMEA(GNGSA, opMode=M, navMode=3, svid_01=13, svid_02=14, svid_03=21, svid_04=28, svid_05=34, svid_06=38, svid_07=42, svid_08=, svid_09=, svid_10=, svid_11=, svid_12=, PDOP=0.9, HDOP=0.49, VDOP=0.75, systemId=4)>
2026-07-05 11:13:38,503 - INFO - <NMEA(GNGSA, opMode=M, navMode=3, svid_01=, svid_02=, svid_03=, svid_04=, svid_05=, svid_06=, svid_07=, svid_08=, svid_09=, svid_10=, svid_11=, svid_12=, PDOP=0.9, HDOP=0.49, VDOP=0.75, systemId=5)>
2026-07-05 11:13:38,503 - INFO - <NMEA(GPGSV, numMsg=4, msgNum=1, numSV=13, svid_01=5, elv_01=61.0, az_01=37, cno_01=44, svid_02=11, elv_02=13.0, az_02=88, cno_02=43, svid_03=15, elv_03=42.0, az_03=161, cno_03=41, svid_04=18, elv_04=36.0, az_04=297, cno_04=36, signalID=1)>
2026-07-05 11:13:38,503 - INFO - <NMEA(GPGSV, numMsg=4, msgNum=2, numSV=13, svid_01=20, elv_01=46.0, az_01=115, cno_01=30, svid_02=21, elv_02=27.0, az_02=47, cno_02=42, svid_03=23, elv_03=19.0, az_03=234, cno_03=31, svid_04=25, elv_04=18.0, az_04=217, cno_04=33, signalID=1)>
2026-07-05 11:13:38,504 - INFO - <NMEA(GPGSV, numMsg=4, msgNum=3, numSV=13, svid_01=26, elv_01=11.0, az_01=307, cno_01=26, svid_02=29, elv_02=79.0, az_02=282, cno_02=44, svid_03=44, elv_03=42.0, az_03=210, cno_03=34, svid_04=46, elv_04=35.0, az_04=225, cno_04=44, signalID=1)>
2026-07-05 11:13:38,504 - INFO - <NMEA(GPGSV, numMsg=4, msgNum=4, numSV=13, svid_01=48, elv_01=38.0, az_01=220, cno_01=40, signalID=1)>
2026-07-05 11:13:38,505 - INFO - <NMEA(GPGSV, numMsg=3, msgNum=1, numSV=10, svid_01=5, elv_01=61.0, az_01=37, cno_01=40, svid_02=11, elv_02=13.0, az_02=88, cno_02=36, svid_03=15, elv_03=42.0, az_03=161, cno_03=39, svid_04=18, elv_04=36.0, az_04=297, cno_04=38, signalID=6)>
2026-07-05 11:13:38,507 - INFO - <NMEA(GPGSV, numMsg=3, msgNum=2, numSV=10, svid_01=20, elv_01=46.0, az_01=115, cno_01=43, svid_02=21, elv_02=27.0, az_02=47, cno_02=41, svid_03=23, elv_03=19.0, az_03=234, cno_03=33, svid_04=25, elv_04=18.0, az_04=217, cno_04=24, signalID=6)>
2026-07-05 11:13:38,507 - INFO - <NMEA(GPGSV, numMsg=3, msgNum=3, numSV=10, svid_01=26, elv_01=11.0, az_01=307, cno_01=17, svid_02=29, elv_02=79.0, az_02=282, cno_02=43, signalID=6)>
2026-07-05 11:13:38,508 - INFO - <NMEA(GPGSV, numMsg=1, msgNum=1, numSV=2, svid_01=12, elv_01=3.0, az_01=186, cno_01=, svid_02=13, elv_02=0.0, az_02=187, cno_02=, signalID=0)>
2026-07-05 11:13:38,510 - INFO - <NMEA(GLGSV, numMsg=3, msgNum=1, numSV=9, svid_01=65, elv_01=68.0, az_01=91, cno_01=44, svid_02=66, elv_02=37.0, az_02=177, cno_02=36, svid_03=72, elv_03=26.0, az_03=33, cno_03=43, svid_04=78, elv_04=6.0, az_04=236, cno_04=27, signalID=1)>
2026-07-05 11:13:38,511 - INFO - <NMEA(GLGSV, numMsg=3, msgNum=2, numSV=9, svid_01=79, elv_01=16.0, az_01=284, cno_01=34, svid_02=80, elv_02=7.0, az_02=334, cno_02=25, svid_03=81, elv_03=29.0, az_03=318, cno_03=35, svid_04=87, elv_04=15.0, az_04=101, cno_04=36, signalID=1)>
2026-07-05 11:13:38,511 - INFO - <NMEA(GLGSV, numMsg=3, msgNum=3, numSV=9, svid_01=88, elv_01=62.0, az_01=32, cno_01=48, signalID=1)>
2026-07-05 11:13:38,512 - INFO - <NMEA(GLGSV, numMsg=2, msgNum=1, numSV=7, svid_01=66, elv_01=37.0, az_01=177, cno_01=23, svid_02=72, elv_02=26.0, az_02=33, cno_02=40, svid_03=78, elv_03=6.0, az_03=236, cno_03=28, svid_04=79, elv_04=16.0, az_04=284, cno_04=34, signalID=3)>
2026-07-05 11:13:38,512 - INFO - <NMEA(GLGSV, numMsg=2, msgNum=2, numSV=7, svid_01=80, elv_01=7.0, az_01=334, cno_01=21, svid_02=81, elv_02=29.0, az_02=318, cno_02=29, svid_03=88, elv_03=62.0, az_03=32, cno_03=38, signalID=3)>
2026-07-05 11:13:38,513 - INFO - <NMEA(GAGSV, numMsg=3, msgNum=1, numSV=12, svid_01=4, elv_01=9.0, az_01=173, cno_01=25, svid_02=10, elv_02=47.0, az_02=299, cno_02=48, svid_03=11, elv_03=23.0, az_03=282, cno_03=28, svid_04=12, elv_04=64.0, az_04=335, cno_04=41, signalID=2)>
2026-07-05 11:13:38,513 - INFO - <NMEA(GAGSV, numMsg=3, msgNum=2, numSV=12, svid_01=14, elv_01=73.0, az_01=261, cno_01=49, svid_02=16, elv_02=39.0, az_02=257, cno_02=45, svid_03=19, elv_03=35.0, az_03=122, cno_03=40, svid_04=25, elv_04=21.0, az_04=309, cno_04=32, signalID=2)>
2026-07-05 11:13:38,514 - INFO - <NMEA(GAGSV, numMsg=3, msgNum=3, numSV=12, svid_01=28, elv_01=23.0, az_01=153, cno_01=45, svid_02=29, elv_02=28.0, az_02=64, cno_02=45, svid_03=31, elv_03=20.0, az_03=196, cno_03=31, svid_04=33, elv_04=38.0, az_04=66, cno_04=46, signalID=2)>
2026-07-05 11:13:38,515 - INFO - <NMEA(GAGSV, numMsg=3, msgNum=1, numSV=11, svid_01=4, elv_01=9.0, az_01=173, cno_01=26, svid_02=10, elv_02=47.0, az_02=299, cno_02=48, svid_03=12, elv_03=64.0, az_03=335, cno_03=42, svid_04=14, elv_04=73.0, az_04=261, cno_04=44, signalID=7)>
2026-07-05 11:13:38,515 - INFO - <NMEA(GAGSV, numMsg=3, msgNum=2, numSV=11, svid_01=16, elv_01=39.0, az_01=257, cno_01=38, svid_02=19, elv_02=35.0, az_02=122, cno_02=36, svid_03=25, elv_03=21.0, az_03=309, cno_03=23, svid_04=28, elv_04=23.0, az_04=153, cno_04=39, signalID=7)>
2026-07-05 11:13:38,516 - INFO - <NMEA(GAGSV, numMsg=3, msgNum=3, numSV=11, svid_01=29, elv_01=28.0, az_01=64, cno_01=43, svid_02=31, elv_02=20.0, az_02=196, cno_02=35, svid_03=33, elv_03=38.0, az_03=66, cno_03=45, signalID=7)>
2026-07-05 11:13:38,516 - INFO - <NMEA(GBGSV, numMsg=2, msgNum=1, numSV=8, svid_01=13, elv_01=72.0, az_01=339, cno_01=41, svid_02=14, elv_02=33.0, az_02=47, cno_02=42, svid_03=21, elv_03=10.0, az_03=37, cno_03=41, svid_04=28, elv_04=43.0, az_04=312, cno_04=44, signalID=1)>
2026-07-05 11:13:38,517 - INFO - <NMEA(GBGSV, numMsg=2, msgNum=2, numSV=8, svid_01=33, elv_01=54.0, az_01=181, cno_01=23, svid_02=34, elv_02=16.0, az_02=117, cno_02=41, svid_03=38, elv_03=73.0, az_03=89, cno_03=44, svid_04=42, elv_04=55.0, az_04=62, cno_04=48, signalID=1)>
2026-07-05 11:13:38,517 - INFO - <NMEA(GQGSV, numMsg=1, msgNum=1, numSV=0, signalID=0)>
2026-07-05 11:13:38,518 - INFO - <NMEA(GNGLL, lat=37.9008381667, NS=N, lon=-97.6641933333, EW=W, time=16:13:38.400000, status=A, posMode=D)>
2026-07-05 11:13:38,520 - INFO - <UBX(NAV-RELPOSNED, version=1, reserved0=0, refStationID=0, iTOW=16:13:38.400000, relPosN=36.73, relPosE=45.15, relPosD=3.6, relPosLength=58.31, relPosHeading=50.86565, reserved1=0, accN=10.0, accE=10.0, accD=11.0, accLength=10.0, accHeading=0.9844, reserved2=0, gnssFixOK=1, diffSoln=1, relPosValid=1, carrSoln=2, isMoving=1, refPosMiss=0, refObsMiss=0, relPosHeadingValid=1, relPosNormalized=0)>
2026-07-05 11:13:38,521 - INFO - 2026-07-05 11:13:38, current_target: {'timestamp': '2026-05-10 13:40:05', 'lat': 37.9008713333, 'lon': -97.66418, 'speed': 0.004629996, 'y_offset': 0.0, 'x_offset': 0.0, 'z_offset': 0.0, 'heading': 1.76477}, next_target: {'timestamp': '2026-05-10 13:40:06', 'lat': 37.9008713333, 'lon': -97.66418, 'speed': 0.00514444, 'y_offset': 0.0, 'x_offset': 0.0, 'z_offset': 0.0, 'heading': 1.76299}
2026-07-05 11:13:38,521 - INFO - 2026-07-05 11:13:38 [3.4 OBSERVED] current_turn_radius: infm
2026-07-05 11:13:38,521 - INFO - 2026-07-05 11:13:38 [3.4 OBSERVED] turn_direction: RIGHT
2026-07-05 11:13:38,521 - INFO - 2026-07-05 11:13:38 [3.4 OBSERVED] estimated left/right wheel speeds: nan, nan m/s
2026-07-05 11:13:38,524 - INFO - 2026-07-05 11:13:38 [STATE] Current state: NAVIGATING_TO_START
2026-07-05 11:13:38,524 - INFO - 2026-07-05 11:13:38 [NAV_TO_START] Phase: DRIVE_TO_START, Dist: 3.864m, Bearing err: -33.2°, Heading diff: 49.1°, Elapsed: 1.0s
2026-07-05 11:13:38,524 - INFO - 2026-07-05 11:13:38 [NAV_TO_START] DRIVE: bearing=17.7°, dist=3.86m, turn=LEFT, radius=2.65m, speed=1.00
2026-07-05 11:13:38,524 - INFO - 2026-07-05 11:13:38 Turn: LEFT, R: 2.65m, v_L: 0.87 m/s, v_R: 1.13 m/s
2026-07-05 11:13:38,524 - INFO - 2026-07-05 11:13:38 left_actuator_position: 666 (counts) from v_L 0.868 m/s
2026-07-05 11:13:38,524 - INFO - 2026-07-05 11:13:38 right_actuator_position: 534 (counts) from v_R 1.132 m/s
2026-07-05 11:13:38,537 - INFO - Sent actuator positions to RoboClaw → M1 (left): 666, M2 (right): 534 (counts)
2026-07-05 11:13:38,537 - INFO - 2026-07-05 11:13:38 APPLY → left_pos: 666, right_pos: 534 (counts), v_L: 0.87 m/s, v_R: 1.13 m/s
2026-07-05 11:13:38,537 - INFO - <UBX(RXM-RTCM, version=2, crcFailed=0, msgUsed=2, subType=0, refStation=0, msgType=4072)>
2026-07-05 11:13:38,648 - INFO - <UBX(RXM-RTCM, version=2, crcFailed=0, msgUsed=2, subType=0, refStation=0, msgType=1074)>
2026-07-05 11:13:38,652 - INFO - <UBX(RXM-RTCM, version=2, crcFailed=0, msgUsed=2, subType=0, refStation=0, msgType=1084)>
2026-07-05 11:13:38,654 - INFO - <UBX(RXM-RTCM, version=2, crcFailed=0, msgUsed=2, subType=0, refStation=0, msgType=1094)>
2026-07-05 11:13:38,657 - INFO - <UBX(RXM-RTCM, version=2, crcFailed=0, msgUsed=2, subType=0, refStation=0, msgType=1124)>
2026-07-05 11:13:38,658 - INFO - <UBX(RXM-RTCM, version=2, crcFailed=0, msgUsed=2, subType=0, refStation=0, msgType=1230)>
2026-07-05 11:13:38,699 - INFO - <UBX(NAV-PVT, iTOW=16:13:38.600000, year=2026, month=7, day=5, hour=16, min=13, second=38, validDate=1, validTime=1, fullyResolved=1, validMag=0, tAcc=22, nano=599687886, fixType=3, gnssFixOk=1, diffSoln=1, psmState=0, headVehValid=0, carrSoln=2, confirmedAvai=1, confirmedDate=1, confirmedTime=1, numSV=32, lon=-97.6641931, lat=37.9008383, height=405600, hMSL=431852, hAcc=1222, vAcc=1846, velN=129, velE=123, velD=12, gSpeed=178, headMot=43.71012, sAcc=62, headAcc=19.76949, pDOP=0.9, invalidLlh=0, lastCorrectionAge=1, reserved0=860630572, headVeh=0.0, magDec=0.0, magAcc=0.0)>
2026-07-05 11:13:38,701 - INFO - <NMEA(GNRMC, time=16:13:38.600000, status=A, lat=37.9008383333, NS=N, lon=-97.6641931667, EW=W, spd=0.346, cog=43.71, date=2026-07-05, mv=, mvEW=, posMode=R, navStatus=V)>
2026-07-05 11:13:38,701 - INFO - <UBX(RXM-RTCM, version=2, crcFailed=0, msgUsed=2, subType=0, refStation=0, msgType=4072)>
2026-07-05 11:13:38,702 - INFO - <NMEA(GNVTG, cogt=43.71, cogtUnit=T, cogm=, cogmUnit=M, sogn=0.346, sognUnit=N, sogk=0.641, sogkUnit=K, posMode=D)>
2026-07-05 11:13:38,702 - INFO - <NMEA(GNGGA, time=16:13:38.600000, lat=37.9008383333, NS=N, lon=-97.6641931667, EW=W, quality=4, numSV=12, HDOP=0.49, alt=431.9, altUnit=M, sep=-26.3, sepUnit=M, diffAge=0.2, diffStation=0)>
2026-07-05 11:13:38,703 - INFO - <NMEA(GNGSA, opMode=M, navMode=3, svid_01=5, svid_02=11, svid_03=15, svid_04=18, svid_05=20, svid_06=21, svid_07=23, svid_08=25, svid_09=29, svid_10=, svid_11=, svid_12=, PDOP=0.9, HDOP=0.49, VDOP=0.75, systemId=1)>
2026-07-05 11:13:38,703 - INFO - <NMEA(GNGSA, opMode=M, navMode=3, svid_01=81, svid_02=66, svid_03=79, svid_04=65, svid_05=88, svid_06=87, svid_07=72, svid_08=, svid_09=, svid_10=, svid_11=, svid_12=, PDOP=0.9, HDOP=0.49, VDOP=0.75, systemId=2)>
2026-07-05 11:13:38,703 - INFO - <NMEA(GNGSA, opMode=M, navMode=3, svid_01=10, svid_02=12, svid_03=16, svid_04=19, svid_05=25, svid_06=11, svid_07=28, svid_08=29, svid_09=33, svid_10=, svid_11=, svid_12=, PDOP=0.9, HDOP=0.49, VDOP=0.75, systemId=3)>
2026-07-05 11:13:38,704 - INFO - <NMEA(GNGSA, opMode=M, navMode=3, svid_01=13, svid_02=14, svid_03=21, svid_04=28, svid_05=34, svid_06=38, svid_07=42, svid_08=, svid_09=, svid_10=, svid_11=, svid_12=, PDOP=0.9, HDOP=0.49, VDOP=0.75, systemId=4)>
2026-07-05 11:13:38,704 - INFO - <NMEA(GNGSA, opMode=M, navMode=3, svid_01=, svid_02=, svid_03=, svid_04=, svid_05=, svid_06=, svid_07=, svid_08=, svid_09=, svid_10=, svid_11=, svid_12=, PDOP=0.9, HDOP=0.49, VDOP=0.75, systemId=5)>
2026-07-05 11:13:38,705 - INFO - <NMEA(GPGSV, numMsg=4, msgNum=1, numSV=13, svid_01=5, elv_01=61.0, az_01=37, cno_01=44, svid_02=11, elv_02=13.0, az_02=88, cno_02=47, svid_03=15, elv_03=42.0, az_03=161, cno_03=41, svid_04=18, elv_04=36.0, az_04=297, cno_04=36, signalID=1)>
2026-07-05 11:13:38,705 - INFO - <NMEA(GPGSV, numMsg=4, msgNum=2, numSV=13, svid_01=20, elv_01=46.0, az_01=115, cno_01=30, svid_02=21, elv_02=27.0, az_02=47, cno_02=42, svid_03=23, elv_03=19.0, az_03=234, cno_03=31, svid_04=25, elv_04=18.0, az_04=217, cno_04=32, signalID=1)>
2026-07-05 11:13:38,706 - INFO - <NMEA(GPGSV, numMsg=4, msgNum=3, numSV=13, svid_01=26, elv_01=11.0, az_01=307, cno_01=26, svid_02=29, elv_02=79.0, az_02=282, cno_02=44, svid_03=44, elv_03=42.0, az_03=210, cno_03=37, svid_04=46, elv_04=35.0, az_04=225, cno_04=43, signalID=1)>
2026-07-05 11:13:38,706 - INFO - <NMEA(GPGSV, numMsg=4, msgNum=4, numSV=13, svid_01=48, elv_01=38.0, az_01=220, cno_01=40, signalID=1)>
2026-07-05 11:13:38,707 - INFO - <NMEA(GPGSV, numMsg=3, msgNum=1, numSV=10, svid_01=5, elv_01=61.0, az_01=37, cno_01=40, svid_02=11, elv_02=13.0, az_02=88, cno_02=36, svid_03=15, elv_03=42.0, az_03=161, cno_03=39, svid_04=18, elv_04=36.0, az_04=297, cno_04=38, signalID=6)>
