2026-06-07 14:47:17,694 - INFO - Logging initialized to /home/dali/Documents/ReMow-Rover-Tests/Repeat/Logs/readRecordedRun-2026-06-07_14-47-17.log
2026-06-07 14:47:17,695 - INFO - RoboClaw opened successfully on /dev/serial/by-id/usb-Basicmicro_Inc._USB_Roboclaw_2x15A-if00
2026-06-07 14:47:17,997 - INFO - Encoders reset to zero
2026-06-07 14:47:17,997 - INFO - Starting readRecordedRun with combination: 55
2026-06-07 14:47:17,997 - INFO - Selected most recent recording: 55_20260510-134004_GPSData.csv
2026-06-07 14:47:18,001 - INFO - GREEN_LED initialized on GPIO 17
2026-06-07 14:47:18,008 - INFO - Bootstrap: Initialized modifiers with estimate 73.86 mm/(rad/s)
2026-06-07 14:47:18,010 - INFO - ENU origin from first waypoint: 37.9008713333, -97.66418
2026-06-07 14:47:18,064 - INFO - goto_positions: M1=1100, M2=1100 [Startup - ensuring neutral position]
2026-06-07 14:47:18,064 - INFO - Actuators initialized to neutral (1100)
2026-06-07 14:47:18,064 - INFO - === STATE MACHINE INITIALIZED ===
2026-06-07 14:47:18,064 - INFO - Start waypoint: East=0.000m, North=0.000m, Heading=1.8°
2026-06-07 14:47:18,064 - INFO - Initial state: NAVIGATING_TO_START
2026-06-07 14:47:18,064 - INFO - Navigation timeout: 300.0s
2026-06-07 14:47:18,064 - INFO - === WAITING FOR GPS RTK FIX ===
2026-06-07 14:47:18,064 - INFO - Need: relPosValid=1, carrSoln=2, relPosHeadingValid=1 (timeout: 60.0s)
2026-06-07 14:47:18,124 - INFO - GPS status: relPosValid=1, carrSoln=2, headingValid=1 (0.1s)
2026-06-07 14:47:18,124 - INFO - === GPS RTK FIXED — ready to navigate (0.1s) ===
2026-06-07 14:47:18,134 - INFO - <UBX(RXM-RTCM, version=2, crcFailed=0, msgUsed=2, subType=0, refStation=0, msgType=4072)>
2026-06-07 14:47:18,134 - INFO - Using persisted heading from driving to work area: 75.29° (captured at 2026-06-07 14:47:00)
2026-06-07 14:47:18,254 - INFO - <UBX(RXM-RTCM, version=2, crcFailed=0, msgUsed=2, subType=0, refStation=0, msgType=1074)>
2026-06-07 14:47:18,256 - INFO - <UBX(RXM-RTCM, version=2, crcFailed=0, msgUsed=2, subType=0, refStation=0, msgType=1084)>
2026-06-07 14:47:18,258 - INFO - <UBX(RXM-RTCM, version=2, crcFailed=0, msgUsed=2, subType=0, refStation=0, msgType=1094)>
2026-06-07 14:47:18,262 - INFO - <UBX(RXM-RTCM, version=2, crcFailed=0, msgUsed=2, subType=0, refStation=0, msgType=1124)>
2026-06-07 14:47:18,262 - INFO - <UBX(RXM-RTCM, version=2, crcFailed=0, msgUsed=2, subType=0, refStation=0, msgType=1230)>
2026-06-07 14:47:18,294 - INFO - <UBX(NAV-PVT, iTOW=19:47:18.200000, year=2026, month=6, day=7, hour=19, min=47, second=18, validDate=1, validTime=1, fullyResolved=1, validMag=0, tAcc=22, nano=200082779, fixType=3, gnssFixOk=1, diffSoln=1, psmState=0, headVehValid=0, carrSoln=2, confirmedAvai=1, confirmedDate=1, confirmedTime=1, numSV=31, lon=-97.6641941, lat=37.9008569, height=407286, hMSL=433539, hAcc=1660, vAcc=1652, velN=7, velE=1, velD=4, gSpeed=7, headMot=81.7892, sAcc=67, headAcc=180.0, pDOP=0.92, invalidLlh=0, lastCorrectionAge=1, reserved0=860630572, headVeh=0.0, magDec=0.0, magAcc=0.0)>
2026-06-07 14:47:18,295 - INFO - <NMEA(GNRMC, time=19:47:18.200000, status=A, lat=37.9008568333, NS=N, lon=-97.6641941667, EW=W, spd=0.014, cog=, date=2026-06-07, mv=, mvEW=, posMode=R, navStatus=V)>
2026-06-07 14:47:18,295 - INFO - <NMEA(GNVTG, cogt=, cogtUnit=T, cogm=, cogmUnit=M, sogn=0.014, sognUnit=N, sogk=0.027, sogkUnit=K, posMode=D)>
2026-06-07 14:47:18,296 - INFO - <NMEA(GNGGA, time=19:47:18.200000, lat=37.9008568333, NS=N, lon=-97.6641941667, EW=W, quality=4, numSV=12, HDOP=0.53, alt=433.5, altUnit=M, sep=-26.3, sepUnit=M, diffAge=0.2, diffStation=0)>
2026-06-07 14:47:18,297 - INFO - <NMEA(GNGSA, opMode=M, navMode=3, svid_01=5, svid_02=10, svid_03=15, svid_04=18, svid_05=20, svid_06=46, svid_07=23, svid_08=24, svid_09=44, svid_10=29, svid_11=48, svid_12=, PDOP=0.92, HDOP=0.53, VDOP=0.75, systemId=1)>
2026-06-07 14:47:18,297 - INFO - <NMEA(GNGSA, opMode=M, navMode=3, svid_01=71, svid_02=70, svid_03=86, svid_04=69, svid_05=84, svid_06=85, svid_07=, svid_08=, svid_09=, svid_10=, svid_11=, svid_12=, PDOP=0.92, HDOP=0.53, VDOP=0.75, systemId=2)>
2026-06-07 14:47:18,298 - INFO - <NMEA(GNGSA, opMode=M, navMode=3, svid_01=3, svid_02=5, svid_03=8, svid_04=13, svid_05=15, svid_06=27, svid_07=34, svid_08=, svid_09=, svid_10=, svid_11=, svid_12=, PDOP=0.92, HDOP=0.53, VDOP=0.75, systemId=3)>
2026-06-07 14:47:18,298 - INFO - <NMEA(GNGSA, opMode=M, navMode=3, svid_01=13, svid_02=27, svid_03=28, svid_04=33, svid_05=38, svid_06=41, svid_07=42, svid_08=, svid_09=, svid_10=, svid_11=, svid_12=, PDOP=0.92, HDOP=0.53, VDOP=0.75, systemId=4)>
2026-06-07 14:47:18,298 - INFO - <NMEA(GNGSA, opMode=M, navMode=3, svid_01=, svid_02=, svid_03=, svid_04=, svid_05=, svid_06=, svid_07=, svid_08=, svid_09=, svid_10=, svid_11=, svid_12=, PDOP=0.92, HDOP=0.53, VDOP=0.75, systemId=5)>
2026-06-07 14:47:18,299 - INFO - <NMEA(GPGSV, numMsg=4, msgNum=1, numSV=13, svid_01=5, elv_01=21.0, az_01=60, cno_01=46, svid_02=10, elv_02=21.0, az_02=258, cno_02=32, svid_03=15, elv_03=66.0, az_03=75, cno_03=45, svid_04=16, elv_04=8.0, az_04=293, cno_04=25, signalID=1)>
2026-06-07 14:47:18,299 - INFO - <NMEA(GPGSV, numMsg=4, msgNum=2, numSV=13, svid_01=18, elv_01=69.0, az_01=343, cno_01=45, svid_02=20, elv_02=40.0, az_02=53, cno_02=47, svid_03=23, elv_03=52.0, az_03=278, cno_03=41, svid_04=24, elv_04=14.0, az_04=134, cno_04=43, signalID=1)>
2026-06-07 14:47:18,300 - INFO - <NMEA(GPGSV, numMsg=4, msgNum=3, numSV=13, svid_01=26, elv_01=2.0, az_01=267, cno_01=23, svid_02=29, elv_02=42.0, az_02=181, cno_02=35, svid_03=44, elv_03=42.0, az_03=210, cno_03=37, svid_04=46, elv_04=35.0, az_04=225, cno_04=39, signalID=1)>
2026-06-07 14:47:18,300 - INFO - <NMEA(GPGSV, numMsg=4, msgNum=4, numSV=13, svid_01=48, elv_01=38.0, az_01=220, cno_01=41, signalID=1)>
2026-06-07 14:47:18,301 - INFO - <NMEA(GPGSV, numMsg=3, msgNum=1, numSV=10, svid_01=5, elv_01=21.0, az_01=60, cno_01=38, svid_02=10, elv_02=21.0, az_02=258, cno_02=31, svid_03=15, elv_03=66.0, az_03=75, cno_03=38, svid_04=18, elv_04=69.0, az_04=343, cno_04=43, signalID=6)>
2026-06-07 14:47:18,301 - INFO - <NMEA(GPGSV, numMsg=3, msgNum=2, numSV=10, svid_01=20, elv_01=40.0, az_01=53, cno_01=42, svid_02=23, elv_02=52.0, az_02=278, cno_02=36, svid_03=24, elv_03=14.0, az_03=134, cno_03=40, svid_04=26, elv_04=2.0, az_04=267, cno_04=24, signalID=6)>
2026-06-07 14:47:18,301 - INFO - <NMEA(GPGSV, numMsg=3, msgNum=3, numSV=10, svid_01=27, elv_01=8.0, az_01=323, cno_01=26, svid_02=29, elv_02=42.0, az_02=181, cno_02=34, signalID=6)>
2026-06-07 14:47:18,302 - INFO - <NMEA(GLGSV, numMsg=2, msgNum=1, numSV=6, svid_01=69, elv_01=24.0, az_01=32, cno_01=48, svid_02=70, elv_02=77.0, az_02=29, cno_02=46, svid_03=71, elv_03=38.0, az_03=214, cno_03=45, svid_04=84, elv_04=36.0, az_04=122, cno_04=42, signalID=1)>
2026-06-07 14:47:18,302 - INFO - <NMEA(GLGSV, numMsg=2, msgNum=2, numSV=6, svid_01=85, elv_01=75.0, az_01=55, cno_01=41, svid_02=86, elv_02=25.0, az_02=323, cno_02=31, signalID=1)>
2026-06-07 14:47:18,303 - INFO - <NMEA(GLGSV, numMsg=2, msgNum=1, numSV=6, svid_01=69, elv_01=24.0, az_01=32, cno_01=41, svid_02=70, elv_02=77.0, az_02=29, cno_02=37, svid_03=71, elv_03=38.0, az_03=214, cno_03=34, svid_04=84, elv_04=36.0, az_04=122, cno_04=42, signalID=3)>
2026-06-07 14:47:18,303 - INFO - <NMEA(GLGSV, numMsg=2, msgNum=2, numSV=6, svid_01=85, elv_01=75.0, az_01=55, cno_01=35, svid_02=86, elv_02=25.0, az_02=323, cno_02=32, signalID=3)>
2026-06-07 14:47:18,304 - INFO - <NMEA(GAGSV, numMsg=3, msgNum=1, numSV=11, svid_01=3, elv_01=54.0, az_01=149, cno_01=43, svid_02=5, elv_02=43.0, az_02=62, cno_02=46, svid_03=8, elv_03=14.0, az_03=192, cno_03=23, svid_04=9, elv_04=2.0, az_04=32, cno_04=34, signalID=2)>
2026-06-07 14:47:18,304 - INFO - <NMEA(GAGSV, numMsg=3, msgNum=2, numSV=11, svid_01=13, elv_01=11.0, az_01=297, cno_01=34, svid_02=15, elv_02=58.0, az_02=327, cno_02=49, svid_03=21, elv_03=8.0, az_03=313, cno_03=21, svid_04=27, elv_04=18.0, az_04=263, cno_04=30, signalID=2)>
2026-06-07 14:47:18,304 - INFO - <NMEA(GAGSV, numMsg=3, msgNum=3, numSV=11, svid_01=30, elv_01=8.0, az_01=216, cno_01=28, svid_02=34, elv_02=54.0, az_02=79, cno_02=49, svid_03=36, elv_03=7.0, az_03=104, cno_03=48, signalID=2)>
2026-06-07 14:47:18,305 - INFO - <NMEA(GAGSV, numMsg=3, msgNum=1, numSV=12, svid_01=3, elv_01=54.0, az_01=149, cno_01=42, svid_02=5, elv_02=43.0, az_02=62, cno_02=48, svid_03=8, elv_03=14.0, az_03=192, cno_03=22, svid_04=9, elv_04=2.0, az_04=32, cno_04=47, signalID=7)>
2026-06-07 14:47:18,305 - INFO - <NMEA(GAGSV, numMsg=3, msgNum=2, numSV=12, svid_01=13, elv_01=11.0, az_01=297, cno_01=21, svid_02=15, elv_02=58.0, az_02=327, cno_02=44, svid_03=21, elv_03=8.0, az_03=313, cno_03=25, svid_04=27, elv_04=18.0, az_04=263, cno_04=28, signalID=7)>
2026-06-07 14:47:18,306 - INFO - <NMEA(GAGSV, numMsg=3, msgNum=3, numSV=12, svid_01=30, elv_01=8.0, az_01=216, cno_01=24, svid_02=32, elv_02=34.0, az_02=178, cno_02=21, svid_03=34, elv_03=54.0, az_03=79, cno_03=47, svid_04=36, elv_04=7.0, az_04=104, cno_04=41, signalID=7)>
2026-06-07 14:47:18,306 - INFO - <NMEA(GBGSV, numMsg=2, msgNum=1, numSV=7, svid_01=13, elv_01=63.0, az_01=146, cno_01=39, svid_02=27, elv_02=38.0, az_02=312, cno_02=43, svid_03=28, elv_03=82.0, az_03=278, cno_03=44, svid_04=33, elv_04=76.0, az_04=41, cno_04=42, signalID=1)>
2026-06-07 14:47:18,307 - INFO - <NMEA(GBGSV, numMsg=2, msgNum=2, numSV=7, svid_01=38, elv_01=36.0, az_01=143, cno_01=42, svid_02=41, elv_02=50.0, az_02=226, cno_02=43, svid_03=42, elv_03=19.0, az_03=45, cno_03=43, signalID=1)>
2026-06-07 14:47:18,307 - INFO - <NMEA(GQGSV, numMsg=1, msgNum=1, numSV=0, signalID=0)>
2026-06-07 14:47:18,307 - INFO - <NMEA(GNGLL, lat=37.9008568333, NS=N, lon=-97.6641941667, EW=W, time=19:47:18.200000, status=A, posMode=D)>
2026-06-07 14:47:18,308 - INFO - <UBX(NAV-RELPOSNED, version=1, reserved0=0, refStationID=0, iTOW=19:47:18.200000, relPosN=14.85, relPosE=57.13, relPosD=4.74, relPosLength=59.22, relPosHeading=75.43406, reserved1=0, accN=10.0, accE=10.0, accD=12.4, accLength=10.0, accHeading=0.97059, reserved2=0, gnssFixOK=1, diffSoln=1, relPosValid=1, carrSoln=2, isMoving=1, refPosMiss=0, refObsMiss=0, relPosHeadingValid=1, relPosNormalized=0)>
2026-06-07 14:47:18,309 - INFO - 2026-06-07 14:47:18 Initial Moving Baseline state: active
2026-06-07 14:47:18,309 - INFO - 2026-06-07 14:47:18 Initial carrier solution: fixed
2026-06-07 14:47:18,309 - INFO - 2026-06-07 14:47:18, current_target: {'timestamp': '2026-05-10 13:40:05', 'lat': 37.9008713333, 'lon': -97.66418, 'speed': 0.004629996, 'y_offset': 0.0, 'x_offset': 0.0, 'z_offset': 0.0, 'heading': 1.76477}, next_target: {'timestamp': '2026-05-10 13:40:06', 'lat': 37.9008713333, 'lon': -97.66418, 'speed': 0.00514444, 'y_offset': 0.0, 'x_offset': 0.0, 'z_offset': 0.0, 'heading': 1.76299}
2026-06-07 14:47:18,309 - INFO - <UBX(RXM-RTCM, version=2, crcFailed=0, msgUsed=2, subType=0, refStation=0, msgType=4072)>
2026-06-07 14:47:18,309 - INFO - 2026-06-07 14:47:18, current_target: {'timestamp': '2026-05-10 13:40:05', 'lat': 37.9008713333, 'lon': -97.66418, 'speed': 0.004629996, 'y_offset': 0.0, 'x_offset': 0.0, 'z_offset': 0.0, 'heading': 1.76477}, next_target: {'timestamp': '2026-05-10 13:40:06', 'lat': 37.9008713333, 'lon': -97.66418, 'speed': 0.00514444, 'y_offset': 0.0, 'x_offset': 0.0, 'z_offset': 0.0, 'heading': 1.76299}
2026-06-07 14:47:18,309 - INFO - 2026-06-07 14:47:18 [3.4 OBSERVED] current_turn_radius: infm
2026-06-07 14:47:18,309 - INFO - 2026-06-07 14:47:18 [3.4 OBSERVED] turn_direction: STRAIGHT
2026-06-07 14:47:18,309 - INFO - 2026-06-07 14:47:18 [3.4 OBSERVED] estimated left/right wheel speeds: 0.011, 0.011 rad/s
2026-06-07 14:47:18,312 - INFO - 2026-06-07 14:47:18 [STATE] Current state: NAVIGATING_TO_START
2026-06-07 14:47:18,312 - INFO - 2026-06-07 14:47:18 [NAV_TO_START] Phase: PIVOT_TO_BEARING, Dist: 2.035m, Bearing err: -37.7°, Heading diff: 73.7°, Elapsed: 0.3s
2026-06-07 14:47:18,312 - INFO - 2026-06-07 14:47:18 [NAV_TO_START] PIVOT_TO_BEARING LEFT: heading=75.4°, bearing=37.7°, error=-37.7°, force=aggressive
2026-06-07 14:47:18,325 - INFO - goto_positions: M1=1280, M2=920 [Pivot to bearing LEFT]
2026-06-07 14:47:18,453 - INFO - <UBX(RXM-RTCM, version=2, crcFailed=0, msgUsed=2, subType=0, refStation=0, msgType=1074)>
2026-06-07 14:47:18,455 - INFO - <UBX(RXM-RTCM, version=2, crcFailed=0, msgUsed=2, subType=0, refStation=0, msgType=1084)>
2026-06-07 14:47:18,459 - INFO - <UBX(RXM-RTCM, version=2, crcFailed=0, msgUsed=2, subType=0, refStation=0, msgType=1094)>
2026-06-07 14:47:18,462 - INFO - <UBX(RXM-RTCM, version=2, crcFailed=0, msgUsed=2, subType=0, refStation=0, msgType=1124)>
2026-06-07 14:47:18,462 - INFO - <UBX(RXM-RTCM, version=2, crcFailed=0, msgUsed=2, subType=0, refStation=0, msgType=1230)>
2026-06-07 14:47:18,488 - INFO - <UBX(NAV-PVT, iTOW=19:47:18.400000, year=2026, month=6, day=7, hour=19, min=47, second=18, validDate=1, validTime=1, fullyResolved=1, validMag=0, tAcc=22, nano=400082736, fixType=3, gnssFixOk=1, diffSoln=1, psmState=0, headVehValid=0, carrSoln=2, confirmedAvai=1, confirmedDate=1, confirmedTime=1, numSV=31, lon=-97.6641942, lat=37.9008569, height=407280, hMSL=433533, hAcc=1663, vAcc=1660, velN=-1, velE=0, velD=7, gSpeed=1, headMot=81.7892, sAcc=72, headAcc=180.0, pDOP=0.92, invalidLlh=0, lastCorrectionAge=1, reserved0=860630572, headVeh=0.0, magDec=0.0, magAcc=0.0)>
2026-06-07 14:47:18,489 - INFO - <NMEA(GNRMC, time=19:47:18.400000, status=A, lat=37.9008568333, NS=N, lon=-97.6641941667, EW=W, spd=0.003, cog=, date=2026-06-07, mv=, mvEW=, posMode=R, navStatus=V)>
2026-06-07 14:47:18,489 - INFO - <NMEA(GNVTG, cogt=, cogtUnit=T, cogm=, cogmUnit=M, sogn=0.003, sognUnit=N, sogk=0.005, sogkUnit=K, posMode=D)>
2026-06-07 14:47:18,490 - INFO - <NMEA(GNGGA, time=19:47:18.400000, lat=37.9008568333, NS=N, lon=-97.6641941667, EW=W, quality=4, numSV=12, HDOP=0.53, alt=433.5, altUnit=M, sep=-26.3, sepUnit=M, diffAge=0.2, diffStation=0)>
2026-06-07 14:47:18,490 - INFO - <NMEA(GNGSA, opMode=M, navMode=3, svid_01=5, svid_02=10, svid_03=15, svid_04=18, svid_05=20, svid_06=46, svid_07=23, svid_08=24, svid_09=44, svid_10=29, svid_11=48, svid_12=, PDOP=0.92, HDOP=0.53, VDOP=0.75, systemId=1)>
2026-06-07 14:47:18,491 - INFO - <NMEA(GNGSA, opMode=M, navMode=3, svid_01=71, svid_02=70, svid_03=86, svid_04=69, svid_05=84, svid_06=85, svid_07=, svid_08=, svid_09=, svid_10=, svid_11=, svid_12=, PDOP=0.92, HDOP=0.53, VDOP=0.75, systemId=2)>
2026-06-07 14:47:18,491 - INFO - <NMEA(GNGSA, opMode=M, navMode=3, svid_01=3, svid_02=5, svid_03=8, svid_04=13, svid_05=15, svid_06=27, svid_07=34, svid_08=, svid_09=, svid_10=, svid_11=, svid_12=, PDOP=0.92, HDOP=0.53, VDOP=0.75, systemId=3)>
2026-06-07 14:47:18,491 - INFO - <NMEA(GNGSA, opMode=M, navMode=3, svid_01=13, svid_02=27, svid_03=28, svid_04=33, svid_05=38, svid_06=41, svid_07=42, svid_08=, svid_09=, svid_10=, svid_11=, svid_12=, PDOP=0.92, HDOP=0.53, VDOP=0.75, systemId=4)>
2026-06-07 14:47:18,492 - INFO - <NMEA(GNGSA, opMode=M, navMode=3, svid_01=, svid_02=, svid_03=, svid_04=, svid_05=, svid_06=, svid_07=, svid_08=, svid_09=, svid_10=, svid_11=, svid_12=, PDOP=0.92, HDOP=0.53, VDOP=0.75, systemId=5)>
2026-06-07 14:47:18,492 - INFO - <NMEA(GPGSV, numMsg=4, msgNum=1, numSV=13, svid_01=5, elv_01=21.0, az_01=60, cno_01=46, svid_02=10, elv_02=21.0, az_02=258, cno_02=32, svid_03=15, elv_03=66.0, az_03=75, cno_03=45, svid_04=16, elv_04=8.0, az_04=293, cno_04=25, signalID=1)>
2026-06-07 14:47:18,493 - INFO - <NMEA(GPGSV, numMsg=4, msgNum=2, numSV=13, svid_01=18, elv_01=69.0, az_01=343, cno_01=45, svid_02=20, elv_02=40.0, az_02=53, cno_02=47, svid_03=23, elv_03=52.0, az_03=278, cno_03=40, svid_04=24, elv_04=14.0, az_04=134, cno_04=43, signalID=1)>
2026-06-07 14:47:18,493 - INFO - <NMEA(GPGSV, numMsg=4, msgNum=3, numSV=13, svid_01=26, elv_01=2.0, az_01=267, cno_01=23, svid_02=29, elv_02=42.0, az_02=181, cno_02=35, svid_03=44, elv_03=42.0, az_03=210, cno_03=37, svid_04=46, elv_04=35.0, az_04=225, cno_04=39, signalID=1)>
2026-06-07 14:47:18,493 - INFO - <NMEA(GPGSV, numMsg=4, msgNum=4, numSV=13, svid_01=48, elv_01=38.0, az_01=220, cno_01=41, signalID=1)>
2026-06-07 14:47:18,494 - INFO - <NMEA(GPGSV, numMsg=3, msgNum=1, numSV=10, svid_01=5, elv_01=21.0, az_01=60, cno_01=38, svid_02=10, elv_02=21.0, az_02=258, cno_02=30, svid_03=15, elv_03=66.0, az_03=75, cno_03=39, svid_04=18, elv_04=69.0, az_04=343, cno_04=43, signalID=6)>
2026-06-07 14:47:18,494 - INFO - <NMEA(GPGSV, numMsg=3, msgNum=2, numSV=10, svid_01=20, elv_01=40.0, az_01=53, cno_01=42, svid_02=23, elv_02=52.0, az_02=278, cno_02=36, svid_03=24, elv_03=14.0, az_03=134, cno_03=40, svid_04=26, elv_04=2.0, az_04=267, cno_04=24, signalID=6)>
2026-06-07 14:47:18,495 - INFO - <NMEA(GPGSV, numMsg=3, msgNum=3, numSV=10, svid_01=27, elv_01=8.0, az_01=323, cno_01=26, svid_02=29, elv_02=42.0, az_02=181, cno_02=34, signalID=6)>
2026-06-07 14:47:18,495 - INFO - <NMEA(GLGSV, numMsg=2, msgNum=1, numSV=6, svid_01=69, elv_01=24.0, az_01=32, cno_01=48, svid_02=70, elv_02=77.0, az_02=29, cno_02=46, svid_03=71, elv_03=38.0, az_03=214, cno_03=45, svid_04=84, elv_04=36.0, az_04=122, cno_04=43, signalID=1)>
2026-06-07 14:47:18,496 - INFO - <NMEA(GLGSV, numMsg=2, msgNum=2, numSV=6, svid_01=85, elv_01=75.0, az_01=55, cno_01=41, svid_02=86, elv_02=25.0, az_02=323, cno_02=31, signalID=1)>
2026-06-07 14:47:18,496 - INFO - <NMEA(GLGSV, numMsg=2, msgNum=1, numSV=6, svid_01=69, elv_01=24.0, az_01=32, cno_01=41, svid_02=70, elv_02=77.0, az_02=29, cno_02=37, svid_03=71, elv_03=38.0, az_03=214, cno_03=34, svid_04=84, elv_04=36.0, az_04=122, cno_04=42, signalID=3)>
2026-06-07 14:47:18,496 - INFO - <NMEA(GLGSV, numMsg=2, msgNum=2, numSV=6, svid_01=85, elv_01=75.0, az_01=55, cno_01=35, svid_02=86, elv_02=25.0, az_02=323, cno_02=32, signalID=3)>
2026-06-07 14:47:18,497 - INFO - <NMEA(GAGSV, numMsg=3, msgNum=1, numSV=11, svid_01=3, elv_01=54.0, az_01=149, cno_01=43, svid_02=5, elv_02=43.0, az_02=62, cno_02=46, svid_03=8, elv_03=14.0, az_03=192, cno_03=23, svid_04=9, elv_04=2.0, az_04=32, cno_04=34, signalID=2)>
2026-06-07 14:47:18,497 - INFO - <NMEA(GAGSV, numMsg=3, msgNum=2, numSV=11, svid_01=13, elv_01=11.0, az_01=297, cno_01=34, svid_02=15, elv_02=58.0, az_02=327, cno_02=49, svid_03=21, elv_03=8.0, az_03=313, cno_03=21, svid_04=27, elv_04=18.0, az_04=263, cno_04=30, signalID=2)>
2026-06-07 14:47:18,498 - INFO - <NMEA(GAGSV, numMsg=3, msgNum=3, numSV=11, svid_01=30, elv_01=8.0, az_01=216, cno_01=28, svid_02=34, elv_02=54.0, az_02=79, cno_02=49, svid_03=36, elv_03=7.0, az_03=104, cno_03=48, signalID=2)>
2026-06-07 14:47:18,498 - INFO - <NMEA(GAGSV, numMsg=3, msgNum=1, numSV=12, svid_01=3, elv_01=54.0, az_01=149, cno_01=42, svid_02=5, elv_02=43.0, az_02=62, cno_02=48, svid_03=8, elv_03=14.0, az_03=192, cno_03=23, svid_04=9, elv_04=2.0, az_04=32, cno_04=47, signalID=7)>
2026-06-07 14:47:18,499 - INFO - <NMEA(GAGSV, numMsg=3, msgNum=2, numSV=12, svid_01=13, elv_01=11.0, az_01=297, cno_01=21, svid_02=15, elv_02=58.0, az_02=327, cno_02=44, svid_03=21, elv_03=8.0, az_03=313, cno_03=24, svid_04=27, elv_04=18.0, az_04=263, cno_04=29, signalID=7)>
2026-06-07 14:47:18,499 - INFO - <NMEA(GAGSV, numMsg=3, msgNum=3, numSV=12, svid_01=30, elv_01=8.0, az_01=216, cno_01=24, svid_02=32, elv_02=34.0, az_02=178, cno_02=21, svid_03=34, elv_03=54.0, az_03=79, cno_03=47, svid_04=36, elv_04=7.0, az_04=104, cno_04=41, signalID=7)>
2026-06-07 14:47:18,500 - INFO - <NMEA(GBGSV, numMsg=2, msgNum=1, numSV=7, svid_01=13, elv_01=63.0, az_01=146, cno_01=39, svid_02=27, elv_02=38.0, az_02=312, cno_02=43, svid_03=28, elv_03=82.0, az_03=278, cno_03=44, svid_04=33, elv_04=76.0, az_04=41, cno_04=42, signalID=1)>
2026-06-07 14:47:18,500 - INFO - <NMEA(GBGSV, numMsg=2, msgNum=2, numSV=7, svid_01=38, elv_01=36.0, az_01=143, cno_01=41, svid_02=41, elv_02=50.0, az_02=226, cno_02=43, svid_03=42, elv_03=19.0, az_03=45, cno_03=43, signalID=1)>
2026-06-07 14:47:18,500 - INFO - <NMEA(GQGSV, numMsg=1, msgNum=1, numSV=0, signalID=0)>
2026-06-07 14:47:18,501 - INFO - <NMEA(GNGLL, lat=37.9008568333, NS=N, lon=-97.6641941667, EW=W, time=19:47:18.400000, status=A, posMode=D)>
2026-06-07 14:47:18,501 - INFO - <UBX(NAV-RELPOSNED, version=1, reserved0=0, refStationID=0, iTOW=19:47:18.400000, relPosN=14.75, relPosE=56.9, relPosD=4.64, relPosLength=58.96, relPosHeading=75.46855, reserved1=0, accN=10.0, accE=10.0, accD=12.4, accLength=10.0, accHeading=0.97483, reserved2=0, gnssFixOK=1, diffSoln=1, relPosValid=1, carrSoln=2, isMoving=1, refPosMiss=0, refObsMiss=0, relPosHeadingValid=1, relPosNormalized=0)>
2026-06-07 14:47:18,502 - INFO - 2026-06-07 14:47:18, current_target: {'timestamp': '2026-05-10 13:40:05', 'lat': 37.9008713333, 'lon': -97.66418, 'speed': 0.004629996, 'y_offset': 0.0, 'x_offset': 0.0, 'z_offset': 0.0, 'heading': 1.76477}, next_target: {'timestamp': '2026-05-10 13:40:06', 'lat': 37.9008713333, 'lon': -97.66418, 'speed': 0.00514444, 'y_offset': 0.0, 'x_offset': 0.0, 'z_offset': 0.0, 'heading': 1.76299}
2026-06-07 14:47:18,502 - INFO - 2026-06-07 14:47:18 [3.4 OBSERVED] current_turn_radius: infm
2026-06-07 14:47:18,502 - INFO - 2026-06-07 14:47:18 [3.4 OBSERVED] turn_direction: RIGHT
2026-06-07 14:47:18,502 - INFO - 2026-06-07 14:47:18 [3.4 OBSERVED] estimated left/right wheel speeds: nan, nan rad/s
2026-06-07 14:47:18,506 - INFO - 2026-06-07 14:47:18 [STATE] Current state: NAVIGATING_TO_START
2026-06-07 14:47:18,506 - INFO - 2026-06-07 14:47:18 [NAV_TO_START] Phase: PIVOT_TO_BEARING, Dist: 2.035m, Bearing err: -37.7°, Heading diff: 73.7°, Elapsed: 0.5s
2026-06-07 14:47:18,506 - INFO - 2026-06-07 14:47:18 [NAV_TO_START] PIVOT_TO_BEARING LEFT: heading=75.5°, bearing=37.7°, error=-37.7°, force=aggressive
2026-06-07 14:47:18,519 - INFO - goto_positions: M1=1280, M2=920 [Pivot to bearing LEFT]
2026-06-07 14:47:18,519 - INFO - <UBX(RXM-RTCM, version=2, crcFailed=0, msgUsed=2, subType=0, refStation=0, msgType=4072)>
2026-06-07 14:47:18,654 - INFO - <UBX(RXM-RTCM, version=2, crcFailed=0, msgUsed=2, subType=0, refStation=0, msgType=1074)>
2026-06-07 14:47:18,656 - INFO - <UBX(RXM-RTCM, version=2, crcFailed=0, msgUsed=2, subType=0, refStation=0, msgType=1084)>
2026-06-07 14:47:18,659 - INFO - <UBX(RXM-RTCM, version=2, crcFailed=0, msgUsed=2, subType=0, refStation=0, msgType=1094)>
2026-06-07 14:47:18,662 - INFO - <UBX(RXM-RTCM, version=2, crcFailed=0, msgUsed=2, subType=0, refStation=0, msgType=1124)>
2026-06-07 14:47:18,662 - INFO - <UBX(RXM-RTCM, version=2, crcFailed=0, msgUsed=2, subType=0, refStation=0, msgType=1230)>
2026-06-07 14:47:18,699 - INFO - <UBX(NAV-PVT, iTOW=19:47:18.600000, year=2026, month=6, day=7, hour=19, min=47, second=18, validDate=1, validTime=1, fullyResolved=1, validMag=0, tAcc=22, nano=600082693, fixType=3, gnssFixOk=1, diffSoln=1, psmState=0, headVehValid=0, carrSoln=2, confirmedAvai=1, confirmedDate=1, confirmedTime=1, numSV=31, lon=-97.6641942, lat=37.9008569, height=407280, hMSL=433533, hAcc=1643, vAcc=1640, velN=1, velE=-3, velD=8, gSpeed=3, headMot=81.7892, sAcc=77, headAcc=180.0, pDOP=0.92, invalidLlh=0, lastCorrectionAge=1, reserved0=860630572, headVeh=0.0, magDec=0.0, magAcc=0.0)>
2026-06-07 14:47:18,700 - INFO - <NMEA(GNRMC, time=19:47:18.600000, status=A, lat=37.9008568333, NS=N, lon=-97.6641941667, EW=W, spd=0.007, cog=, date=2026-06-07, mv=, mvEW=, posMode=R, navStatus=V)>
2026-06-07 14:47:18,700 - INFO - <NMEA(GNVTG, cogt=, cogtUnit=T, cogm=, cogmUnit=M, sogn=0.007, sognUnit=N, sogk=0.012, sogkUnit=K, posMode=D)>
2026-06-07 14:47:18,701 - INFO - <NMEA(GNGGA, time=19:47:18.600000, lat=37.9008568333, NS=N, lon=-97.6641941667, EW=W, quality=4, numSV=12, HDOP=0.53, alt=433.5, altUnit=M, sep=-26.3, sepUnit=M, diffAge=0.2, diffStation=0)>
2026-06-07 14:47:18,701 - INFO - <NMEA(GNGSA, opMode=M, navMode=3, svid_01=5, svid_02=10, svid_03=15, svid_04=18, svid_05=20, svid_06=46, svid_07=23, svid_08=24, svid_09=44, svid_10=29, svid_11=48, svid_12=, PDOP=0.92, HDOP=0.53, VDOP=0.75, systemId=1)>
2026-06-07 14:47:18,702 - INFO - <NMEA(GNGSA, opMode=M, navMode=3, svid_01=71, svid_02=70, svid_03=86, svid_04=69, svid_05=84, svid_06=85, svid_07=, svid_08=, svid_09=, svid_10=, svid_11=, svid_12=, PDOP=0.92, HDOP=0.53, VDOP=0.75, systemId=2)>
2026-06-07 14:47:18,702 - INFO - <NMEA(GNGSA, opMode=M, navMode=3, svid_01=3, svid_02=5, svid_03=8, svid_04=13, svid_05=15, svid_06=27, svid_07=34, svid_08=, svid_09=, svid_10=, svid_11=, svid_12=, PDOP=0.92, HDOP=0.53, VDOP=0.75, systemId=3)>
2026-06-07 14:47:18,702 - INFO - <NMEA(GNGSA, opMode=M, navMode=3, svid_01=13, svid_02=27, svid_03=28, svid_04=33, svid_05=38, svid_06=41, svid_07=42, svid_08=, svid_09=, svid_10=, svid_11=, svid_12=, PDOP=0.92, HDOP=0.53, VDOP=0.75, systemId=4)>
2026-06-07 14:47:18,703 - INFO - <NMEA(GNGSA, opMode=M, navMode=3, svid_01=, svid_02=, svid_03=, svid_04=, svid_05=, svid_06=, svid_07=, svid_08=, svid_09=, svid_10=, svid_11=, svid_12=, PDOP=0.92, HDOP=0.53, VDOP=0.75, systemId=5)>
2026-06-07 14:47:18,703 - INFO - <NMEA(GPGSV, numMsg=4, msgNum=1, numSV=13, svid_01=5, elv_01=21.0, az_01=60, cno_01=46, svid_02=10, elv_02=21.0, az_02=258, cno_02=32, svid_03=15, elv_03=66.0, az_03=75, cno_03=45, svid_04=16, elv_04=8.0, az_04=293, cno_04=25, signalID=1)>
2026-06-07 14:47:18,704 - INFO - <NMEA(GPGSV, numMsg=4, msgNum=2, numSV=13, svid_01=18, elv_01=69.0, az_01=343, cno_01=45, svid_02=20, elv_02=40.0, az_02=53, cno_02=47, svid_03=23, elv_03=52.0, az_03=278, cno_03=40, svid_04=24, elv_04=14.0, az_04=134, cno_04=42, signalID=1)>
2026-06-07 14:47:18,704 - INFO - <NMEA(GPGSV, numMsg=4, msgNum=3, numSV=13, svid_01=26, elv_01=2.0, az_01=267, cno_01=23, svid_02=29, elv_02=42.0, az_02=181, cno_02=35, svid_03=44, elv_03=42.0, az_03=210, cno_03=37, svid_04=46, elv_04=35.0, az_04=225, cno_04=39, signalID=1)>
2026-06-07 14:47:18,704 - INFO - <NMEA(GPGSV, numMsg=4, msgNum=4, numSV=13, svid_01=48, elv_01=38.0, az_01=220, cno_01=41, signalID=1)>
2026-06-07 14:47:18,705 - INFO - <NMEA(GPGSV, numMsg=3, msgNum=1, numSV=10, svid_01=5, elv_01=21.0, az_01=60, cno_01=38, svid_02=10, elv_02=21.0, az_02=258, cno_02=30, svid_03=15, elv_03=66.0, az_03=75, cno_03=39, svid_04=18, elv_04=69.0, az_04=343, cno_04=43, signalID=6)>
2026-06-07 14:47:18,705 - INFO - <NMEA(GPGSV, numMsg=3, msgNum=2, numSV=10, svid_01=20, elv_01=40.0, az_01=53, cno_01=42, svid_02=23, elv_02=52.0, az_02=278, cno_02=36, svid_03=24, elv_03=14.0, az_03=134, cno_03=40, svid_04=26, elv_04=2.0, az_04=267, cno_04=24, signalID=6)>
2026-06-07 14:47:18,706 - INFO - <NMEA(GPGSV, numMsg=3, msgNum=3, numSV=10, svid_01=27, elv_01=8.0, az_01=323, cno_01=26, svid_02=29, elv_02=42.0, az_02=181, cno_02=35, signalID=6)>
2026-06-07 14:47:18,706 - INFO - <NMEA(GLGSV, numMsg=2, msgNum=1, numSV=6, svid_01=69, elv_01=24.0, az_01=32, cno_01=48, svid_02=70, elv_02=77.0, az_02=29, cno_02=46, svid_03=71, elv_03=38.0, az_03=214, cno_03=44, svid_04=84, elv_04=36.0, az_04=122, cno_04=42, signalID=1)>
2026-06-07 14:47:18,707 - INFO - <NMEA(GLGSV, numMsg=2, msgNum=2, numSV=6, svid_01=85, elv_01=75.0, az_01=55, cno_01=41, svid_02=86, elv_02=25.0, az_02=323, cno_02=31, signalID=1)>
2026-06-07 14:47:18,707 - INFO - <NMEA(GLGSV, numMsg=2, msgNum=1, numSV=6, svid_01=69, elv_01=24.0, az_01=32, cno_01=41, svid_02=70, elv_02=77.0, az_02=29, cno_02=37, svid_03=71, elv_03=38.0, az_03=214, cno_03=34, svid_04=84, elv_04=36.0, az_04=122, cno_04=42, signalID=3)>
2026-06-07 14:47:18,707 - INFO - <NMEA(GLGSV, numMsg=2, msgNum=2, numSV=6, svid_01=85, elv_01=75.0, az_01=55, cno_01=35, svid_02=86, elv_02=25.0, az_02=323, cno_02=32, signalID=3)>
2026-06-07 14:47:18,708 - INFO - <NMEA(GAGSV, numMsg=3, msgNum=1, numSV=11, svid_01=3, elv_01=54.0, az_01=149, cno_01=42, svid_02=5, elv_02=43.0, az_02=62, cno_02=46, svid_03=8, elv_03=14.0, az_03=192, cno_03=23, svid_04=9, elv_04=2.0, az_04=32, cno_04=34, signalID=2)>
2026-06-07 14:47:18,708 - INFO - <NMEA(GAGSV, numMsg=3, msgNum=2, numSV=11, svid_01=13, elv_01=11.0, az_01=297, cno_01=33, svid_02=15, elv_02=58.0, az_02=327, cno_02=49, svid_03=21, elv_03=8.0, az_03=313, cno_03=21, svid_04=27, elv_04=18.0, az_04=263, cno_04=30, signalID=2)>
2026-06-07 14:47:18,709 - INFO - <NMEA(GAGSV, numMsg=3, msgNum=3, numSV=11, svid_01=30, elv_01=8.0, az_01=216, cno_01=28, svid_02=34, elv_02=54.0, az_02=79, cno_02=49, svid_03=36, elv_03=7.0, az_03=104, cno_03=48, signalID=2)>
2026-06-07 14:47:18,709 - INFO - <NMEA(GAGSV, numMsg=3, msgNum=1, numSV=12, svid_01=3, elv_01=54.0, az_01=149, cno_01=42, svid_02=5, elv_02=43.0, az_02=62, cno_02=48, svid_03=8, elv_03=14.0, az_03=192, cno_03=22, svid_04=9, elv_04=2.0, az_04=32, cno_04=47, signalID=7)>
2026-06-07 14:47:18,710 - INFO - <NMEA(GAGSV, numMsg=3, msgNum=2, numSV=12, svid_01=13, elv_01=11.0, az_01=297, cno_01=21, svid_02=15, elv_02=58.0, az_02=327, cno_02=44, svid_03=21, elv_03=8.0, az_03=313, cno_03=24, svid_04=27, elv_04=18.0, az_04=263, cno_04=28, signalID=7)>
2026-06-07 14:47:18,710 - INFO - <NMEA(GAGSV, numMsg=3, msgNum=3, numSV=12, svid_01=30, elv_01=8.0, az_01=216, cno_01=24, svid_02=32, elv_02=34.0, az_02=178, cno_02=22, svid_03=34, elv_03=54.0, az_03=79, cno_03=47, svid_04=36, elv_04=7.0, az_04=104, cno_04=41, signalID=7)>
2026-06-07 14:47:18,711 - INFO - <NMEA(GBGSV, numMsg=2, msgNum=1, numSV=7, svid_01=13, elv_01=63.0, az_01=146, cno_01=39, svid_02=27, elv_02=38.0, az_02=312, cno_02=43, svid_03=28, elv_03=82.0, az_03=278, cno_03=44, svid_04=33, elv_04=76.0, az_04=41, cno_04=42, signalID=1)>
2026-06-07 14:47:18,711 - INFO - <NMEA(GBGSV, numMsg=2, msgNum=2, numSV=7, svid_01=38, elv_01=36.0, az_01=143, cno_01=41, svid_02=41, elv_02=50.0, az_02=226, cno_02=43, svid_03=42, elv_03=19.0, az_03=45, cno_03=43, signalID=1)>
2026-06-07 14:47:18,711 - INFO - <NMEA(GQGSV, numMsg=1, msgNum=1, numSV=0, signalID=0)>
2026-06-07 14:47:18,712 - INFO - <NMEA(GNGLL, lat=37.9008568333, NS=N, lon=-97.6641941667, EW=W, time=19:47:18.600000, status=A, posMode=D)>
2026-06-07 14:47:18,712 - INFO - <UBX(NAV-RELPOSNED, version=1, reserved0=0, refStationID=0, iTOW=19:47:18.600000, relPosN=14.47, relPosE=56.93, relPosD=4.73, relPosLength=58.93, relPosHeading=75.73886, reserved1=0, accN=10.0, accE=10.0, accD=12.2, accLength=10.0, accHeading=0.97539, reserved2=0, gnssFixOK=1, diffSoln=1, relPosValid=1, carrSoln=2, isMoving=1, refPosMiss=0, refObsMiss=0, relPosHeadingValid=1, relPosNormalized=0)>
2026-06-07 14:47:18,713 - INFO - 2026-06-07 14:47:18, current_target: {'timestamp': '2026-05-10 13:40:05', 'lat': 37.9008713333, 'lon': -97.66418, 'speed': 0.004629996, 'y_offset': 0.0, 'x_offset': 0.0, 'z_offset': 0.0, 'heading': 1.76477}, next_target: {'timestamp': '2026-05-10 13:40:06', 'lat': 37.9008713333, 'lon': -97.66418, 'speed': 0.00514444, 'y_offset': 0.0, 'x_offset': 0.0, 'z_offset': 0.0, 'heading': 1.76299}
2026-06-07 14:47:18,713 - INFO - 2026-06-07 14:47:18 [3.4 OBSERVED] current_turn_radius: infm
2026-06-07 14:47:18,713 - INFO - 2026-06-07 14:47:18 [3.4 OBSERVED] turn_direction: RIGHT
2026-06-07 14:47:18,713 - INFO - 2026-06-07 14:47:18 [3.4 OBSERVED] estimated left/right wheel speeds: nan, nan rad/s
2026-06-07 14:47:18,716 - INFO - 2026-06-07 14:47:18 [STATE] Current state: NAVIGATING_TO_START
2026-06-07 14:47:18,716 - INFO - 2026-06-07 14:47:18 [NAV_TO_START] Phase: PIVOT_TO_BEARING, Dist: 2.035m, Bearing err: -38.0°, Heading diff: 74.0°, Elapsed: 0.7s
2026-06-07 14:47:18,716 - INFO - 2026-06-07 14:47:18 [NAV_TO_START] PIVOT_TO_BEARING LEFT: heading=75.7°, bearing=37.7°, error=-38.0°, force=aggressive
2026-06-07 14:47:18,729 - INFO - goto_positions: M1=1280, M2=920 [Pivot to bearing LEFT]
2026-06-07 14:47:18,729 - INFO - <UBX(RXM-RTCM, version=2, crcFailed=0, msgUsed=2, subType=0, refStation=0, msgType=4072)>
2026-06-07 14:47:18,856 - INFO - <UBX(RXM-RTCM, version=2, crcFailed=0, msgUsed=2, subType=0, refStation=0, msgType=1074)>
2026-06-07 14:47:18,856 - INFO - <UBX(RXM-RTCM, version=2, crcFailed=0, msgUsed=2, subType=0, refStation=0, msgType=1084)>
2026-06-07 14:47:18,860 - INFO - <UBX(RXM-RTCM, version=2, crcFailed=0, msgUsed=2, subType=0, refStation=0, msgType=1094)>
2026-06-07 14:47:18,862 - INFO - <UBX(RXM-RTCM, version=2, crcFailed=0, msgUsed=2, subType=0, refStation=0, msgType=1124)>
2026-06-07 14:47:18,862 - INFO - <UBX(RXM-RTCM, version=2, crcFailed=0, msgUsed=2, subType=0, refStation=0, msgType=1230)>
2026-06-07 14:47:18,894 - INFO - <UBX(NAV-PVT, iTOW=19:47:18.800000, year=2026, month=6, day=7, hour=19, min=47, second=18, validDate=1, validTime=1, fullyResolved=1, validMag=0, tAcc=22, nano=800082650, fixType=3, gnssFixOk=1, diffSoln=1, psmState=0, headVehValid=0, carrSoln=2, confirmedAvai=1, confirmedDate=1, confirmedTime=1, numSV=31, lon=-97.6641943, lat=37.9008569, height=407263, hMSL=433515, hAcc=1693, vAcc=1698, velN=-20, velE=-27, velD=15, gSpeed=34, headMot=81.7892, sAcc=66, headAcc=117.58004, pDOP=0.92, invalidLlh=0, lastCorrectionAge=1, reserved0=860630572, headVeh=0.0, magDec=0.0, magAcc=0.0)>
2026-06-07 14:47:18,895 - INFO - <NMEA(GNRMC, time=19:47:18.800000, status=A, lat=37.9008568333, NS=N, lon=-97.6641943333, EW=W, spd=0.066, cog=, date=2026-06-07, mv=, mvEW=, posMode=R, navStatus=V)>
2026-06-07 14:47:18,895 - INFO - <NMEA(GNVTG, cogt=, cogtUnit=T, cogm=, cogmUnit=M, sogn=0.066, sognUnit=N, sogk=0.123, sogkUnit=K, posMode=D)>
2026-06-07 14:47:18,896 - INFO - <NMEA(GNGGA, time=19:47:18.800000, lat=37.9008568333, NS=N, lon=-97.6641943333, EW=W, quality=4, numSV=12, HDOP=0.53, alt=433.5, altUnit=M, sep=-26.3, sepUnit=M, diffAge=0.2, diffStation=0)>
2026-06-07 14:47:18,896 - INFO - <NMEA(GNGSA, opMode=M, navMode=3, svid_01=5, svid_02=10, svid_03=15, svid_04=18, svid_05=20, svid_06=46, svid_07=23, svid_08=24, svid_09=44, svid_10=29, svid_11=48, svid_12=, PDOP=0.92, HDOP=0.53, VDOP=0.75, systemId=1)>
2026-06-07 14:47:18,897 - INFO - <NMEA(GNGSA, opMode=M, navMode=3, svid_01=71, svid_02=70, svid_03=86, svid_04=69, svid_05=84, svid_06=85, svid_07=, svid_08=, svid_09=, svid_10=, svid_11=, svid_12=, PDOP=0.92, HDOP=0.53, VDOP=0.75, systemId=2)>
2026-06-07 14:47:18,897 - INFO - <NMEA(GNGSA, opMode=M, navMode=3, svid_01=3, svid_02=5, svid_03=8, svid_04=13, svid_05=15, svid_06=27, svid_07=34, svid_08=, svid_09=, svid_10=, svid_11=, svid_12=, PDOP=0.92, HDOP=0.53, VDOP=0.75, systemId=3)>
2026-06-07 14:47:18,897 - INFO - <NMEA(GNGSA, opMode=M, navMode=3, svid_01=13, svid_02=27, svid_03=28, svid_04=33, svid_05=38, svid_06=41, svid_07=42, svid_08=, svid_09=, svid_10=, svid_11=, svid_12=, PDOP=0.92, HDOP=0.53, VDOP=0.75, systemId=4)>
2026-06-07 14:47:18,898 - INFO - <NMEA(GNGSA, opMode=M, navMode=3, svid_01=, svid_02=, svid_03=, svid_04=, svid_05=, svid_06=, svid_07=, svid_08=, svid_09=, svid_10=, svid_11=, svid_12=, PDOP=0.92, HDOP=0.53, VDOP=0.75, systemId=5)>
2026-06-07 14:47:18,898 - INFO - <NMEA(GPGSV, numMsg=4, msgNum=1, numSV=13, svid_01=5, elv_01=21.0, az_01=60, cno_01=46, svid_02=10, elv_02=21.0, az_02=258, cno_02=32, svid_03=15, elv_03=66.0, az_03=75, cno_03=45, svid_04=16, elv_04=8.0, az_04=293, cno_04=25, signalID=1)>
2026-06-07 14:47:18,899 - INFO - <NMEA(GPGSV, numMsg=4, msgNum=2, numSV=13, svid_01=18, elv_01=69.0, az_01=343, cno_01=45, svid_02=20, elv_02=40.0, az_02=53, cno_02=47, svid_03=23, elv_03=52.0, az_03=278, cno_03=40, svid_04=24, elv_04=14.0, az_04=134, cno_04=42, signalID=1)>
2026-06-07 14:47:18,899 - INFO - <NMEA(GPGSV, numMsg=4, msgNum=3, numSV=13, svid_01=26, elv_01=2.0, az_01=267, cno_01=22, svid_02=29, elv_02=42.0, az_02=181, cno_02=35, svid_03=44, elv_03=42.0, az_03=210, cno_03=37, svid_04=46, elv_04=35.0, az_04=225, cno_04=39, signalID=1)>
2026-06-07 14:47:18,899 - INFO - <NMEA(GPGSV, numMsg=4, msgNum=4, numSV=13, svid_01=48, elv_01=38.0, az_01=220, cno_01=41, signalID=1)>
2026-06-07 14:47:18,900 - INFO - <NMEA(GPGSV, numMsg=3, msgNum=1, numSV=10, svid_01=5, elv_01=21.0, az_01=60, cno_01=38, svid_02=10, elv_02=21.0, az_02=258, cno_02=30, svid_03=15, elv_03=66.0, az_03=75, cno_03=39, svid_04=18, elv_04=69.0, az_04=343, cno_04=43, signalID=6)>
2026-06-07 14:47:18,900 - INFO - <NMEA(GPGSV, numMsg=3, msgNum=2, numSV=10, svid_01=20, elv_01=40.0, az_01=53, cno_01=42, svid_02=23, elv_02=52.0, az_02=278, cno_02=36, svid_03=24, elv_03=14.0, az_03=134, cno_03=40, svid_04=26, elv_04=2.0, az_04=267, cno_04=24, signalID=6)>
2026-06-07 14:47:18,901 - INFO - <NMEA(GPGSV, numMsg=3, msgNum=3, numSV=10, svid_01=27, elv_01=8.0, az_01=323, cno_01=25, svid_02=29, elv_02=42.0, az_02=181, cno_02=35, signalID=6)>
2026-06-07 14:47:18,901 - INFO - <NMEA(GLGSV, numMsg=2, msgNum=1, numSV=6, svid_01=69, elv_01=24.0, az_01=32, cno_01=49, svid_02=70, elv_02=77.0, az_02=29, cno_02=46, svid_03=71, elv_03=38.0, az_03=214, cno_03=44, svid_04=84, elv_04=36.0, az_04=122, cno_04=42, signalID=1)>
2026-06-07 14:47:18,901 - INFO - <NMEA(GLGSV, numMsg=2, msgNum=2, numSV=6, svid_01=85, elv_01=75.0, az_01=55, cno_01=41, svid_02=86, elv_02=25.0, az_02=323, cno_02=31, signalID=1)>
2026-06-07 14:47:18,902 - INFO - <NMEA(GLGSV, numMsg=2, msgNum=1, numSV=6, svid_01=69, elv_01=24.0, az_01=32, cno_01=41, svid_02=70, elv_02=77.0, az_02=29, cno_02=37, svid_03=71, elv_03=38.0, az_03=214, cno_03=34, svid_04=84, elv_04=36.0, az_04=122, cno_04=42, signalID=3)>
2026-06-07 14:47:18,902 - INFO - <NMEA(GLGSV, numMsg=2, msgNum=2, numSV=6, svid_01=85, elv_01=75.0, az_01=55, cno_01=35, svid_02=86, elv_02=25.0, az_02=323, cno_02=32, signalID=3)>
2026-06-07 14:47:18,903 - INFO - <NMEA(GAGSV, numMsg=3, msgNum=1, numSV=11, svid_01=3, elv_01=54.0, az_01=149, cno_01=42, svid_02=5, elv_02=43.0, az_02=62, cno_02=46, svid_03=8, elv_03=14.0, az_03=192, cno_03=23, svid_04=9, elv_04=2.0, az_04=32, cno_04=34, signalID=2)>
2026-06-07 14:47:18,903 - INFO - <NMEA(GAGSV, numMsg=3, msgNum=2, numSV=11, svid_01=13, elv_01=11.0, az_01=297, cno_01=33, svid_02=15, elv_02=58.0, az_02=327, cno_02=48, svid_03=21, elv_03=8.0, az_03=313, cno_03=21, svid_04=27, elv_04=18.0, az_04=263, cno_04=30, signalID=2)>
2026-06-07 14:47:18,904 - INFO - <NMEA(GAGSV, numMsg=3, msgNum=3, numSV=11, svid_01=30, elv_01=8.0, az_01=216, cno_01=28, svid_02=34, elv_02=54.0, az_02=79, cno_02=49, svid_03=36, elv_03=7.0, az_03=104, cno_03=48, signalID=2)>
2026-06-07 14:47:18,904 - INFO - <NMEA(GAGSV, numMsg=3, msgNum=1, numSV=12, svid_01=3, elv_01=54.0, az_01=149, cno_01=42, svid_02=5, elv_02=43.0, az_02=62, cno_02=48, svid_03=8, elv_03=14.0, az_03=192, cno_03=22, svid_04=9, elv_04=2.0, az_04=32, cno_04=47, signalID=7)>
2026-06-07 14:47:18,904 - INFO - <NMEA(GAGSV, numMsg=3, msgNum=2, numSV=12, svid_01=13, elv_01=11.0, az_01=297, cno_01=21, svid_02=15, elv_02=58.0, az_02=327, cno_02=44, svid_03=21, elv_03=8.0, az_03=313, cno_03=24, svid_04=27, elv_04=18.0, az_04=263, cno_04=28, signalID=7)>
2026-06-07 14:47:18,905 - INFO - <NMEA(GAGSV, numMsg=3, msgNum=3, numSV=12, svid_01=30, elv_01=8.0, az_01=216, cno_01=23, svid_02=32, elv_02=34.0, az_02=178, cno_02=21, svid_03=34, elv_03=54.0, az_03=79, cno_03=47, svid_04=36, elv_04=7.0, az_04=104, cno_04=41, signalID=7)>
2026-06-07 14:47:18,905 - INFO - <NMEA(GBGSV, numMsg=2, msgNum=1, numSV=7, svid_01=13, elv_01=63.0, az_01=146, cno_01=39, svid_02=27, elv_02=38.0, az_02=312, cno_02=43, svid_03=28, elv_03=82.0, az_03=278, cno_03=44, svid_04=33, elv_04=76.0, az_04=41, cno_04=42, signalID=1)>
2026-06-07 14:47:18,906 - INFO - <NMEA(GBGSV, numMsg=2, msgNum=2, numSV=7, svid_01=38, elv_01=36.0, az_01=143, cno_01=41, svid_02=41, elv_02=50.0, az_02=226, cno_02=43, svid_03=42, elv_03=19.0, az_03=45, cno_03=43, signalID=1)>
2026-06-07 14:47:18,906 - INFO - <NMEA(GQGSV, numMsg=1, msgNum=1, numSV=0, signalID=0)>
2026-06-07 14:47:18,906 - INFO - <NMEA(GNGLL, lat=37.9008568333, NS=N, lon=-97.6641943333, EW=W, time=19:47:18.800000, status=A, posMode=D)>
2026-06-07 14:47:18,907 - INFO - <UBX(NAV-RELPOSNED, version=1, reserved0=0, refStationID=0, iTOW=19:47:18.800000, relPosN=15.21, relPosE=56.81, relPosD=4.84, relPosLength=59.01, relPosHeading=75.01403, reserved1=0, accN=10.0, accE=10.0, accD=12.6, accLength=10.0, accHeading=0.9742, reserved2=0, gnssFixOK=1, diffSoln=1, relPosValid=1, carrSoln=2, isMoving=1, refPosMiss=0, refObsMiss=0, relPosHeadingValid=1, relPosNormalized=0)>
2026-06-07 14:47:18,908 - INFO - 2026-06-07 14:47:18, current_target: {'timestamp': '2026-05-10 13:40:05', 'lat': 37.9008713333, 'lon': -97.66418, 'speed': 0.004629996, 'y_offset': 0.0, 'x_offset': 0.0, 'z_offset': 0.0, 'heading': 1.76477}, next_target: {'timestamp': '2026-05-10 13:40:06', 'lat': 37.9008713333, 'lon': -97.66418, 'speed': 0.00514444, 'y_offset': 0.0, 'x_offset': 0.0, 'z_offset': 0.0, 'heading': 1.76299}
2026-06-07 14:47:18,908 - INFO - 2026-06-07 14:47:18 [3.4 OBSERVED] current_turn_radius: infm
2026-06-07 14:47:18,908 - INFO - 2026-06-07 14:47:18 [3.4 OBSERVED] turn_direction: LEFT
2026-06-07 14:47:18,908 - INFO - 2026-06-07 14:47:18 [3.4 OBSERVED] estimated left/right wheel speeds: nan, nan rad/s
2026-06-07 14:47:18,911 - INFO - 2026-06-07 14:47:18 [STATE] Current state: NAVIGATING_TO_START
2026-06-07 14:47:18,911 - INFO - 2026-06-07 14:47:18 [NAV_TO_START] Phase: PIVOT_TO_BEARING, Dist: 2.044m, Bearing err: -36.9°, Heading diff: 73.2°, Elapsed: 0.9s
2026-06-07 14:47:18,911 - INFO - 2026-06-07 14:47:18 [NAV_TO_START] PIVOT_TO_BEARING LEFT: heading=75.0°, bearing=38.1°, error=-36.9°, force=aggressive
2026-06-07 14:47:18,925 - INFO - goto_positions: M1=1280, M2=920 [Pivot to bearing LEFT]
2026-06-07 14:47:18,925 - INFO - <UBX(RXM-RTCM, version=2, crcFailed=0, msgUsed=2, subType=0, refStation=0, msgType=4072)>
2026-06-07 14:47:19,054 - INFO - <UBX(RXM-RTCM, version=2, crcFailed=0, msgUsed=2, subType=0, refStation=0, msgType=1074)>
2026-06-07 14:47:19,056 - INFO - <UBX(RXM-RTCM, version=2, crcFailed=0, msgUsed=2, subType=0, refStation=0, msgType=1084)>
2026-06-07 14:47:19,059 - INFO - <UBX(RXM-RTCM, version=2, crcFailed=0, msgUsed=2, subType=0, refStation=0, msgType=1094)>
2026-06-07 14:47:19,062 - INFO - <UBX(RXM-RTCM, version=2, crcFailed=0, msgUsed=2, subType=0, refStation=0, msgType=1124)>
2026-06-07 14:47:19,062 - INFO - <UBX(RXM-RTCM, version=2, crcFailed=0, msgUsed=2, subType=0, refStation=0, msgType=1230)>
2026-06-07 14:47:19,103 - INFO - <UBX(NAV-PVT, iTOW=19:47:19, year=2026, month=6, day=7, hour=19, min=47, second=19, validDate=1, validTime=1, fullyResolved=1, validMag=0, tAcc=22, nano=82607, fixType=3, gnssFixOk=1, diffSoln=1, psmState=0, headVehValid=0, carrSoln=2, confirmedAvai=1, confirmedDate=1, confirmedTime=1, numSV=31, lon=-97.6641946, lat=37.9008568, height=407256, hMSL=433509, hAcc=1771, vAcc=1780, velN=-69, velE=-133, velD=18, gSpeed=149, headMot=242.65644, sAcc=59, headAcc=26.40426, pDOP=0.92, invalidLlh=0, lastCorrectionAge=1, reserved0=860630572, headVeh=0.0, magDec=0.0, magAcc=0.0)>
2026-06-07 14:47:19,104 - INFO - <NMEA(GNRMC, time=19:47:19, status=A, lat=37.9008568333, NS=N, lon=-97.6641946667, EW=W, spd=0.29, cog=242.66, date=2026-06-07, mv=, mvEW=, posMode=R, navStatus=V)>
2026-06-07 14:47:19,104 - INFO - <NMEA(GNVTG, cogt=242.66, cogtUnit=T, cogm=, cogmUnit=M, sogn=0.29, sognUnit=N, sogk=0.537, sogkUnit=K, posMode=D)>
2026-06-07 14:47:19,105 - INFO - <NMEA(GNGGA, time=19:47:19, lat=37.9008568333, NS=N, lon=-97.6641946667, EW=W, quality=4, numSV=12, HDOP=0.53, alt=433.5, altUnit=M, sep=-26.3, sepUnit=M, diffAge=0.2, diffStation=0)>
2026-06-07 14:47:19,105 - INFO - <NMEA(GNGSA, opMode=M, navMode=3, svid_01=5, svid_02=10, svid_03=15, svid_04=18, svid_05=20, svid_06=46, svid_07=23, svid_08=24, svid_09=44, svid_10=29, svid_11=48, svid_12=, PDOP=0.92, HDOP=0.53, VDOP=0.75, systemId=1)>
2026-06-07 14:47:19,106 - INFO - <NMEA(GNGSA, opMode=M, navMode=3, svid_01=71, svid_02=70, svid_03=86, svid_04=69, svid_05=84, svid_06=85, svid_07=, svid_08=, svid_09=, svid_10=, svid_11=, svid_12=, PDOP=0.92, HDOP=0.53, VDOP=0.75, systemId=2)>
2026-06-07 14:47:19,106 - INFO - <NMEA(GNGSA, opMode=M, navMode=3, svid_01=3, svid_02=5, svid_03=8, svid_04=13, svid_05=15, svid_06=27, svid_07=34, svid_08=, svid_09=, svid_10=, svid_11=, svid_12=, PDOP=0.92, HDOP=0.53, VDOP=0.75, systemId=3)>
2026-06-07 14:47:19,107 - INFO - <NMEA(GNGSA, opMode=M, navMode=3, svid_01=13, svid_02=27, svid_03=28, svid_04=33, svid_05=38, svid_06=41, svid_07=42, svid_08=, svid_09=, svid_10=, svid_11=, svid_12=, PDOP=0.92, HDOP=0.53, VDOP=0.75, systemId=4)>
2026-06-07 14:47:19,107 - INFO - <NMEA(GNGSA, opMode=M, navMode=3, svid_01=, svid_02=, svid_03=, svid_04=, svid_05=, svid_06=, svid_07=, svid_08=, svid_09=, svid_10=, svid_11=, svid_12=, PDOP=0.92, HDOP=0.53, VDOP=0.75, systemId=5)>
2026-06-07 14:47:19,107 - INFO - <NMEA(GPGSV, numMsg=4, msgNum=1, numSV=13, svid_01=5, elv_01=21.0, az_01=60, cno_01=46, svid_02=10, elv_02=21.0, az_02=258, cno_02=32, svid_03=15, elv_03=66.0, az_03=75, cno_03=45, svid_04=16, elv_04=8.0, az_04=293, cno_04=24, signalID=1)>
2026-06-07 14:47:19,108 - INFO - <NMEA(GPGSV, numMsg=4, msgNum=2, numSV=13, svid_01=18, elv_01=69.0, az_01=343, cno_01=45, svid_02=20, elv_02=40.0, az_02=53, cno_02=47, svid_03=23, elv_03=52.0, az_03=278, cno_03=37, svid_04=24, elv_04=14.0, az_04=134, cno_04=42, signalID=1)>
2026-06-07 14:47:19,108 - INFO - <NMEA(GPGSV, numMsg=4, msgNum=3, numSV=13, svid_01=26, elv_01=2.0, az_01=267, cno_01=22, svid_02=29, elv_02=42.0, az_02=181, cno_02=35, svid_03=44, elv_03=42.0, az_03=210, cno_03=37, svid_04=46, elv_04=35.0, az_04=225, cno_04=39, signalID=1)>
2026-06-07 14:47:19,109 - INFO - <NMEA(GPGSV, numMsg=4, msgNum=4, numSV=13, svid_01=48, elv_01=38.0, az_01=220, cno_01=41, signalID=1)>
2026-06-07 14:47:19,109 - INFO - <NMEA(GPGSV, numMsg=3, msgNum=1, numSV=10, svid_01=5, elv_01=21.0, az_01=60, cno_01=38, svid_02=10, elv_02=21.0, az_02=258, cno_02=30, svid_03=15, elv_03=66.0, az_03=75, cno_03=41, svid_04=18, elv_04=69.0, az_04=343, cno_04=43, signalID=6)>
2026-06-07 14:47:19,109 - INFO - <NMEA(GPGSV, numMsg=3, msgNum=2, numSV=10, svid_01=20, elv_01=40.0, az_01=53, cno_01=42, svid_02=23, elv_02=52.0, az_02=278, cno_02=36, svid_03=24, elv_03=14.0, az_03=134, cno_03=40, svid_04=26, elv_04=2.0, az_04=267, cno_04=24, signalID=6)>
2026-06-07 14:47:19,110 - INFO - <NMEA(GPGSV, numMsg=3, msgNum=3, numSV=10, svid_01=27, elv_01=8.0, az_01=323, cno_01=25, svid_02=29, elv_02=42.0, az_02=181, cno_02=35, signalID=6)>
2026-06-07 14:47:19,110 - INFO - <NMEA(GLGSV, numMsg=2, msgNum=1, numSV=6, svid_01=69, elv_01=24.0, az_01=32, cno_01=50, svid_02=70, elv_02=77.0, az_02=29, cno_02=46, svid_03=71, elv_03=38.0, az_03=214, cno_03=44, svid_04=84, elv_04=36.0, az_04=122, cno_04=42, signalID=1)>
2026-06-07 14:47:19,111 - INFO - <NMEA(GLGSV, numMsg=2, msgNum=2, numSV=6, svid_01=85, elv_01=75.0, az_01=55, cno_01=38, svid_02=86, elv_02=25.0, az_02=323, cno_02=32, signalID=1)>
2026-06-07 14:47:19,111 - INFO - <NMEA(GLGSV, numMsg=2, msgNum=1, numSV=6, svid_01=69, elv_01=24.0, az_01=32, cno_01=41, svid_02=70, elv_02=77.0, az_02=29, cno_02=37, svid_03=71, elv_03=38.0, az_03=214, cno_03=34, svid_04=84, elv_04=36.0, az_04=122, cno_04=40, signalID=3)>
2026-06-07 14:47:19,111 - INFO - <NMEA(GLGSV, numMsg=2, msgNum=2, numSV=6, svid_01=85, elv_01=75.0, az_01=55, cno_01=35, svid_02=86, elv_02=25.0, az_02=323, cno_02=32, signalID=3)>
2026-06-07 14:47:19,112 - INFO - <NMEA(GAGSV, numMsg=3, msgNum=1, numSV=11, svid_01=3, elv_01=54.0, az_01=149, cno_01=42, svid_02=5, elv_02=43.0, az_02=62, cno_02=45, svid_03=8, elv_03=14.0, az_03=192, cno_03=23, svid_04=9, elv_04=2.0, az_04=32, cno_04=37, signalID=2)>
2026-06-07 14:47:19,112 - INFO - <NMEA(GAGSV, numMsg=3, msgNum=2, numSV=11, svid_01=13, elv_01=11.0, az_01=297, cno_01=33, svid_02=15, elv_02=58.0, az_02=327, cno_02=48, svid_03=21, elv_03=8.0, az_03=313, cno_03=21, svid_04=27, elv_04=18.0, az_04=263, cno_04=31, signalID=2)>
2026-06-07 14:47:19,113 - INFO - <NMEA(GAGSV, numMsg=3, msgNum=3, numSV=11, svid_01=30, elv_01=8.0, az_01=216, cno_01=28, svid_02=34, elv_02=54.0, az_02=79, cno_02=49, svid_03=36, elv_03=7.0, az_03=104, cno_03=48, signalID=2)>
2026-06-07 14:47:19,113 - INFO - <NMEA(GAGSV, numMsg=3, msgNum=1, numSV=12, svid_01=3, elv_01=54.0, az_01=149, cno_01=42, svid_02=5, elv_02=43.0, az_02=62, cno_02=48, svid_03=8, elv_03=14.0, az_03=192, cno_03=22, svid_04=9, elv_04=2.0, az_04=32, cno_04=46, signalID=7)>
2026-06-07 14:47:19,114 - INFO - <NMEA(GAGSV, numMsg=3, msgNum=2, numSV=12, svid_01=13, elv_01=11.0, az_01=297, cno_01=21, svid_02=15, elv_02=58.0, az_02=327, cno_02=45, svid_03=21, elv_03=8.0, az_03=313, cno_03=24, svid_04=27, elv_04=18.0, az_04=263, cno_04=28, signalID=7)>
2026-06-07 14:47:19,114 - INFO - <NMEA(GAGSV, numMsg=3, msgNum=3, numSV=12, svid_01=30, elv_01=8.0, az_01=216, cno_01=23, svid_02=32, elv_02=34.0, az_02=178, cno_02=21, svid_03=34, elv_03=54.0, az_03=79, cno_03=46, svid_04=36, elv_04=7.0, az_04=104, cno_04=34, signalID=7)>
2026-06-07 14:47:19,115 - INFO - <NMEA(GBGSV, numMsg=2, msgNum=1, numSV=7, svid_01=13, elv_01=63.0, az_01=146, cno_01=39, svid_02=27, elv_02=38.0, az_02=312, cno_02=42, svid_03=28, elv_03=82.0, az_03=278, cno_03=44, svid_04=33, elv_04=76.0, az_04=41, cno_04=42, signalID=1)>
2026-06-07 14:47:19,115 - INFO - <NMEA(GBGSV, numMsg=2, msgNum=2, numSV=7, svid_01=38, elv_01=36.0, az_01=143, cno_01=41, svid_02=41, elv_02=50.0, az_02=226, cno_02=44, svid_03=42, elv_03=19.0, az_03=45, cno_03=45, signalID=1)>
2026-06-07 14:47:19,115 - INFO - <NMEA(GQGSV, numMsg=1, msgNum=1, numSV=0, signalID=0)>
2026-06-07 14:47:19,115 - INFO - <NMEA(GNGLL, lat=37.9008568333, NS=N, lon=-97.6641946667, EW=W, time=19:47:19, status=A, posMode=D)>
2026-06-07 14:47:19,116 - INFO - <UBX(NAV-RELPOSNED, version=1, reserved0=0, refStationID=0, iTOW=19:47:19, relPosN=15.2, relPosE=57.24, relPosD=5.29, relPosLength=59.46, relPosHeading=75.12938, reserved1=0, accN=10.0, accE=10.0, accD=13.3, accLength=10.0, accHeading=0.9675, reserved2=0, gnssFixOK=1, diffSoln=1, relPosValid=1, carrSoln=2, isMoving=1, refPosMiss=0, refObsMiss=0, relPosHeadingValid=1, relPosNormalized=0)>
2026-06-07 14:47:19,117 - INFO - 2026-06-07 14:47:19, current_target: {'timestamp': '2026-05-10 13:40:05', 'lat': 37.9008713333, 'lon': -97.66418, 'speed': 0.004629996, 'y_offset': 0.0, 'x_offset': 0.0, 'z_offset': 0.0, 'heading': 1.76477}, next_target: {'timestamp': '2026-05-10 13:40:06', 'lat': 37.9008713333, 'lon': -97.66418, 'speed': 0.00514444, 'y_offset': 0.0, 'x_offset': 0.0, 'z_offset': 0.0, 'heading': 1.76299}
2026-06-07 14:47:19,117 - INFO - 2026-06-07 14:47:19 [3.4 OBSERVED] current_turn_radius: 15.49m
2026-06-07 14:47:19,117 - INFO - 2026-06-07 14:47:19 [3.4 OBSERVED] turn_direction: RIGHT
2026-06-07 14:47:19,117 - INFO - 2026-06-07 14:47:19 [3.4 OBSERVED] estimated left/right wheel speeds: 0.233, 0.226 rad/s
2026-06-07 14:47:19,119 - INFO - 2026-06-07 14:47:19 [STATE] Current state: NAVIGATING_TO_START
2026-06-07 14:47:19,119 - INFO - 2026-06-07 14:47:19 [NAV_TO_START] Phase: PIVOT_TO_BEARING, Dist: 2.063m, Bearing err: -36.4°, Heading diff: 73.4°, Elapsed: 1.1s
2026-06-07 14:47:19,119 - INFO - 2026-06-07 14:47:19 [NAV_TO_START] PIVOT_TO_BEARING LEFT: heading=75.1°, bearing=38.7°, error=-36.4°, force=aggressive
2026-06-07 14:47:19,133 - INFO - goto_positions: M1=1280, M2=920 [Pivot to bearing LEFT]
2026-06-07 14:47:19,133 - INFO - <UBX(RXM-RTCM, version=2, crcFailed=0, msgUsed=2, subType=0, refStation=0, msgType=4072)>
2026-06-07 14:47:19,254 - INFO - <UBX(RXM-RTCM, version=2, crcFailed=0, msgUsed=2, subType=0, refStation=0, msgType=1074)>
2026-06-07 14:47:19,256 - INFO - <UBX(RXM-RTCM, version=2, crcFailed=0, msgUsed=2, subType=0, refStation=0, msgType=1084)>
2026-06-07 14:47:19,259 - INFO - <UBX(RXM-RTCM, version=2, crcFailed=0, msgUsed=2, subType=0, refStation=0, msgType=1094)>
2026-06-07 14:47:19,262 - INFO - <UBX(RXM-RTCM, version=2, crcFailed=0, msgUsed=2, subType=0, refStation=0, msgType=1124)>
2026-06-07 14:47:19,262 - INFO - <UBX(RXM-RTCM, version=2, crcFailed=0, msgUsed=2, subType=0, refStation=0, msgType=1230)>
2026-06-07 14:47:19,298 - INFO - <UBX(NAV-PVT, iTOW=19:47:19.200000, year=2026, month=6, day=7, hour=19, min=47, second=19, validDate=1, validTime=1, fullyResolved=1, validMag=0, tAcc=22, nano=200082565, fixType=3, gnssFixOk=1, diffSoln=1, psmState=0, headVehValid=0, carrSoln=2, confirmedAvai=1, confirmedDate=1, confirmedTime=1, numSV=31, lon=-97.6641948, lat=37.9008567, height=407244, hMSL=433496, hAcc=1970, vAcc=1986, velN=-14, velE=-105, velD=7, gSpeed=106, headMot=262.36156, sAcc=62, headAcc=35.16338, pDOP=0.92, invalidLlh=0, lastCorrectionAge=1, reserved0=860630572, headVeh=0.0, magDec=0.0, magAcc=0.0)>
2026-06-07 14:47:19,299 - INFO - <NMEA(GNRMC, time=19:47:19.200000, status=A, lat=37.9008566667, NS=N, lon=-97.6641948333, EW=W, spd=0.205, cog=262.36, date=2026-06-07, mv=, mvEW=, posMode=R, navStatus=V)>
2026-06-07 14:47:19,299 - INFO - <NMEA(GNVTG, cogt=262.36, cogtUnit=T, cogm=, cogmUnit=M, sogn=0.205, sognUnit=N, sogk=0.38, sogkUnit=K, posMode=D)>
2026-06-07 14:47:19,300 - INFO - <NMEA(GNGGA, time=19:47:19.200000, lat=37.9008566667, NS=N, lon=-97.6641948333, EW=W, quality=4, numSV=12, HDOP=0.53, alt=433.5, altUnit=M, sep=-26.3, sepUnit=M, diffAge=0.2, diffStation=0)>
2026-06-07 14:47:19,300 - INFO - <NMEA(GNGSA, opMode=M, navMode=3, svid_01=5, svid_02=10, svid_03=15, svid_04=18, svid_05=20, svid_06=46, svid_07=23, svid_08=24, svid_09=44, svid_10=29, svid_11=48, svid_12=, PDOP=0.92, HDOP=0.53, VDOP=0.75, systemId=1)>
2026-06-07 14:47:19,301 - INFO - <NMEA(GNGSA, opMode=M, navMode=3, svid_01=71, svid_02=70, svid_03=86, svid_04=69, svid_05=84, svid_06=85, svid_07=, svid_08=, svid_09=, svid_10=, svid_11=, svid_12=, PDOP=0.92, HDOP=0.53, VDOP=0.75, systemId=2)>
2026-06-07 14:47:19,301 - INFO - <NMEA(GNGSA, opMode=M, navMode=3, svid_01=3, svid_02=5, svid_03=8, svid_04=13, svid_05=15, svid_06=27, svid_07=34, svid_08=, svid_09=, svid_10=, svid_11=, svid_12=, PDOP=0.92, HDOP=0.53, VDOP=0.75, systemId=3)>
2026-06-07 14:47:19,301 - INFO - <NMEA(GNGSA, opMode=M, navMode=3, svid_01=13, svid_02=27, svid_03=28, svid_04=33, svid_05=38, svid_06=41, svid_07=42, svid_08=, svid_09=, svid_10=, svid_11=, svid_12=, PDOP=0.92, HDOP=0.53, VDOP=0.75, systemId=4)>
2026-06-07 14:47:19,302 - INFO - <NMEA(GNGSA, opMode=M, navMode=3, svid_01=, svid_02=, svid_03=, svid_04=, svid_05=, svid_06=, svid_07=, svid_08=, svid_09=, svid_10=, svid_11=, svid_12=, PDOP=0.92, HDOP=0.53, VDOP=0.75, systemId=5)>
2026-06-07 14:47:19,302 - INFO - <NMEA(GPGSV, numMsg=4, msgNum=1, numSV=13, svid_01=5, elv_01=21.0, az_01=60, cno_01=47, svid_02=10, elv_02=21.0, az_02=258, cno_02=33, svid_03=15, elv_03=66.0, az_03=75, cno_03=46, svid_04=16, elv_04=8.0, az_04=293, cno_04=24, signalID=1)>
2026-06-07 14:47:19,303 - INFO - <NMEA(GPGSV, numMsg=4, msgNum=2, numSV=13, svid_01=18, elv_01=69.0, az_01=343, cno_01=46, svid_02=20, elv_02=40.0, az_02=53, cno_02=48, svid_03=23, elv_03=52.0, az_03=278, cno_03=34, svid_04=24, elv_04=14.0, az_04=134, cno_04=41, signalID=1)>
2026-06-07 14:47:19,303 - INFO - <NMEA(GPGSV, numMsg=4, msgNum=3, numSV=13, svid_01=26, elv_01=2.0, az_01=267, cno_01=22, svid_02=29, elv_02=42.0, az_02=181, cno_02=35, svid_03=44, elv_03=42.0, az_03=210, cno_03=37, svid_04=46, elv_04=35.0, az_04=225, cno_04=39, signalID=1)>
2026-06-07 14:47:19,303 - INFO - <NMEA(GPGSV, numMsg=4, msgNum=4, numSV=13, svid_01=48, elv_01=38.0, az_01=220, cno_01=41, signalID=1)>
2026-06-07 14:47:19,304 - INFO - <NMEA(GPGSV, numMsg=3, msgNum=1, numSV=10, svid_01=5, elv_01=21.0, az_01=60, cno_01=35, svid_02=10, elv_02=21.0, az_02=258, cno_02=29, svid_03=15, elv_03=66.0, az_03=75, cno_03=41, svid_04=18, elv_04=69.0, az_04=343, cno_04=43, signalID=6)>
2026-06-07 14:47:19,304 - INFO - <NMEA(GPGSV, numMsg=3, msgNum=2, numSV=10, svid_01=20, elv_01=40.0, az_01=53, cno_01=41, svid_02=23, elv_02=52.0, az_02=278, cno_02=37, svid_03=24, elv_03=14.0, az_03=134, cno_03=40, svid_04=26, elv_04=2.0, az_04=267, cno_04=24, signalID=6)>
2026-06-07 14:47:19,305 - INFO - <NMEA(GPGSV, numMsg=3, msgNum=3, numSV=10, svid_01=27, elv_01=8.0, az_01=323, cno_01=25, svid_02=29, elv_02=42.0, az_02=181, cno_02=35, signalID=6)>
2026-06-07 14:47:19,305 - INFO - <NMEA(GLGSV, numMsg=2, msgNum=1, numSV=6, svid_01=69, elv_01=24.0, az_01=32, cno_01=50, svid_02=70, elv_02=77.0, az_02=29, cno_02=46, svid_03=71, elv_03=38.0, az_03=214, cno_03=44, svid_04=84, elv_04=36.0, az_04=122, cno_04=42, signalID=1)>
2026-06-07 14:47:19,305 - INFO - <NMEA(GLGSV, numMsg=2, msgNum=2, numSV=6, svid_01=85, elv_01=75.0, az_01=55, cno_01=38, svid_02=86, elv_02=25.0, az_02=323, cno_02=32, signalID=1)>
2026-06-07 14:47:19,306 - INFO - <NMEA(GLGSV, numMsg=2, msgNum=1, numSV=6, svid_01=69, elv_01=24.0, az_01=32, cno_01=39, svid_02=70, elv_02=77.0, az_02=29, cno_02=37, svid_03=71, elv_03=38.0, az_03=214, cno_03=35, svid_04=84, elv_04=36.0, az_04=122, cno_04=40, signalID=3)>
2026-06-07 14:47:19,306 - INFO - <NMEA(GLGSV, numMsg=2, msgNum=2, numSV=6, svid_01=85, elv_01=75.0, az_01=55, cno_01=35, svid_02=86, elv_02=25.0, az_02=323, cno_02=31, signalID=3)>
2026-06-07 14:47:19,307 - INFO - <NMEA(GAGSV, numMsg=3, msgNum=1, numSV=11, svid_01=3, elv_01=54.0, az_01=149, cno_01=42, svid_02=5, elv_02=43.0, az_02=62, cno_02=43, svid_03=8, elv_03=14.0, az_03=192, cno_03=23, svid_04=9, elv_04=2.0, az_04=32, cno_04=37, signalID=2)>
2026-06-07 14:47:19,307 - INFO - <NMEA(GAGSV, numMsg=3, msgNum=2, numSV=11, svid_01=13, elv_01=11.0, az_01=297, cno_01=33, svid_02=15, elv_02=58.0, az_02=327, cno_02=48, svid_03=21, elv_03=8.0, az_03=313, cno_03=21, svid_04=27, elv_04=18.0, az_04=263, cno_04=30, signalID=2)>
2026-06-07 14:47:19,308 - INFO - <NMEA(GAGSV, numMsg=3, msgNum=3, numSV=11, svid_01=30, elv_01=8.0, az_01=216, cno_01=28, svid_02=34, elv_02=54.0, az_02=79, cno_02=49, svid_03=36, elv_03=7.0, az_03=104, cno_03=45, signalID=2)>
2026-06-07 14:47:19,308 - INFO - <NMEA(GAGSV, numMsg=3, msgNum=1, numSV=12, svid_01=3, elv_01=54.0, az_01=149, cno_01=42, svid_02=5, elv_02=43.0, az_02=62, cno_02=47, svid_03=8, elv_03=14.0, az_03=192, cno_03=22, svid_04=9, elv_04=2.0, az_04=32, cno_04=40, signalID=7)>
2026-06-07 14:47:19,309 - INFO - <NMEA(GAGSV, numMsg=3, msgNum=2, numSV=12, svid_01=13, elv_01=11.0, az_01=297, cno_01=21, svid_02=15, elv_02=58.0, az_02=327, cno_02=45, svid_03=21, elv_03=8.0, az_03=313, cno_03=23, svid_04=27, elv_04=18.0, az_04=263, cno_04=28, signalID=7)>
2026-06-07 14:47:19,309 - INFO - <NMEA(GAGSV, numMsg=3, msgNum=3, numSV=12, svid_01=30, elv_01=8.0, az_01=216, cno_01=22, svid_02=32, elv_02=34.0, az_02=178, cno_02=22, svid_03=34, elv_03=54.0, az_03=79, cno_03=46, svid_04=36, elv_04=7.0, az_04=104, cno_04=41, signalID=7)>
2026-06-07 14:47:19,309 - INFO - <NMEA(GBGSV, numMsg=2, msgNum=1, numSV=7, svid_01=13, elv_01=63.0, az_01=146, cno_01=38, svid_02=27, elv_02=38.0, az_02=312, cno_02=42, svid_03=28, elv_03=82.0, az_03=278, cno_03=44, svid_04=33, elv_04=76.0, az_04=41, cno_04=42, signalID=1)>
2026-06-07 14:47:19,310 - INFO - <NMEA(GBGSV, numMsg=2, msgNum=2, numSV=7, svid_01=38, elv_01=36.0, az_01=143, cno_01=41, svid_02=41, elv_02=50.0, az_02=226, cno_02=44, svid_03=42, elv_03=19.0, az_03=45, cno_03=48, signalID=1)>
2026-06-07 14:47:19,310 - INFO - <NMEA(GQGSV, numMsg=1, msgNum=1, numSV=0, signalID=0)>
2026-06-07 14:47:19,310 - INFO - <NMEA(GNGLL, lat=37.9008566667, NS=N, lon=-97.6641948333, EW=W, time=19:47:19.200000, status=A, posMode=D)>
2026-06-07 14:47:19,311 - INFO - <UBX(NAV-RELPOSNED, version=1, reserved0=0, refStationID=0, iTOW=19:47:19.200000, relPosN=16.03, relPosE=57.37, relPosD=5.91, relPosLength=59.86, relPosHeading=74.38816, reserved1=0, accN=10.0, accE=10.0, accD=14.8, accLength=10.1, accHeading=0.96185, reserved2=0, gnssFixOK=1, diffSoln=1, relPosValid=1, carrSoln=2, isMoving=1, refPosMiss=0, refObsMiss=0, relPosHeadingValid=1, relPosNormalized=0)>
2026-06-07 14:47:19,312 - INFO - 2026-06-07 14:47:19, current_target: {'timestamp': '2026-05-10 13:40:05', 'lat': 37.9008713333, 'lon': -97.66418, 'speed': 0.004629996, 'y_offset': 0.0, 'x_offset': 0.0, 'z_offset': 0.0, 'heading': 1.76477}, next_target: {'timestamp': '2026-05-10 13:40:06', 'lat': 37.9008713333, 'lon': -97.66418, 'speed': 0.00514444, 'y_offset': 0.0, 'x_offset': 0.0, 'z_offset': 0.0, 'heading': 1.76299}
2026-06-07 14:47:19,312 - INFO - 2026-06-07 14:47:19 [3.4 OBSERVED] current_turn_radius: 1.59m
