2026-07-18 09:56:34,990 - INFO - Logging initialized to /home/dali/Documents/ReMow-Rover-Tests/Repeat/Logs/readRecordedRun-2026-07-18_09-56-34.log
2026-07-18 09:56:34,991 - INFO - RoboClaw opened successfully on /dev/serial/by-id/usb-Basicmicro_Inc._USB_Roboclaw_2x15A-if00
2026-07-18 09:56:35,294 - INFO - Encoders reset to zero
2026-07-18 09:56:35,294 - INFO - Starting readRecordedRun with combination: 55
2026-07-18 09:56:35,294 - INFO - Selected most recent recording: 55_20260510-134004_GPSData.csv
2026-07-18 09:56:35,299 - INFO - GREEN_LED initialized on GPIO 17
2026-07-18 09:56:35,304 - INFO - ENU origin from first waypoint: 37.9008713333, -97.66418
2026-07-18 09:56:35,378 - INFO - Path model: 42 rows -> 37 points -> 36 segments, 40.7m total, leading dwell 3.0s
2026-07-18 09:56:35,391 - INFO - goto_positions: M1=1100, M2=1100 [Startup - ensuring neutral position]
2026-07-18 09:56:35,391 - INFO - Actuators initialized to neutral (1100)
2026-07-18 09:56:35,391 - INFO - === UNIFIED PATH FOLLOWER INITIALIZED ===
2026-07-18 09:56:35,391 - INFO - First segment: heading 3.8°, length 0.67m; path ends at (2.81E, 0.81N)
2026-07-18 09:56:35,391 - INFO - Initial state: FOLLOWING_PATH (follower mode ACQUIRE)
2026-07-18 09:56:35,391 - INFO - Acquire timeout: 300.0s
2026-07-18 09:56:35,391 - INFO - === WAITING FOR GPS RTK FIX ===
2026-07-18 09:56:35,392 - INFO - Need: relPosValid=1, carrSoln=2, relPosHeadingValid=1 (timeout: 60.0s)
2026-07-18 09:56:35,508 - INFO - GPS status: relPosValid=1, carrSoln=2, headingValid=1 (0.1s)
2026-07-18 09:56:35,508 - INFO - === GPS RTK FIXED — ready to navigate (0.1s) ===
2026-07-18 09:56:35,646 - INFO - <UBX(RXM-RTCM, version=2, crcFailed=0, msgUsed=2, subType=0, refStation=0, msgType=1074)>
2026-07-18 09:56:35,647 - INFO - Using persisted heading from driving to work area: 335.42° (captured at 2026-07-05 15:42:49)
2026-07-18 09:56:35,648 - INFO - <UBX(RXM-RTCM, version=2, crcFailed=0, msgUsed=2, subType=0, refStation=0, msgType=1084)>
2026-07-18 09:56:35,652 - INFO - <UBX(RXM-RTCM, version=2, crcFailed=0, msgUsed=2, subType=0, refStation=0, msgType=1094)>
2026-07-18 09:56:35,653 - INFO - <UBX(RXM-RTCM, version=2, crcFailed=0, msgUsed=2, subType=0, refStation=0, msgType=1124)>
2026-07-18 09:56:35,654 - INFO - <UBX(RXM-RTCM, version=2, crcFailed=0, msgUsed=2, subType=0, refStation=0, msgType=1230)>
2026-07-18 09:56:35,697 - INFO - <UBX(NAV-PVT, iTOW=14:56:35.600000, year=2026, month=7, day=18, hour=14, min=56, second=35, validDate=1, validTime=1, fullyResolved=1, validMag=0, tAcc=1001, nano=599608977, fixType=3, gnssFixOk=1, diffSoln=1, psmState=0, headVehValid=0, carrSoln=2, confirmedAvai=1, confirmedDate=1, confirmedTime=1, numSV=26, lon=-97.6642245, lat=37.9008404, height=409718, hMSL=435971, hAcc=42, vAcc=58, velN=-3, velE=-3, velD=5, gSpeed=4, headMot=0.0, sAcc=77, headAcc=180.0, pDOP=1.13, invalidLlh=0, lastCorrectionAge=1, reserved0=860630572, headVeh=0.0, magDec=0.0, magAcc=0.0)>
2026-07-18 09:56:35,697 - INFO - <NMEA(GNRMC, time=14:56:35.600000, status=A, lat=37.9008403333, NS=N, lon=-97.6642245, EW=W, spd=0.008, cog=, date=2026-07-18, mv=, mvEW=, posMode=R, navStatus=V)>
2026-07-18 09:56:35,698 - INFO - <NMEA(GNVTG, cogt=, cogtUnit=T, cogm=, cogmUnit=M, sogn=0.008, sognUnit=N, sogk=0.014, sogkUnit=K, posMode=D)>
2026-07-18 09:56:35,698 - INFO - <NMEA(GNGGA, time=14:56:35.600000, lat=37.9008403333, NS=N, lon=-97.6642245, EW=W, quality=4, numSV=12, HDOP=0.59, alt=436.0, altUnit=M, sep=-26.3, sepUnit=M, diffAge=0.2, diffStation=0)>
2026-07-18 09:56:35,699 - INFO - <NMEA(GNGSA, opMode=M, navMode=3, svid_01=29, svid_02=11, svid_03=21, svid_04=23, svid_05=20, svid_06=5, svid_07=15, svid_08=18, svid_09=, svid_10=, svid_11=, svid_12=, PDOP=1.13, HDOP=0.59, VDOP=0.97, systemId=1)>
2026-07-18 09:56:35,699 - INFO - <NMEA(GNGSA, opMode=M, navMode=3, svid_01=71, svid_02=70, svid_03=76, svid_04=85, svid_05=84, svid_06=75, svid_07=69, svid_08=, svid_09=, svid_10=, svid_11=, svid_12=, PDOP=1.13, HDOP=0.59, VDOP=0.97, systemId=2)>
2026-07-18 09:56:35,700 - INFO - <NMEA(GNGSA, opMode=M, navMode=3, svid_01=10, svid_02=19, svid_03=16, svid_04=11, svid_05=25, svid_06=28, svid_07=, svid_08=, svid_09=, svid_10=, svid_11=, svid_12=, PDOP=1.13, HDOP=0.59, VDOP=0.97, systemId=3)>
2026-07-18 09:56:35,700 - INFO - <NMEA(GNGSA, opMode=M, navMode=3, svid_01=38, svid_02=13, svid_03=27, svid_04=33, svid_05=28, svid_06=, svid_07=, svid_08=, svid_09=, svid_10=, svid_11=, svid_12=, PDOP=1.13, HDOP=0.59, VDOP=0.97, systemId=4)>
2026-07-18 09:56:35,701 - INFO - <NMEA(GNGSA, opMode=M, navMode=3, svid_01=, svid_02=, svid_03=, svid_04=, svid_05=, svid_06=, svid_07=, svid_08=, svid_09=, svid_10=, svid_11=, svid_12=, PDOP=1.13, HDOP=0.59, VDOP=0.97, systemId=5)>
2026-07-18 09:56:35,701 - INFO - <NMEA(GPGSV, numMsg=3, msgNum=1, numSV=10, svid_01=5, elv_01=73.0, az_01=35, cno_01=44, svid_02=11, elv_02=20.0, az_02=80, cno_02=39, svid_03=15, elv_03=31.0, az_03=167, cno_03=28, svid_04=18, elv_04=28.0, az_04=288, cno_04=34, signalID=1)>
2026-07-18 09:56:35,702 - INFO - <NMEA(GPGSV, numMsg=3, msgNum=2, numSV=10, svid_01=20, elv_01=39.0, az_01=127, cno_01=43, svid_02=21, elv_02=36.0, az_02=46, cno_02=49, svid_03=23, elv_03=10.0, az_03=228, cno_03=36, svid_04=29, elv_04=69.0, az_04=310, cno_04=47, signalID=1)>
2026-07-18 09:56:35,702 - INFO - <NMEA(GPGSV, numMsg=3, msgNum=3, numSV=10, svid_01=44, elv_01=42.0, az_01=210, cno_01=43, svid_02=48, elv_02=38.0, az_02=220, cno_02=39, signalID=1)>
2026-07-18 09:56:35,702 - INFO - <NMEA(GPGSV, numMsg=2, msgNum=1, numSV=8, svid_01=5, elv_01=73.0, az_01=35, cno_01=40, svid_02=11, elv_02=20.0, az_02=80, cno_02=40, svid_03=15, elv_03=31.0, az_03=167, cno_03=27, svid_04=18, elv_04=28.0, az_04=288, cno_04=30, signalID=6)>
2026-07-18 09:56:35,703 - INFO - <NMEA(GPGSV, numMsg=2, msgNum=2, numSV=8, svid_01=20, elv_01=39.0, az_01=127, cno_01=33, svid_02=21, elv_02=36.0, az_02=46, cno_02=41, svid_03=23, elv_03=10.0, az_03=228, cno_03=26, svid_04=29, elv_04=69.0, az_04=310, cno_04=41, signalID=6)>
2026-07-18 09:56:35,703 - INFO - <NMEA(GLGSV, numMsg=3, msgNum=1, numSV=9, svid_01=69, elv_01=32.0, az_01=37, cno_01=49, svid_02=70, elv_02=61.0, az_02=108, cno_02=50, svid_03=71, elv_03=22.0, az_03=179, cno_03=41, svid_04=75, elv_04=15.0, az_04=242, cno_04=30, signalID=1)>
2026-07-18 09:56:35,703 - INFO - <UBX(RXM-RTCM, version=2, crcFailed=0, msgUsed=2, subType=0, refStation=0, msgType=4072)>
2026-07-18 09:56:35,704 - INFO - <NMEA(GLGSV, numMsg=3, msgNum=2, numSV=9, svid_01=76, elv_01=20.0, az_01=297, cno_01=41, svid_02=77, elv_02=4.0, az_02=340, cno_02=15, svid_03=84, elv_03=30.0, az_03=84, cno_03=48, svid_04=85, elv_04=58.0, az_04=27, cno_04=47, signalID=1)>
2026-07-18 09:56:35,704 - INFO - <NMEA(GLGSV, numMsg=3, msgNum=3, numSV=9, svid_01=86, elv_01=, az_01=, cno_01=21, signalID=1)>
2026-07-18 09:56:35,705 - INFO - <NMEA(GLGSV, numMsg=2, msgNum=1, numSV=7, svid_01=69, elv_01=32.0, az_01=37, cno_01=40, svid_02=70, elv_02=61.0, az_02=108, cno_02=38, svid_03=71, elv_03=22.0, az_03=179, cno_03=35, svid_04=75, elv_04=15.0, az_04=242, cno_04=23, signalID=3)>
2026-07-18 09:56:35,705 - INFO - <NMEA(GLGSV, numMsg=2, msgNum=2, numSV=7, svid_01=76, elv_01=20.0, az_01=297, cno_01=33, svid_02=84, elv_02=30.0, az_02=84, cno_02=43, svid_03=85, elv_03=58.0, az_03=27, cno_03=40, signalID=3)>
2026-07-18 09:56:35,705 - INFO - <NMEA(GAGSV, numMsg=2, msgNum=1, numSV=8, svid_01=10, elv_01=66.0, az_01=358, cno_01=45, svid_02=11, elv_02=53.0, az_02=300, cno_02=43, svid_03=14, elv_03=78.0, az_03=183, cno_03=42, svid_04=16, elv_04=36.0, az_04=212, cno_04=25, signalID=2)>
2026-07-18 09:56:35,706 - INFO - <NMEA(GAGSV, numMsg=2, msgNum=2, numSV=8, svid_01=19, elv_01=29.0, az_01=82, cno_01=40, svid_02=25, elv_02=41.0, az_02=277, cno_02=42, svid_03=28, elv_03=29.0, az_03=116, cno_03=45, svid_04=29, elv_04=8.0, az_04=37, cno_04=42, signalID=2)>
2026-07-18 09:56:35,706 - INFO - <NMEA(GAGSV, numMsg=3, msgNum=1, numSV=9, svid_01=10, elv_01=66.0, az_01=358, cno_01=47, svid_02=11, elv_02=53.0, az_02=300, cno_02=42, svid_03=14, elv_03=78.0, az_03=183, cno_03=48, svid_04=16, elv_04=36.0, az_04=212, cno_04=29, signalID=7)>
2026-07-18 09:56:35,707 - INFO - <NMEA(GAGSV, numMsg=3, msgNum=2, numSV=9, svid_01=19, elv_01=29.0, az_01=82, cno_01=40, svid_02=25, elv_02=41.0, az_02=277, cno_02=41, svid_03=28, elv_03=29.0, az_03=116, cno_03=38, svid_04=29, elv_04=8.0, az_04=37, cno_04=36, signalID=7)>
2026-07-18 09:56:35,707 - INFO - <NMEA(GAGSV, numMsg=3, msgNum=3, numSV=9, svid_01=33, elv_01=, az_01=, cno_01=40, signalID=7)>
2026-07-18 09:56:35,708 - INFO - <NMEA(GBGSV, numMsg=2, msgNum=1, numSV=7, svid_01=13, elv_01=46.0, az_01=100, cno_01=44, svid_02=27, elv_02=51.0, az_02=315, cno_02=46, svid_03=28, elv_03=72.0, az_03=64, cno_03=44, svid_04=33, elv_04=56.0, az_04=72, cno_04=47, signalID=1)>
2026-07-18 09:56:35,708 - INFO - <NMEA(GBGSV, numMsg=2, msgNum=2, numSV=7, svid_01=38, elv_01=22.0, az_01=111, cno_01=42, svid_02=42, elv_02=10.0, az_02=36, cno_02=46, svid_03=58, elv_03=, az_03=, cno_03=44, signalID=1)>
2026-07-18 09:56:35,708 - INFO - <NMEA(GQGSV, numMsg=1, msgNum=1, numSV=0, signalID=0)>
2026-07-18 09:56:35,709 - INFO - <NMEA(GNGLL, lat=37.9008403333, NS=N, lon=-97.6642245, EW=W, time=14:56:35.600000, status=A, posMode=D)>
2026-07-18 09:56:35,709 - INFO - <UBX(NAV-RELPOSNED, version=1, reserved0=0, refStationID=0, iTOW=14:56:35.600000, relPosN=24.8, relPosE=60.9, relPosD=-15.12, relPosLength=67.47, relPosHeading=67.84113, reserved1=0, accN=10.0, accE=10.0, accD=10.0, accLength=10.0, accHeading=0.87131, reserved2=0, gnssFixOK=1, diffSoln=1, relPosValid=1, carrSoln=2, isMoving=1, refPosMiss=0, refObsMiss=0, relPosHeadingValid=1, relPosNormalized=0)>
2026-07-18 09:56:35,710 - INFO - 2026-07-18 09:56:35 Initial Moving Baseline state: active
2026-07-18 09:56:35,710 - INFO - 2026-07-18 09:56:35 Initial carrier solution: fixed
2026-07-18 09:56:35,846 - INFO - <UBX(RXM-RTCM, version=2, crcFailed=0, msgUsed=2, subType=0, refStation=0, msgType=1074)>
2026-07-18 09:56:35,846 - INFO - 2026-07-18 09:56:35 [3.4 OBSERVED] current_turn_radius: infm
2026-07-18 09:56:35,846 - INFO - 2026-07-18 09:56:35 [3.4 OBSERVED] turn_direction: STRAIGHT
2026-07-18 09:56:35,846 - INFO - 2026-07-18 09:56:35 [3.4 OBSERVED] estimated left/right wheel speeds: 0.004, 0.004 m/s
2026-07-18 09:56:35,848 - INFO - 2026-07-18 09:56:35 [STATE] Current state: FOLLOWING_PATH
2026-07-18 09:56:35,848 - INFO - 2026-07-18 09:56:35 [FOLLOW] ACQUIRE: progress=0.00m/40.7m seg=0 cross=5.21m alpha=-31.1° target=(0.14,1.99) R=3.28 LEFT v=1.07 dwell=0.0s
2026-07-18 09:56:35,848 - INFO - 2026-07-18 09:56:35 Turn: LEFT, R: 3.28m, v_L: 0.96 m/s, v_R: 1.18 m/s
2026-07-18 09:56:35,849 - INFO - 2026-07-18 09:56:35 left_actuator_position: 622 (counts) from v_L 0.956 m/s
2026-07-18 09:56:35,849 - INFO - 2026-07-18 09:56:35 right_actuator_position: 508 (counts) from v_R 1.184 m/s
2026-07-18 09:56:35,862 - INFO - Sent actuator positions to RoboClaw → M1 (left): 622, M2 (right): 508 (counts)
2026-07-18 09:56:35,862 - INFO - 2026-07-18 09:56:35 APPLY → left_pos: 622, right_pos: 508 (counts), v_L: 0.96 m/s, v_R: 1.18 m/s
2026-07-18 09:56:35,862 - INFO - 2026-07-18 09:56:35 Path tracking needs correction: heading_ok=False (alpha=31.1deg), distance_ok=False (cross=5.211m)
2026-07-18 09:56:35,862 - INFO - <UBX(RXM-RTCM, version=2, crcFailed=0, msgUsed=2, subType=0, refStation=0, msgType=1084)>
2026-07-18 09:56:35,863 - INFO - <UBX(RXM-RTCM, version=2, crcFailed=0, msgUsed=2, subType=0, refStation=0, msgType=1094)>
2026-07-18 09:56:35,863 - INFO - <UBX(RXM-RTCM, version=2, crcFailed=0, msgUsed=2, subType=0, refStation=0, msgType=1124)>
2026-07-18 09:56:35,863 - INFO - <UBX(RXM-RTCM, version=2, crcFailed=0, msgUsed=2, subType=0, refStation=0, msgType=1230)>
2026-07-18 09:56:35,888 - INFO - <UBX(NAV-PVT, iTOW=14:56:35.800000, year=2026, month=7, day=18, hour=14, min=56, second=35, validDate=1, validTime=1, fullyResolved=1, validMag=0, tAcc=1001, nano=799608930, fixType=3, gnssFixOk=1, diffSoln=1, psmState=0, headVehValid=0, carrSoln=2, confirmedAvai=1, confirmedDate=1, confirmedTime=1, numSV=26, lon=-97.6642246, lat=37.9008404, height=409705, hMSL=435957, hAcc=42, vAcc=58, velN=9, velE=1, velD=5, gSpeed=9, headMot=0.0, sAcc=80, headAcc=180.0, pDOP=1.13, invalidLlh=0, lastCorrectionAge=1, reserved0=860630572, headVeh=0.0, magDec=0.0, magAcc=0.0)>
2026-07-18 09:56:35,888 - INFO - <NMEA(GNRMC, time=14:56:35.800000, status=A, lat=37.9008403333, NS=N, lon=-97.6642246667, EW=W, spd=0.018, cog=, date=2026-07-18, mv=, mvEW=, posMode=R, navStatus=V)>
2026-07-18 09:56:35,889 - INFO - <NMEA(GNVTG, cogt=, cogtUnit=T, cogm=, cogmUnit=M, sogn=0.018, sognUnit=N, sogk=0.033, sogkUnit=K, posMode=D)>
2026-07-18 09:56:35,889 - INFO - <NMEA(GNGGA, time=14:56:35.800000, lat=37.9008403333, NS=N, lon=-97.6642246667, EW=W, quality=4, numSV=12, HDOP=0.59, alt=436.0, altUnit=M, sep=-26.3, sepUnit=M, diffAge=0.2, diffStation=0)>
2026-07-18 09:56:35,890 - INFO - <NMEA(GNGSA, opMode=M, navMode=3, svid_01=29, svid_02=11, svid_03=21, svid_04=23, svid_05=20, svid_06=5, svid_07=15, svid_08=18, svid_09=, svid_10=, svid_11=, svid_12=, PDOP=1.13, HDOP=0.59, VDOP=0.97, systemId=1)>
2026-07-18 09:56:35,890 - INFO - <NMEA(GNGSA, opMode=M, navMode=3, svid_01=71, svid_02=70, svid_03=76, svid_04=85, svid_05=84, svid_06=75, svid_07=69, svid_08=, svid_09=, svid_10=, svid_11=, svid_12=, PDOP=1.13, HDOP=0.59, VDOP=0.97, systemId=2)>
2026-07-18 09:56:35,891 - INFO - <NMEA(GNGSA, opMode=M, navMode=3, svid_01=10, svid_02=19, svid_03=16, svid_04=11, svid_05=25, svid_06=28, svid_07=, svid_08=, svid_09=, svid_10=, svid_11=, svid_12=, PDOP=1.13, HDOP=0.59, VDOP=0.97, systemId=3)>
2026-07-18 09:56:35,891 - INFO - <NMEA(GNGSA, opMode=M, navMode=3, svid_01=38, svid_02=13, svid_03=27, svid_04=33, svid_05=28, svid_06=, svid_07=, svid_08=, svid_09=, svid_10=, svid_11=, svid_12=, PDOP=1.13, HDOP=0.59, VDOP=0.97, systemId=4)>
2026-07-18 09:56:35,892 - INFO - <NMEA(GNGSA, opMode=M, navMode=3, svid_01=, svid_02=, svid_03=, svid_04=, svid_05=, svid_06=, svid_07=, svid_08=, svid_09=, svid_10=, svid_11=, svid_12=, PDOP=1.13, HDOP=0.59, VDOP=0.97, systemId=5)>
2026-07-18 09:56:35,892 - INFO - <NMEA(GPGSV, numMsg=3, msgNum=1, numSV=10, svid_01=5, elv_01=73.0, az_01=35, cno_01=44, svid_02=11, elv_02=20.0, az_02=80, cno_02=39, svid_03=15, elv_03=31.0, az_03=167, cno_03=28, svid_04=18, elv_04=28.0, az_04=288, cno_04=34, signalID=1)>
2026-07-18 09:56:35,893 - INFO - <NMEA(GPGSV, numMsg=3, msgNum=2, numSV=10, svid_01=20, elv_01=39.0, az_01=127, cno_01=43, svid_02=21, elv_02=36.0, az_02=46, cno_02=49, svid_03=23, elv_03=10.0, az_03=228, cno_03=35, svid_04=29, elv_04=69.0, az_04=310, cno_04=47, signalID=1)>
2026-07-18 09:56:35,893 - INFO - <NMEA(GPGSV, numMsg=3, msgNum=3, numSV=10, svid_01=44, elv_01=42.0, az_01=210, cno_01=43, svid_02=48, elv_02=38.0, az_02=220, cno_02=39, signalID=1)>
2026-07-18 09:56:35,893 - INFO - <NMEA(GPGSV, numMsg=2, msgNum=1, numSV=8, svid_01=5, elv_01=73.0, az_01=35, cno_01=40, svid_02=11, elv_02=20.0, az_02=80, cno_02=40, svid_03=15, elv_03=31.0, az_03=167, cno_03=27, svid_04=18, elv_04=28.0, az_04=288, cno_04=30, signalID=6)>
2026-07-18 09:56:35,894 - INFO - <NMEA(GPGSV, numMsg=2, msgNum=2, numSV=8, svid_01=20, elv_01=39.0, az_01=127, cno_01=32, svid_02=21, elv_02=36.0, az_02=46, cno_02=41, svid_03=23, elv_03=10.0, az_03=228, cno_03=26, svid_04=29, elv_04=69.0, az_04=310, cno_04=41, signalID=6)>
2026-07-18 09:56:35,894 - INFO - <NMEA(GLGSV, numMsg=3, msgNum=1, numSV=9, svid_01=69, elv_01=32.0, az_01=37, cno_01=49, svid_02=70, elv_02=61.0, az_02=108, cno_02=50, svid_03=71, elv_03=22.0, az_03=179, cno_03=40, svid_04=75, elv_04=15.0, az_04=242, cno_04=30, signalID=1)>
2026-07-18 09:56:35,895 - INFO - <NMEA(GLGSV, numMsg=3, msgNum=2, numSV=9, svid_01=76, elv_01=20.0, az_01=297, cno_01=40, svid_02=77, elv_02=4.0, az_02=340, cno_02=15, svid_03=84, elv_03=30.0, az_03=84, cno_03=48, svid_04=85, elv_04=58.0, az_04=27, cno_04=47, signalID=1)>
2026-07-18 09:56:35,895 - INFO - <NMEA(GLGSV, numMsg=3, msgNum=3, numSV=9, svid_01=86, elv_01=, az_01=, cno_01=21, signalID=1)>
2026-07-18 09:56:35,896 - INFO - <NMEA(GLGSV, numMsg=2, msgNum=1, numSV=7, svid_01=69, elv_01=32.0, az_01=37, cno_01=40, svid_02=70, elv_02=61.0, az_02=108, cno_02=38, svid_03=71, elv_03=22.0, az_03=179, cno_03=35, svid_04=75, elv_04=15.0, az_04=242, cno_04=23, signalID=3)>
2026-07-18 09:56:35,896 - INFO - <NMEA(GLGSV, numMsg=2, msgNum=2, numSV=7, svid_01=76, elv_01=20.0, az_01=297, cno_01=33, svid_02=84, elv_02=30.0, az_02=84, cno_02=43, svid_03=85, elv_03=58.0, az_03=27, cno_03=39, signalID=3)>
2026-07-18 09:56:35,896 - INFO - <NMEA(GAGSV, numMsg=2, msgNum=1, numSV=8, svid_01=10, elv_01=66.0, az_01=358, cno_01=45, svid_02=11, elv_02=53.0, az_02=300, cno_02=43, svid_03=14, elv_03=78.0, az_03=183, cno_03=42, svid_04=16, elv_04=36.0, az_04=212, cno_04=25, signalID=2)>
2026-07-18 09:56:35,897 - INFO - <NMEA(GAGSV, numMsg=2, msgNum=2, numSV=8, svid_01=19, elv_01=29.0, az_01=82, cno_01=40, svid_02=25, elv_02=41.0, az_02=277, cno_02=42, svid_03=28, elv_03=29.0, az_03=116, cno_03=45, svid_04=29, elv_04=8.0, az_04=37, cno_04=42, signalID=2)>
2026-07-18 09:56:35,897 - INFO - <NMEA(GAGSV, numMsg=3, msgNum=1, numSV=9, svid_01=10, elv_01=66.0, az_01=358, cno_01=47, svid_02=11, elv_02=53.0, az_02=300, cno_02=42, svid_03=14, elv_03=78.0, az_03=183, cno_03=47, svid_04=16, elv_04=36.0, az_04=212, cno_04=30, signalID=7)>
2026-07-18 09:56:35,898 - INFO - <NMEA(GAGSV, numMsg=3, msgNum=2, numSV=9, svid_01=19, elv_01=29.0, az_01=82, cno_01=40, svid_02=25, elv_02=41.0, az_02=277, cno_02=41, svid_03=28, elv_03=29.0, az_03=116, cno_03=38, svid_04=29, elv_04=8.0, az_04=37, cno_04=36, signalID=7)>
2026-07-18 09:56:35,898 - INFO - <NMEA(GAGSV, numMsg=3, msgNum=3, numSV=9, svid_01=33, elv_01=, az_01=, cno_01=40, signalID=7)>
2026-07-18 09:56:35,898 - INFO - <NMEA(GBGSV, numMsg=2, msgNum=1, numSV=8, svid_01=13, elv_01=46.0, az_01=100, cno_01=44, svid_02=27, elv_02=51.0, az_02=315, cno_02=46, svid_03=28, elv_03=72.0, az_03=64, cno_03=44, svid_04=33, elv_04=56.0, az_04=72, cno_04=47, signalID=1)>
2026-07-18 09:56:35,899 - INFO - <NMEA(GBGSV, numMsg=2, msgNum=2, numSV=8, svid_01=38, elv_01=22.0, az_01=111, cno_01=42, svid_02=41, elv_02=, az_02=, cno_02=36, svid_03=42, elv_03=10.0, az_03=36, cno_03=46, svid_04=58, elv_04=, az_04=, cno_04=43, signalID=1)>
2026-07-18 09:56:35,899 - INFO - <NMEA(GQGSV, numMsg=1, msgNum=1, numSV=0, signalID=0)>
2026-07-18 09:56:35,899 - INFO - <NMEA(GNGLL, lat=37.9008403333, NS=N, lon=-97.6642246667, EW=W, time=14:56:35.800000, status=A, posMode=D)>
2026-07-18 09:56:35,900 - INFO - <UBX(NAV-RELPOSNED, version=1, reserved0=0, refStationID=0, iTOW=14:56:35.800000, relPosN=24.47, relPosE=60.56, relPosD=-15.35, relPosLength=67.09, relPosHeading=67.99476, reserved1=0, accN=10.0, accE=10.0, accD=10.0, accLength=10.0, accHeading=0.87721, reserved2=0, gnssFixOK=1, diffSoln=1, relPosValid=1, carrSoln=2, isMoving=1, refPosMiss=0, refObsMiss=0, relPosHeadingValid=1, relPosNormalized=0)>
2026-07-18 09:56:35,901 - INFO - 2026-07-18 09:56:35 [3.4 OBSERVED] current_turn_radius: infm
2026-07-18 09:56:35,901 - INFO - 2026-07-18 09:56:35 [3.4 OBSERVED] turn_direction: RIGHT
2026-07-18 09:56:35,901 - INFO - 2026-07-18 09:56:35 [3.4 OBSERVED] estimated left/right wheel speeds: nan, nan m/s
2026-07-18 09:56:35,902 - INFO - 2026-07-18 09:56:35 [STATE] Current state: FOLLOWING_PATH
2026-07-18 09:56:35,902 - INFO - 2026-07-18 09:56:35 [FOLLOW] ACQUIRE: progress=0.00m/40.7m seg=0 cross=5.22m alpha=-31.2° target=(0.14,1.99) R=3.28 LEFT v=1.07 dwell=0.0s
2026-07-18 09:56:35,903 - INFO - 2026-07-18 09:56:35 Turn: LEFT, R: 3.28m, v_L: 0.96 m/s, v_R: 1.18 m/s
2026-07-18 09:56:35,903 - INFO - 2026-07-18 09:56:35 left_actuator_position: 622 (counts) from v_L 0.956 m/s
2026-07-18 09:56:35,903 - INFO - 2026-07-18 09:56:35 right_actuator_position: 508 (counts) from v_R 1.184 m/s
2026-07-18 09:56:35,915 - INFO - Sent actuator positions to RoboClaw → M1 (left): 622, M2 (right): 508 (counts)
2026-07-18 09:56:35,915 - INFO - 2026-07-18 09:56:35 APPLY → left_pos: 622, right_pos: 508 (counts), v_L: 0.96 m/s, v_R: 1.18 m/s
2026-07-18 09:56:35,916 - INFO - 2026-07-18 09:56:35 Path tracking needs correction: heading_ok=False (alpha=31.2deg), distance_ok=False (cross=5.222m)
2026-07-18 09:56:35,916 - INFO - <UBX(RXM-RTCM, version=2, crcFailed=0, msgUsed=2, subType=0, refStation=0, msgType=4072)>
2026-07-18 09:56:36,046 - INFO - <UBX(RXM-RTCM, version=2, crcFailed=0, msgUsed=2, subType=0, refStation=0, msgType=1074)>
2026-07-18 09:56:36,051 - INFO - <UBX(RXM-RTCM, version=2, crcFailed=0, msgUsed=2, subType=0, refStation=0, msgType=1084)>
2026-07-18 09:56:36,052 - INFO - <UBX(RXM-RTCM, version=2, crcFailed=0, msgUsed=2, subType=0, refStation=0, msgType=1094)>
2026-07-18 09:56:36,053 - INFO - <UBX(RXM-RTCM, version=2, crcFailed=0, msgUsed=2, subType=0, refStation=0, msgType=1124)>
2026-07-18 09:56:36,054 - INFO - <UBX(RXM-RTCM, version=2, crcFailed=0, msgUsed=2, subType=0, refStation=0, msgType=1230)>
2026-07-18 09:56:36,118 - INFO - <UBX(RXM-RTCM, version=2, crcFailed=0, msgUsed=2, subType=0, refStation=0, msgType=4072)>
2026-07-18 09:56:36,118 - INFO - <UBX(NAV-PVT, iTOW=14:56:36, year=2026, month=7, day=18, hour=14, min=56, second=36, validDate=1, validTime=1, fullyResolved=1, validMag=0, tAcc=1001, nano=-391116, fixType=3, gnssFixOk=1, diffSoln=1, psmState=0, headVehValid=0, carrSoln=2, confirmedAvai=1, confirmedDate=1, confirmedTime=1, numSV=26, lon=-97.6642246, lat=37.9008404, height=409705, hMSL=435958, hAcc=42, vAcc=58, velN=0, velE=0, velD=8, gSpeed=0, headMot=0.0, sAcc=80, headAcc=180.0, pDOP=1.13, invalidLlh=0, lastCorrectionAge=1, reserved0=860630572, headVeh=0.0, magDec=0.0, magAcc=0.0)>
2026-07-18 09:56:36,119 - INFO - <NMEA(GNRMC, time=14:56:36, status=A, lat=37.9008403333, NS=N, lon=-97.6642245, EW=W, spd=0.001, cog=, date=2026-07-18, mv=, mvEW=, posMode=R, navStatus=V)>
2026-07-18 09:56:36,119 - INFO - <NMEA(GNVTG, cogt=, cogtUnit=T, cogm=, cogmUnit=M, sogn=0.001, sognUnit=N, sogk=0.001, sogkUnit=K, posMode=D)>
2026-07-18 09:56:36,119 - INFO - <NMEA(GNGGA, time=14:56:36, lat=37.9008403333, NS=N, lon=-97.6642245, EW=W, quality=4, numSV=12, HDOP=0.59, alt=436.0, altUnit=M, sep=-26.3, sepUnit=M, diffAge=0.2, diffStation=0)>
2026-07-18 09:56:36,120 - INFO - <NMEA(GNGSA, opMode=M, navMode=3, svid_01=29, svid_02=11, svid_03=21, svid_04=23, svid_05=20, svid_06=5, svid_07=15, svid_08=18, svid_09=, svid_10=, svid_11=, svid_12=, PDOP=1.13, HDOP=0.59, VDOP=0.97, systemId=1)>
2026-07-18 09:56:36,120 - INFO - <NMEA(GNGSA, opMode=M, navMode=3, svid_01=71, svid_02=70, svid_03=76, svid_04=85, svid_05=84, svid_06=75, svid_07=69, svid_08=, svid_09=, svid_10=, svid_11=, svid_12=, PDOP=1.13, HDOP=0.59, VDOP=0.97, systemId=2)>
2026-07-18 09:56:36,121 - INFO - <NMEA(GNGSA, opMode=M, navMode=3, svid_01=10, svid_02=19, svid_03=16, svid_04=11, svid_05=25, svid_06=28, svid_07=, svid_08=, svid_09=, svid_10=, svid_11=, svid_12=, PDOP=1.13, HDOP=0.59, VDOP=0.97, systemId=3)>
2026-07-18 09:56:36,121 - INFO - <NMEA(GNGSA, opMode=M, navMode=3, svid_01=38, svid_02=13, svid_03=27, svid_04=33, svid_05=28, svid_06=, svid_07=, svid_08=, svid_09=, svid_10=, svid_11=, svid_12=, PDOP=1.13, HDOP=0.59, VDOP=0.97, systemId=4)>
2026-07-18 09:56:36,122 - INFO - <NMEA(GNGSA, opMode=M, navMode=3, svid_01=, svid_02=, svid_03=, svid_04=, svid_05=, svid_06=, svid_07=, svid_08=, svid_09=, svid_10=, svid_11=, svid_12=, PDOP=1.13, HDOP=0.59, VDOP=0.97, systemId=5)>
2026-07-18 09:56:36,122 - INFO - <NMEA(GPGSV, numMsg=3, msgNum=1, numSV=10, svid_01=5, elv_01=73.0, az_01=35, cno_01=44, svid_02=11, elv_02=20.0, az_02=80, cno_02=39, svid_03=15, elv_03=31.0, az_03=167, cno_03=28, svid_04=18, elv_04=28.0, az_04=288, cno_04=34, signalID=1)>
2026-07-18 09:56:36,123 - INFO - <NMEA(GPGSV, numMsg=3, msgNum=2, numSV=10, svid_01=20, elv_01=39.0, az_01=127, cno_01=43, svid_02=21, elv_02=36.0, az_02=46, cno_02=49, svid_03=23, elv_03=10.0, az_03=228, cno_03=35, svid_04=29, elv_04=69.0, az_04=310, cno_04=47, signalID=1)>
2026-07-18 09:56:36,123 - INFO - <NMEA(GPGSV, numMsg=3, msgNum=3, numSV=10, svid_01=44, elv_01=42.0, az_01=210, cno_01=43, svid_02=48, elv_02=38.0, az_02=220, cno_02=39, signalID=1)>
2026-07-18 09:56:36,123 - INFO - <NMEA(GPGSV, numMsg=2, msgNum=1, numSV=8, svid_01=5, elv_01=73.0, az_01=35, cno_01=40, svid_02=11, elv_02=20.0, az_02=80, cno_02=40, svid_03=15, elv_03=31.0, az_03=167, cno_03=27, svid_04=18, elv_04=28.0, az_04=288, cno_04=30, signalID=6)>
2026-07-18 09:56:36,124 - INFO - <NMEA(GPGSV, numMsg=2, msgNum=2, numSV=8, svid_01=20, elv_01=39.0, az_01=127, cno_01=32, svid_02=21, elv_02=36.0, az_02=46, cno_02=41, svid_03=23, elv_03=10.0, az_03=228, cno_03=26, svid_04=29, elv_04=69.0, az_04=310, cno_04=41, signalID=6)>
2026-07-18 09:56:36,124 - INFO - <NMEA(GLGSV, numMsg=3, msgNum=1, numSV=9, svid_01=69, elv_01=32.0, az_01=37, cno_01=48, svid_02=70, elv_02=61.0, az_02=108, cno_02=50, svid_03=71, elv_03=22.0, az_03=179, cno_03=40, svid_04=75, elv_04=15.0, az_04=242, cno_04=30, signalID=1)>
2026-07-18 09:56:36,125 - INFO - <NMEA(GLGSV, numMsg=3, msgNum=2, numSV=9, svid_01=76, elv_01=20.0, az_01=297, cno_01=40, svid_02=77, elv_02=4.0, az_02=340, cno_02=14, svid_03=84, elv_03=30.0, az_03=84, cno_03=47, svid_04=85, elv_04=58.0, az_04=27, cno_04=46, signalID=1)>
2026-07-18 09:56:36,125 - INFO - <NMEA(GLGSV, numMsg=3, msgNum=3, numSV=9, svid_01=86, elv_01=, az_01=, cno_01=19, signalID=1)>
2026-07-18 09:56:36,126 - INFO - <NMEA(GLGSV, numMsg=2, msgNum=1, numSV=7, svid_01=69, elv_01=32.0, az_01=37, cno_01=40, svid_02=70, elv_02=61.0, az_02=108, cno_02=38, svid_03=71, elv_03=22.0, az_03=179, cno_03=35, svid_04=75, elv_04=15.0, az_04=242, cno_04=22, signalID=3)>
2026-07-18 09:56:36,126 - INFO - <NMEA(GLGSV, numMsg=2, msgNum=2, numSV=7, svid_01=76, elv_01=20.0, az_01=297, cno_01=33, svid_02=84, elv_02=30.0, az_02=84, cno_02=43, svid_03=85, elv_03=58.0, az_03=27, cno_03=39, signalID=3)>
2026-07-18 09:56:36,127 - INFO - <NMEA(GAGSV, numMsg=2, msgNum=1, numSV=8, svid_01=10, elv_01=66.0, az_01=358, cno_01=44, svid_02=11, elv_02=53.0, az_02=300, cno_02=43, svid_03=14, elv_03=78.0, az_03=183, cno_03=42, svid_04=16, elv_04=36.0, az_04=212, cno_04=25, signalID=2)>
2026-07-18 09:56:36,127 - INFO - <NMEA(GAGSV, numMsg=2, msgNum=2, numSV=8, svid_01=19, elv_01=29.0, az_01=82, cno_01=40, svid_02=25, elv_02=41.0, az_02=277, cno_02=43, svid_03=28, elv_03=29.0, az_03=116, cno_03=45, svid_04=29, elv_04=8.0, az_04=37, cno_04=42, signalID=2)>
2026-07-18 09:56:36,128 - INFO - <NMEA(GAGSV, numMsg=3, msgNum=1, numSV=9, svid_01=10, elv_01=66.0, az_01=358, cno_01=47, svid_02=11, elv_02=53.0, az_02=300, cno_02=42, svid_03=14, elv_03=78.0, az_03=183, cno_03=47, svid_04=16, elv_04=36.0, az_04=212, cno_04=30, signalID=7)>
2026-07-18 09:56:36,128 - INFO - <NMEA(GAGSV, numMsg=3, msgNum=2, numSV=9, svid_01=19, elv_01=29.0, az_01=82, cno_01=40, svid_02=25, elv_02=41.0, az_02=277, cno_02=41, svid_03=28, elv_03=29.0, az_03=116, cno_03=38, svid_04=29, elv_04=8.0, az_04=37, cno_04=36, signalID=7)>
2026-07-18 09:56:36,128 - INFO - <NMEA(GAGSV, numMsg=3, msgNum=3, numSV=9, svid_01=33, elv_01=, az_01=, cno_01=40, signalID=7)>
2026-07-18 09:56:36,129 - INFO - <NMEA(GBGSV, numMsg=2, msgNum=1, numSV=8, svid_01=13, elv_01=46.0, az_01=100, cno_01=44, svid_02=27, elv_02=51.0, az_02=315, cno_02=46, svid_03=28, elv_03=72.0, az_03=64, cno_03=43, svid_04=33, elv_04=56.0, az_04=72, cno_04=47, signalID=1)>
2026-07-18 09:56:36,129 - INFO - <NMEA(GBGSV, numMsg=2, msgNum=2, numSV=8, svid_01=38, elv_01=22.0, az_01=111, cno_01=42, svid_02=41, elv_02=, az_02=, cno_02=36, svid_03=42, elv_03=10.0, az_03=36, cno_03=46, svid_04=58, elv_04=, az_04=, cno_04=43, signalID=1)>
2026-07-18 09:56:36,129 - INFO - <NMEA(GQGSV, numMsg=1, msgNum=1, numSV=0, signalID=0)>
2026-07-18 09:56:36,130 - INFO - <NMEA(GNGLL, lat=37.9008403333, NS=N, lon=-97.6642245, EW=W, time=14:56:36, status=A, posMode=D)>
2026-07-18 09:56:36,130 - INFO - <UBX(NAV-RELPOSNED, version=1, reserved0=0, refStationID=0, iTOW=14:56:36, relPosN=24.65, relPosE=60.73, relPosD=-15.3, relPosLength=67.3, relPosHeading=67.90923, reserved1=0, accN=10.0, accE=10.0, accD=10.0, accLength=10.0, accHeading=0.87419, reserved2=0, gnssFixOK=1, diffSoln=1, relPosValid=1, carrSoln=2, isMoving=1, refPosMiss=0, refObsMiss=0, relPosHeadingValid=1, relPosNormalized=0)>
2026-07-18 09:56:36,131 - INFO - 2026-07-18 09:56:36 [3.4 OBSERVED] current_turn_radius: infm
2026-07-18 09:56:36,131 - INFO - 2026-07-18 09:56:36 [3.4 OBSERVED] turn_direction: LEFT
2026-07-18 09:56:36,131 - INFO - 2026-07-18 09:56:36 [3.4 OBSERVED] estimated left/right wheel speeds: nan, nan m/s
2026-07-18 09:56:36,134 - INFO - 2026-07-18 09:56:36 [STATE] Current state: FOLLOWING_PATH
2026-07-18 09:56:36,135 - INFO - 2026-07-18 09:56:36 [FOLLOW] ACQUIRE: progress=0.00m/40.7m seg=0 cross=5.21m alpha=-31.2° target=(0.14,1.99) R=3.27 LEFT v=1.07 dwell=0.0s
2026-07-18 09:56:36,135 - INFO - 2026-07-18 09:56:36 Turn: LEFT, R: 3.27m, v_L: 0.96 m/s, v_R: 1.18 m/s
2026-07-18 09:56:36,135 - INFO - 2026-07-18 09:56:36 left_actuator_position: 622 (counts) from v_L 0.956 m/s
2026-07-18 09:56:36,135 - INFO - 2026-07-18 09:56:36 right_actuator_position: 508 (counts) from v_R 1.184 m/s
2026-07-18 09:56:36,149 - INFO - Sent actuator positions to RoboClaw → M1 (left): 622, M2 (right): 508 (counts)
2026-07-18 09:56:36,149 - INFO - 2026-07-18 09:56:36 APPLY → left_pos: 622, right_pos: 508 (counts), v_L: 0.96 m/s, v_R: 1.18 m/s
2026-07-18 09:56:36,149 - INFO - 2026-07-18 09:56:36 Path tracking needs correction: heading_ok=False (alpha=31.2deg), distance_ok=False (cross=5.211m)
2026-07-18 09:56:36,247 - INFO - <UBX(RXM-RTCM, version=2, crcFailed=0, msgUsed=2, subType=0, refStation=0, msgType=1074)>
2026-07-18 09:56:36,251 - INFO - <UBX(RXM-RTCM, version=2, crcFailed=0, msgUsed=2, subType=0, refStation=0, msgType=1084)>
2026-07-18 09:56:36,253 - INFO - <UBX(RXM-RTCM, version=2, crcFailed=0, msgUsed=2, subType=0, refStation=0, msgType=1094)>
2026-07-18 09:56:36,255 - INFO - <UBX(RXM-RTCM, version=2, crcFailed=0, msgUsed=2, subType=0, refStation=0, msgType=1124)>
2026-07-18 09:56:36,256 - INFO - <UBX(RXM-RTCM, version=2, crcFailed=0, msgUsed=2, subType=0, refStation=0, msgType=1230)>
2026-07-18 09:56:36,296 - INFO - <UBX(NAV-PVT, iTOW=14:56:36.200000, year=2026, month=7, day=18, hour=14, min=56, second=36, validDate=1, validTime=1, fullyResolved=1, validMag=0, tAcc=1001, nano=199608836, fixType=3, gnssFixOk=1, diffSoln=1, psmState=0, headVehValid=0, carrSoln=2, confirmedAvai=1, confirmedDate=1, confirmedTime=1, numSV=26, lon=-97.6642246, lat=37.9008404, height=409690, hMSL=435943, hAcc=42, vAcc=58, velN=4, velE=4, velD=3, gSpeed=6, headMot=0.0, sAcc=81, headAcc=180.0, pDOP=1.13, invalidLlh=0, lastCorrectionAge=1, reserved0=860630572, headVeh=0.0, magDec=0.0, magAcc=0.0)>
2026-07-18 09:56:36,296 - INFO - <NMEA(GNRMC, time=14:56:36.200000, status=A, lat=37.9008403333, NS=N, lon=-97.6642246667, EW=W, spd=0.012, cog=, date=2026-07-18, mv=, mvEW=, posMode=R, navStatus=V)>
2026-07-18 09:56:36,297 - INFO - <NMEA(GNVTG, cogt=, cogtUnit=T, cogm=, cogmUnit=M, sogn=0.012, sognUnit=N, sogk=0.022, sogkUnit=K, posMode=D)>
2026-07-18 09:56:36,297 - INFO - <NMEA(GNGGA, time=14:56:36.200000, lat=37.9008403333, NS=N, lon=-97.6642246667, EW=W, quality=4, numSV=12, HDOP=0.59, alt=435.9, altUnit=M, sep=-26.3, sepUnit=M, diffAge=0.2, diffStation=0)>
2026-07-18 09:56:36,298 - INFO - <NMEA(GNGSA, opMode=M, navMode=3, svid_01=29, svid_02=11, svid_03=21, svid_04=23, svid_05=20, svid_06=5, svid_07=15, svid_08=18, svid_09=, svid_10=, svid_11=, svid_12=, PDOP=1.13, HDOP=0.59, VDOP=0.97, systemId=1)>
2026-07-18 09:56:36,298 - INFO - <NMEA(GNGSA, opMode=M, navMode=3, svid_01=71, svid_02=70, svid_03=76, svid_04=85, svid_05=84, svid_06=75, svid_07=69, svid_08=, svid_09=, svid_10=, svid_11=, svid_12=, PDOP=1.13, HDOP=0.59, VDOP=0.97, systemId=2)>
2026-07-18 09:56:36,299 - INFO - <NMEA(GNGSA, opMode=M, navMode=3, svid_01=10, svid_02=19, svid_03=16, svid_04=11, svid_05=25, svid_06=28, svid_07=, svid_08=, svid_09=, svid_10=, svid_11=, svid_12=, PDOP=1.13, HDOP=0.59, VDOP=0.97, systemId=3)>
2026-07-18 09:56:36,299 - INFO - <NMEA(GNGSA, opMode=M, navMode=3, svid_01=38, svid_02=13, svid_03=27, svid_04=33, svid_05=28, svid_06=, svid_07=, svid_08=, svid_09=, svid_10=, svid_11=, svid_12=, PDOP=1.13, HDOP=0.59, VDOP=0.97, systemId=4)>
2026-07-18 09:56:36,300 - INFO - <NMEA(GNGSA, opMode=M, navMode=3, svid_01=, svid_02=, svid_03=, svid_04=, svid_05=, svid_06=, svid_07=, svid_08=, svid_09=, svid_10=, svid_11=, svid_12=, PDOP=1.13, HDOP=0.59, VDOP=0.97, systemId=5)>
2026-07-18 09:56:36,300 - INFO - <NMEA(GPGSV, numMsg=3, msgNum=1, numSV=10, svid_01=5, elv_01=73.0, az_01=35, cno_01=43, svid_02=11, elv_02=20.0, az_02=80, cno_02=39, svid_03=15, elv_03=31.0, az_03=167, cno_03=28, svid_04=18, elv_04=28.0, az_04=288, cno_04=34, signalID=1)>
2026-07-18 09:56:36,301 - INFO - <NMEA(GPGSV, numMsg=3, msgNum=2, numSV=10, svid_01=20, elv_01=39.0, az_01=127, cno_01=43, svid_02=21, elv_02=36.0, az_02=46, cno_02=49, svid_03=23, elv_03=10.0, az_03=228, cno_03=35, svid_04=29, elv_04=69.0, az_04=310, cno_04=47, signalID=1)>
2026-07-18 09:56:36,301 - INFO - <NMEA(GPGSV, numMsg=3, msgNum=3, numSV=10, svid_01=44, elv_01=42.0, az_01=210, cno_01=43, svid_02=48, elv_02=38.0, az_02=220, cno_02=39, signalID=1)>
2026-07-18 09:56:36,301 - INFO - <NMEA(GPGSV, numMsg=2, msgNum=1, numSV=8, svid_01=5, elv_01=73.0, az_01=35, cno_01=40, svid_02=11, elv_02=20.0, az_02=80, cno_02=40, svid_03=15, elv_03=31.0, az_03=167, cno_03=27, svid_04=18, elv_04=28.0, az_04=288, cno_04=30, signalID=6)>
2026-07-18 09:56:36,302 - INFO - <NMEA(GPGSV, numMsg=2, msgNum=2, numSV=8, svid_01=20, elv_01=39.0, az_01=127, cno_01=32, svid_02=21, elv_02=36.0, az_02=46, cno_02=41, svid_03=23, elv_03=10.0, az_03=228, cno_03=26, svid_04=29, elv_04=69.0, az_04=310, cno_04=41, signalID=6)>
2026-07-18 09:56:36,302 - INFO - <NMEA(GLGSV, numMsg=3, msgNum=1, numSV=9, svid_01=69, elv_01=32.0, az_01=37, cno_01=48, svid_02=70, elv_02=61.0, az_02=108, cno_02=49, svid_03=71, elv_03=22.0, az_03=179, cno_03=40, svid_04=75, elv_04=15.0, az_04=242, cno_04=30, signalID=1)>
2026-07-18 09:56:36,303 - INFO - <NMEA(GLGSV, numMsg=3, msgNum=2, numSV=9, svid_01=76, elv_01=20.0, az_01=297, cno_01=40, svid_02=77, elv_02=4.0, az_02=340, cno_02=13, svid_03=84, elv_03=30.0, az_03=84, cno_03=47, svid_04=85, elv_04=58.0, az_04=27, cno_04=46, signalID=1)>
2026-07-18 09:56:36,303 - INFO - <NMEA(GLGSV, numMsg=3, msgNum=3, numSV=9, svid_01=86, elv_01=, az_01=, cno_01=19, signalID=1)>
2026-07-18 09:56:36,304 - INFO - <NMEA(GLGSV, numMsg=2, msgNum=1, numSV=7, svid_01=69, elv_01=32.0, az_01=37, cno_01=39, svid_02=70, elv_02=61.0, az_02=108, cno_02=38, svid_03=71, elv_03=22.0, az_03=179, cno_03=35, svid_04=75, elv_04=15.0, az_04=242, cno_04=22, signalID=3)>
2026-07-18 09:56:36,304 - INFO - <NMEA(GLGSV, numMsg=2, msgNum=2, numSV=7, svid_01=76, elv_01=20.0, az_01=297, cno_01=33, svid_02=84, elv_02=30.0, az_02=84, cno_02=43, svid_03=85, elv_03=58.0, az_03=27, cno_03=39, signalID=3)>
2026-07-18 09:56:36,304 - INFO - <NMEA(GAGSV, numMsg=2, msgNum=1, numSV=8, svid_01=10, elv_01=66.0, az_01=358, cno_01=44, svid_02=11, elv_02=53.0, az_02=300, cno_02=43, svid_03=14, elv_03=78.0, az_03=183, cno_03=42, svid_04=16, elv_04=36.0, az_04=212, cno_04=25, signalID=2)>
2026-07-18 09:56:36,305 - INFO - <NMEA(GAGSV, numMsg=2, msgNum=2, numSV=8, svid_01=19, elv_01=29.0, az_01=82, cno_01=40, svid_02=25, elv_02=41.0, az_02=277, cno_02=43, svid_03=28, elv_03=29.0, az_03=116, cno_03=45, svid_04=29, elv_04=8.0, az_04=37, cno_04=42, signalID=2)>
2026-07-18 09:56:36,305 - INFO - <NMEA(GAGSV, numMsg=3, msgNum=1, numSV=9, svid_01=10, elv_01=66.0, az_01=358, cno_01=47, svid_02=11, elv_02=53.0, az_02=300, cno_02=42, svid_03=14, elv_03=78.0, az_03=183, cno_03=47, svid_04=16, elv_04=36.0, az_04=212, cno_04=30, signalID=7)>
2026-07-18 09:56:36,306 - INFO - <NMEA(GAGSV, numMsg=3, msgNum=2, numSV=9, svid_01=19, elv_01=29.0, az_01=82, cno_01=40, svid_02=25, elv_02=41.0, az_02=277, cno_02=41, svid_03=28, elv_03=29.0, az_03=116, cno_03=38, svid_04=29, elv_04=8.0, az_04=37, cno_04=35, signalID=7)>
2026-07-18 09:56:36,306 - INFO - <NMEA(GAGSV, numMsg=3, msgNum=3, numSV=9, svid_01=33, elv_01=7.0, az_01=76, cno_01=40, signalID=7)>
2026-07-18 09:56:36,307 - INFO - <NMEA(GBGSV, numMsg=2, msgNum=1, numSV=8, svid_01=13, elv_01=46.0, az_01=100, cno_01=44, svid_02=27, elv_02=51.0, az_02=315, cno_02=45, svid_03=28, elv_03=72.0, az_03=64, cno_03=43, svid_04=33, elv_04=56.0, az_04=72, cno_04=47, signalID=1)>
2026-07-18 09:56:36,307 - INFO - <NMEA(GBGSV, numMsg=2, msgNum=2, numSV=8, svid_01=38, elv_01=22.0, az_01=111, cno_01=41, svid_02=41, elv_02=, az_02=, cno_02=36, svid_03=42, elv_03=10.0, az_03=36, cno_03=46, svid_04=58, elv_04=, az_04=, cno_04=43, signalID=1)>
2026-07-18 09:56:36,307 - INFO - <NMEA(GQGSV, numMsg=1, msgNum=1, numSV=0, signalID=0)>
2026-07-18 09:56:36,307 - INFO - <UBX(RXM-RTCM, version=2, crcFailed=0, msgUsed=2, subType=0, refStation=0, msgType=4072)>
2026-07-18 09:56:36,308 - INFO - <NMEA(GNGLL, lat=37.9008403333, NS=N, lon=-97.6642246667, EW=W, time=14:56:36.200000, status=A, posMode=D)>
2026-07-18 09:56:36,308 - INFO - <UBX(NAV-RELPOSNED, version=1, reserved0=0, refStationID=0, iTOW=14:56:36.200000, relPosN=24.2, relPosE=60.58, relPosD=-15.26, relPosLength=67.0, relPosHeading=68.22579, reserved1=0, accN=10.0, accE=10.0, accD=10.0, accLength=10.0, accHeading=0.8783, reserved2=0, gnssFixOK=1, diffSoln=1, relPosValid=1, carrSoln=2, isMoving=1, refPosMiss=0, refObsMiss=0, relPosHeadingValid=1, relPosNormalized=0)>
2026-07-18 09:56:36,309 - INFO - 2026-07-18 09:56:36 [3.4 OBSERVED] current_turn_radius: infm
2026-07-18 09:56:36,309 - INFO - 2026-07-18 09:56:36 [3.4 OBSERVED] turn_direction: RIGHT
2026-07-18 09:56:36,309 - INFO - 2026-07-18 09:56:36 [3.4 OBSERVED] estimated left/right wheel speeds: nan, nan m/s
2026-07-18 09:56:36,312 - INFO - 2026-07-18 09:56:36 [STATE] Current state: FOLLOWING_PATH
2026-07-18 09:56:36,312 - INFO - 2026-07-18 09:56:36 [FOLLOW] ACQUIRE: progress=0.00m/40.7m seg=0 cross=5.22m alpha=-31.4° target=(0.14,1.99) R=3.26 LEFT v=1.07 dwell=0.0s
2026-07-18 09:56:36,312 - INFO - 2026-07-18 09:56:36 Turn: LEFT, R: 3.26m, v_L: 0.96 m/s, v_R: 1.18 m/s
2026-07-18 09:56:36,312 - INFO - 2026-07-18 09:56:36 left_actuator_position: 622 (counts) from v_L 0.955 m/s
2026-07-18 09:56:36,313 - INFO - 2026-07-18 09:56:36 right_actuator_position: 508 (counts) from v_R 1.185 m/s
2026-07-18 09:56:36,325 - INFO - Sent actuator positions to RoboClaw → M1 (left): 622, M2 (right): 508 (counts)
2026-07-18 09:56:36,325 - INFO - 2026-07-18 09:56:36 APPLY → left_pos: 622, right_pos: 508 (counts), v_L: 0.96 m/s, v_R: 1.18 m/s
2026-07-18 09:56:36,325 - INFO - 2026-07-18 09:56:36 Path tracking needs correction: heading_ok=False (alpha=31.4deg), distance_ok=False (cross=5.222m)
2026-07-18 09:56:36,447 - INFO - <UBX(RXM-RTCM, version=2, crcFailed=0, msgUsed=2, subType=0, refStation=0, msgType=1074)>
2026-07-18 09:56:36,451 - INFO - <UBX(RXM-RTCM, version=2, crcFailed=0, msgUsed=2, subType=0, refStation=0, msgType=1084)>
2026-07-18 09:56:36,453 - INFO - <UBX(RXM-RTCM, version=2, crcFailed=0, msgUsed=2, subType=0, refStation=0, msgType=1094)>
2026-07-18 09:56:36,455 - INFO - <UBX(RXM-RTCM, version=2, crcFailed=0, msgUsed=2, subType=0, refStation=0, msgType=1124)>
2026-07-18 09:56:36,455 - INFO - <UBX(RXM-RTCM, version=2, crcFailed=0, msgUsed=2, subType=0, refStation=0, msgType=1230)>
2026-07-18 09:56:36,495 - INFO - <UBX(NAV-PVT, iTOW=14:56:36.400000, year=2026, month=7, day=18, hour=14, min=56, second=36, validDate=1, validTime=1, fullyResolved=1, validMag=0, tAcc=1001, nano=399608789, fixType=3, gnssFixOk=1, diffSoln=1, psmState=0, headVehValid=0, carrSoln=2, confirmedAvai=1, confirmedDate=1, confirmedTime=1, numSV=26, lon=-97.6642247, lat=37.9008404, height=409669, hMSL=435922, hAcc=42, vAcc=57, velN=11, velE=-5, velD=4, gSpeed=12, headMot=0.0, sAcc=83, headAcc=180.0, pDOP=1.13, invalidLlh=0, lastCorrectionAge=1, reserved0=860630572, headVeh=0.0, magDec=0.0, magAcc=0.0)>
2026-07-18 09:56:36,496 - INFO - <NMEA(GNRMC, time=14:56:36.400000, status=A, lat=37.9008403333, NS=N, lon=-97.6642246667, EW=W, spd=0.022, cog=, date=2026-07-18, mv=, mvEW=, posMode=R, navStatus=V)>
2026-07-18 09:56:36,496 - INFO - <NMEA(GNVTG, cogt=, cogtUnit=T, cogm=, cogmUnit=M, sogn=0.022, sognUnit=N, sogk=0.042, sogkUnit=K, posMode=D)>
2026-07-18 09:56:36,497 - INFO - <NMEA(GNGGA, time=14:56:36.400000, lat=37.9008403333, NS=N, lon=-97.6642246667, EW=W, quality=4, numSV=12, HDOP=0.59, alt=435.9, altUnit=M, sep=-26.3, sepUnit=M, diffAge=0.2, diffStation=0)>
2026-07-18 09:56:36,498 - INFO - <NMEA(GNGSA, opMode=M, navMode=3, svid_01=29, svid_02=11, svid_03=21, svid_04=23, svid_05=20, svid_06=5, svid_07=15, svid_08=18, svid_09=, svid_10=, svid_11=, svid_12=, PDOP=1.13, HDOP=0.59, VDOP=0.97, systemId=1)>
2026-07-18 09:56:36,498 - INFO - <NMEA(GNGSA, opMode=M, navMode=3, svid_01=71, svid_02=70, svid_03=76, svid_04=85, svid_05=84, svid_06=75, svid_07=69, svid_08=, svid_09=, svid_10=, svid_11=, svid_12=, PDOP=1.13, HDOP=0.59, VDOP=0.97, systemId=2)>
2026-07-18 09:56:36,498 - INFO - <NMEA(GNGSA, opMode=M, navMode=3, svid_01=10, svid_02=19, svid_03=16, svid_04=11, svid_05=25, svid_06=28, svid_07=, svid_08=, svid_09=, svid_10=, svid_11=, svid_12=, PDOP=1.13, HDOP=0.59, VDOP=0.97, systemId=3)>
2026-07-18 09:56:36,499 - INFO - <NMEA(GNGSA, opMode=M, navMode=3, svid_01=38, svid_02=13, svid_03=27, svid_04=33, svid_05=28, svid_06=, svid_07=, svid_08=, svid_09=, svid_10=, svid_11=, svid_12=, PDOP=1.13, HDOP=0.59, VDOP=0.97, systemId=4)>
2026-07-18 09:56:36,499 - INFO - <NMEA(GNGSA, opMode=M, navMode=3, svid_01=, svid_02=, svid_03=, svid_04=, svid_05=, svid_06=, svid_07=, svid_08=, svid_09=, svid_10=, svid_11=, svid_12=, PDOP=1.13, HDOP=0.59, VDOP=0.97, systemId=5)>
2026-07-18 09:56:36,500 - INFO - <NMEA(GPGSV, numMsg=3, msgNum=1, numSV=10, svid_01=5, elv_01=73.0, az_01=35, cno_01=43, svid_02=11, elv_02=20.0, az_02=80, cno_02=39, svid_03=15, elv_03=31.0, az_03=167, cno_03=28, svid_04=18, elv_04=28.0, az_04=288, cno_04=34, signalID=1)>
2026-07-18 09:56:36,500 - INFO - <NMEA(GPGSV, numMsg=3, msgNum=2, numSV=10, svid_01=20, elv_01=39.0, az_01=127, cno_01=42, svid_02=21, elv_02=36.0, az_02=46, cno_02=48, svid_03=23, elv_03=10.0, az_03=228, cno_03=32, svid_04=29, elv_04=69.0, az_04=310, cno_04=47, signalID=1)>
2026-07-18 09:56:36,501 - INFO - <NMEA(GPGSV, numMsg=3, msgNum=3, numSV=10, svid_01=44, elv_01=42.0, az_01=210, cno_01=42, svid_02=48, elv_02=38.0, az_02=220, cno_02=39, signalID=1)>
2026-07-18 09:56:36,501 - INFO - <NMEA(GPGSV, numMsg=2, msgNum=1, numSV=8, svid_01=5, elv_01=73.0, az_01=35, cno_01=40, svid_02=11, elv_02=20.0, az_02=80, cno_02=39, svid_03=15, elv_03=31.0, az_03=167, cno_03=27, svid_04=18, elv_04=28.0, az_04=288, cno_04=30, signalID=6)>
2026-07-18 09:56:36,502 - INFO - <NMEA(GPGSV, numMsg=2, msgNum=2, numSV=8, svid_01=20, elv_01=39.0, az_01=127, cno_01=33, svid_02=21, elv_02=36.0, az_02=46, cno_02=41, svid_03=23, elv_03=10.0, az_03=228, cno_03=27, svid_04=29, elv_04=69.0, az_04=310, cno_04=41, signalID=6)>
2026-07-18 09:56:36,502 - INFO - <NMEA(GLGSV, numMsg=3, msgNum=1, numSV=9, svid_01=69, elv_01=32.0, az_01=37, cno_01=48, svid_02=70, elv_02=61.0, az_02=108, cno_02=49, svid_03=71, elv_03=22.0, az_03=179, cno_03=40, svid_04=75, elv_04=15.0, az_04=242, cno_04=30, signalID=1)>
2026-07-18 09:56:36,502 - INFO - <NMEA(GLGSV, numMsg=3, msgNum=2, numSV=9, svid_01=76, elv_01=20.0, az_01=297, cno_01=40, svid_02=77, elv_02=4.0, az_02=340, cno_02=13, svid_03=84, elv_03=30.0, az_03=84, cno_03=47, svid_04=85, elv_04=58.0, az_04=27, cno_04=46, signalID=1)>
2026-07-18 09:56:36,503 - INFO - <NMEA(GLGSV, numMsg=3, msgNum=3, numSV=9, svid_01=86, elv_01=, az_01=, cno_01=19, signalID=1)>
2026-07-18 09:56:36,503 - INFO - <NMEA(GLGSV, numMsg=2, msgNum=1, numSV=7, svid_01=69, elv_01=32.0, az_01=37, cno_01=40, svid_02=70, elv_02=61.0, az_02=108, cno_02=38, svid_03=71, elv_03=22.0, az_03=179, cno_03=35, svid_04=75, elv_04=15.0, az_04=242, cno_04=22, signalID=3)>
2026-07-18 09:56:36,504 - INFO - <NMEA(GLGSV, numMsg=2, msgNum=2, numSV=7, svid_01=76, elv_01=20.0, az_01=297, cno_01=33, svid_02=84, elv_02=30.0, az_02=84, cno_02=43, svid_03=85, elv_03=58.0, az_03=27, cno_03=39, signalID=3)>
2026-07-18 09:56:36,504 - INFO - <NMEA(GAGSV, numMsg=3, msgNum=1, numSV=9, svid_01=10, elv_01=66.0, az_01=358, cno_01=44, svid_02=11, elv_02=53.0, az_02=300, cno_02=43, svid_03=14, elv_03=78.0, az_03=183, cno_03=42, svid_04=16, elv_04=36.0, az_04=212, cno_04=25, signalID=2)>
2026-07-18 09:56:36,505 - INFO - <NMEA(GAGSV, numMsg=3, msgNum=2, numSV=9, svid_01=19, elv_01=29.0, az_01=82, cno_01=40, svid_02=25, elv_02=41.0, az_02=277, cno_02=43, svid_03=28, elv_03=29.0, az_03=116, cno_03=45, svid_04=29, elv_04=8.0, az_04=37, cno_04=42, signalID=2)>
2026-07-18 09:56:36,505 - INFO - <NMEA(GAGSV, numMsg=3, msgNum=3, numSV=9, svid_01=33, elv_01=7.0, az_01=76, cno_01=40, signalID=2)>
2026-07-18 09:56:36,505 - INFO - <UBX(RXM-RTCM, version=2, crcFailed=0, msgUsed=2, subType=0, refStation=0, msgType=4072)>
2026-07-18 09:56:36,505 - INFO - <NMEA(GAGSV, numMsg=3, msgNum=1, numSV=9, svid_01=10, elv_01=66.0, az_01=358, cno_01=47, svid_02=11, elv_02=53.0, az_02=300, cno_02=42, svid_03=14, elv_03=78.0, az_03=183, cno_03=47, svid_04=16, elv_04=36.0, az_04=212, cno_04=30, signalID=7)>
2026-07-18 09:56:36,506 - INFO - <NMEA(GAGSV, numMsg=3, msgNum=2, numSV=9, svid_01=19, elv_01=29.0, az_01=82, cno_01=40, svid_02=25, elv_02=41.0, az_02=277, cno_02=41, svid_03=28, elv_03=29.0, az_03=116, cno_03=38, svid_04=29, elv_04=8.0, az_04=37, cno_04=35, signalID=7)>
2026-07-18 09:56:36,506 - INFO - <NMEA(GAGSV, numMsg=3, msgNum=3, numSV=9, svid_01=33, elv_01=7.0, az_01=76, cno_01=40, signalID=7)>
2026-07-18 09:56:36,507 - INFO - <NMEA(GBGSV, numMsg=2, msgNum=1, numSV=8, svid_01=13, elv_01=46.0, az_01=100, cno_01=44, svid_02=27, elv_02=51.0, az_02=315, cno_02=45, svid_03=28, elv_03=72.0, az_03=64, cno_03=43, svid_04=33, elv_04=56.0, az_04=72, cno_04=47, signalID=1)>
2026-07-18 09:56:36,507 - INFO - <NMEA(GBGSV, numMsg=2, msgNum=2, numSV=8, svid_01=38, elv_01=22.0, az_01=111, cno_01=41, svid_02=41, elv_02=, az_02=, cno_02=35, svid_03=42, elv_03=10.0, az_03=36, cno_03=45, svid_04=58, elv_04=, az_04=, cno_04=43, signalID=1)>
2026-07-18 09:56:36,507 - INFO - <NMEA(GQGSV, numMsg=1, msgNum=1, numSV=0, signalID=0)>
2026-07-18 09:56:36,508 - INFO - <NMEA(GNGLL, lat=37.9008403333, NS=N, lon=-97.6642246667, EW=W, time=14:56:36.400000, status=A, posMode=D)>
2026-07-18 09:56:36,508 - INFO - <UBX(NAV-RELPOSNED, version=1, reserved0=0, refStationID=0, iTOW=14:56:36.400000, relPosN=24.02, relPosE=60.89, relPosD=-15.74, relPosLength=67.32, relPosHeading=68.4704, reserved1=0, accN=10.0, accE=10.0, accD=10.0, accLength=10.0, accHeading=0.87538, reserved2=0, gnssFixOK=1, diffSoln=1, relPosValid=1, carrSoln=2, isMoving=1, refPosMiss=0, refObsMiss=0, relPosHeadingValid=1, relPosNormalized=0)>
2026-07-18 09:56:36,509 - INFO - 2026-07-18 09:56:36 [3.4 OBSERVED] current_turn_radius: infm
2026-07-18 09:56:36,509 - INFO - 2026-07-18 09:56:36 [3.4 OBSERVED] turn_direction: RIGHT
2026-07-18 09:56:36,509 - INFO - 2026-07-18 09:56:36 [3.4 OBSERVED] estimated left/right wheel speeds: nan, nan m/s
2026-07-18 09:56:36,511 - INFO - 2026-07-18 09:56:36 [STATE] Current state: FOLLOWING_PATH
2026-07-18 09:56:36,512 - INFO - 2026-07-18 09:56:36 [FOLLOW] ACQUIRE: progress=0.00m/40.7m seg=0 cross=5.22m alpha=-31.6° target=(0.14,1.99) R=3.24 LEFT v=1.07 dwell=0.0s
2026-07-18 09:56:36,512 - INFO - 2026-07-18 09:56:36 Turn: LEFT, R: 3.24m, v_L: 0.95 m/s, v_R: 1.19 m/s
2026-07-18 09:56:36,512 - INFO - 2026-07-18 09:56:36 left_actuator_position: 623 (counts) from v_L 0.954 m/s
2026-07-18 09:56:36,512 - INFO - 2026-07-18 09:56:36 right_actuator_position: 507 (counts) from v_R 1.186 m/s
2026-07-18 09:56:36,525 - INFO - Sent actuator positions to RoboClaw → M1 (left): 623, M2 (right): 507 (counts)
2026-07-18 09:56:36,525 - INFO - 2026-07-18 09:56:36 APPLY → left_pos: 623, right_pos: 507 (counts), v_L: 0.95 m/s, v_R: 1.19 m/s
2026-07-18 09:56:36,525 - INFO - 2026-07-18 09:56:36 Path tracking needs correction: heading_ok=False (alpha=31.6deg), distance_ok=False (cross=5.222m)
2026-07-18 09:56:36,646 - INFO - <UBX(RXM-RTCM, version=2, crcFailed=0, msgUsed=2, subType=0, refStation=0, msgType=1074)>
2026-07-18 09:56:36,648 - INFO - <UBX(RXM-RTCM, version=2, crcFailed=0, msgUsed=2, subType=0, refStation=0, msgType=1084)>
2026-07-18 09:56:36,653 - INFO - <UBX(RXM-RTCM, version=2, crcFailed=0, msgUsed=2, subType=0, refStation=0, msgType=1094)>
2026-07-18 09:56:36,653 - INFO - <UBX(RXM-RTCM, version=2, crcFailed=0, msgUsed=2, subType=0, refStation=0, msgType=1124)>
2026-07-18 09:56:36,654 - INFO - <UBX(RXM-RTCM, version=2, crcFailed=0, msgUsed=2, subType=0, refStation=0, msgType=1230)>
2026-07-18 09:56:36,697 - INFO - <UBX(NAV-PVT, iTOW=14:56:36.600000, year=2026, month=7, day=18, hour=14, min=56, second=36, validDate=1, validTime=1, fullyResolved=1, validMag=0, tAcc=1001, nano=599608742, fixType=3, gnssFixOk=1, diffSoln=1, psmState=0, headVehValid=0, carrSoln=2, confirmedAvai=1, confirmedDate=1, confirmedTime=1, numSV=26, lon=-97.6642246, lat=37.9008406, height=409644, hMSL=435897, hAcc=45, vAcc=61, velN=37, velE=81, velD=31, gSpeed=89, headMot=0.0, sAcc=63, headAcc=46.02928, pDOP=1.13, invalidLlh=0, lastCorrectionAge=1, reserved0=860630572, headVeh=0.0, magDec=0.0, magAcc=0.0)>
2026-07-18 09:56:36,698 - INFO - <NMEA(GNRMC, time=14:56:36.600000, status=A, lat=37.9008405, NS=N, lon=-97.6642245, EW=W, spd=0.174, cog=, date=2026-07-18, mv=, mvEW=, posMode=R, navStatus=V)>
2026-07-18 09:56:36,698 - INFO - <NMEA(GNVTG, cogt=, cogtUnit=T, cogm=, cogmUnit=M, sogn=0.174, sognUnit=N, sogk=0.322, sogkUnit=K, posMode=D)>
2026-07-18 09:56:36,699 - INFO - <NMEA(GNGGA, time=14:56:36.600000, lat=37.9008405, NS=N, lon=-97.6642245, EW=W, quality=4, numSV=12, HDOP=0.59, alt=435.9, altUnit=M, sep=-26.3, sepUnit=M, diffAge=0.2, diffStation=0)>
2026-07-18 09:56:36,699 - INFO - <NMEA(GNGSA, opMode=M, navMode=3, svid_01=29, svid_02=11, svid_03=21, svid_04=23, svid_05=20, svid_06=5, svid_07=15, svid_08=18, svid_09=, svid_10=, svid_11=, svid_12=, PDOP=1.13, HDOP=0.59, VDOP=0.97, systemId=1)>
2026-07-18 09:56:36,700 - INFO - <NMEA(GNGSA, opMode=M, navMode=3, svid_01=71, svid_02=70, svid_03=76, svid_04=85, svid_05=84, svid_06=75, svid_07=69, svid_08=, svid_09=, svid_10=, svid_11=, svid_12=, PDOP=1.13, HDOP=0.59, VDOP=0.97, systemId=2)>
2026-07-18 09:56:36,700 - INFO - <NMEA(GNGSA, opMode=M, navMode=3, svid_01=10, svid_02=19, svid_03=16, svid_04=11, svid_05=25, svid_06=28, svid_07=, svid_08=, svid_09=, svid_10=, svid_11=, svid_12=, PDOP=1.13, HDOP=0.59, VDOP=0.97, systemId=3)>
2026-07-18 09:56:36,700 - INFO - <NMEA(GNGSA, opMode=M, navMode=3, svid_01=38, svid_02=13, svid_03=27, svid_04=33, svid_05=28, svid_06=, svid_07=, svid_08=, svid_09=, svid_10=, svid_11=, svid_12=, PDOP=1.13, HDOP=0.59, VDOP=0.97, systemId=4)>
2026-07-18 09:56:36,701 - INFO - <NMEA(GNGSA, opMode=M, navMode=3, svid_01=, svid_02=, svid_03=, svid_04=, svid_05=, svid_06=, svid_07=, svid_08=, svid_09=, svid_10=, svid_11=, svid_12=, PDOP=1.13, HDOP=0.59, VDOP=0.97, systemId=5)>
2026-07-18 09:56:36,701 - INFO - <NMEA(GPGSV, numMsg=3, msgNum=1, numSV=10, svid_01=5, elv_01=73.0, az_01=35, cno_01=43, svid_02=11, elv_02=20.0, az_02=80, cno_02=42, svid_03=15, elv_03=31.0, az_03=167, cno_03=28, svid_04=18, elv_04=28.0, az_04=288, cno_04=35, signalID=1)>
2026-07-18 09:56:36,702 - INFO - <NMEA(GPGSV, numMsg=3, msgNum=2, numSV=10, svid_01=20, elv_01=39.0, az_01=127, cno_01=42, svid_02=21, elv_02=36.0, az_02=46, cno_02=49, svid_03=23, elv_03=10.0, az_03=228, cno_03=35, svid_04=29, elv_04=69.0, az_04=310, cno_04=47, signalID=1)>
2026-07-18 09:56:36,702 - INFO - <NMEA(GPGSV, numMsg=3, msgNum=3, numSV=10, svid_01=44, elv_01=42.0, az_01=210, cno_01=42, svid_02=48, elv_02=38.0, az_02=220, cno_02=39, signalID=1)>
2026-07-18 09:56:36,703 - INFO - <NMEA(GPGSV, numMsg=2, msgNum=1, numSV=8, svid_01=5, elv_01=73.0, az_01=35, cno_01=40, svid_02=11, elv_02=20.0, az_02=80, cno_02=41, svid_03=15, elv_03=31.0, az_03=167, cno_03=27, svid_04=18, elv_04=28.0, az_04=288, cno_04=30, signalID=6)>
2026-07-18 09:56:36,703 - INFO - <NMEA(GPGSV, numMsg=2, msgNum=2, numSV=8, svid_01=20, elv_01=39.0, az_01=127, cno_01=33, svid_02=21, elv_02=36.0, az_02=46, cno_02=41, svid_03=23, elv_03=10.0, az_03=228, cno_03=27, svid_04=29, elv_04=69.0, az_04=310, cno_04=41, signalID=6)>
2026-07-18 09:56:36,704 - INFO - <NMEA(GLGSV, numMsg=3, msgNum=1, numSV=9, svid_01=69, elv_01=32.0, az_01=37, cno_01=50, svid_02=70, elv_02=61.0, az_02=108, cno_02=50, svid_03=71, elv_03=22.0, az_03=179, cno_03=38, svid_04=75, elv_04=15.0, az_04=242, cno_04=30, signalID=1)>
2026-07-18 09:56:36,704 - INFO - <NMEA(GLGSV, numMsg=3, msgNum=2, numSV=9, svid_01=76, elv_01=20.0, az_01=297, cno_01=40, svid_02=77, elv_02=4.0, az_02=340, cno_02=13, svid_03=84, elv_03=30.0, az_03=84, cno_03=47, svid_04=85, elv_04=58.0, az_04=27, cno_04=45, signalID=1)>
2026-07-18 09:56:36,704 - INFO - <NMEA(GLGSV, numMsg=3, msgNum=3, numSV=9, svid_01=86, elv_01=, az_01=, cno_01=19, signalID=1)>
2026-07-18 09:56:36,705 - INFO - <NMEA(GLGSV, numMsg=2, msgNum=1, numSV=7, svid_01=69, elv_01=32.0, az_01=37, cno_01=39, svid_02=70, elv_02=61.0, az_02=108, cno_02=37, svid_03=71, elv_03=22.0, az_03=179, cno_03=35, svid_04=75, elv_04=15.0, az_04=242, cno_04=22, signalID=3)>
2026-07-18 09:56:36,705 - INFO - <NMEA(GLGSV, numMsg=2, msgNum=2, numSV=7, svid_01=76, elv_01=20.0, az_01=297, cno_01=33, svid_02=84, elv_02=30.0, az_02=84, cno_02=43, svid_03=85, elv_03=58.0, az_03=27, cno_03=39, signalID=3)>
2026-07-18 09:56:36,706 - INFO - <NMEA(GAGSV, numMsg=3, msgNum=1, numSV=9, svid_01=10, elv_01=66.0, az_01=358, cno_01=44, svid_02=11, elv_02=53.0, az_02=300, cno_02=43, svid_03=14, elv_03=78.0, az_03=183, cno_03=42, svid_04=16, elv_04=36.0, az_04=212, cno_04=25, signalID=2)>
2026-07-18 09:56:36,706 - INFO - <NMEA(GAGSV, numMsg=3, msgNum=2, numSV=9, svid_01=19, elv_01=29.0, az_01=82, cno_01=40, svid_02=25, elv_02=41.0, az_02=277, cno_02=43, svid_03=28, elv_03=29.0, az_03=116, cno_03=44, svid_04=29, elv_04=8.0, az_04=37, cno_04=43, signalID=2)>
2026-07-18 09:56:36,706 - INFO - <NMEA(GAGSV, numMsg=3, msgNum=3, numSV=9, svid_01=33, elv_01=7.0, az_01=76, cno_01=38, signalID=2)>
2026-07-18 09:56:36,707 - INFO - <NMEA(GAGSV, numMsg=3, msgNum=1, numSV=9, svid_01=10, elv_01=66.0, az_01=358, cno_01=46, svid_02=11, elv_02=53.0, az_02=300, cno_02=41, svid_03=14, elv_03=78.0, az_03=183, cno_03=47, svid_04=16, elv_04=36.0, az_04=212, cno_04=30, signalID=7)>
2026-07-18 09:56:36,707 - INFO - <NMEA(GAGSV, numMsg=3, msgNum=2, numSV=9, svid_01=19, elv_01=29.0, az_01=82, cno_01=40, svid_02=25, elv_02=41.0, az_02=277, cno_02=41, svid_03=28, elv_03=29.0, az_03=116, cno_03=36, svid_04=29, elv_04=8.0, az_04=37, cno_04=37, signalID=7)>
2026-07-18 09:56:36,707 - INFO - <NMEA(GAGSV, numMsg=3, msgNum=3, numSV=9, svid_01=33, elv_01=7.0, az_01=76, cno_01=36, signalID=7)>
2026-07-18 09:56:36,708 - INFO - <NMEA(GBGSV, numMsg=2, msgNum=1, numSV=8, svid_01=13, elv_01=46.0, az_01=100, cno_01=44, svid_02=27, elv_02=51.0, az_02=315, cno_02=45, svid_03=28, elv_03=72.0, az_03=64, cno_03=43, svid_04=33, elv_04=56.0, az_04=72, cno_04=47, signalID=1)>
2026-07-18 09:56:36,708 - INFO - <NMEA(GBGSV, numMsg=2, msgNum=2, numSV=8, svid_01=38, elv_01=22.0, az_01=111, cno_01=40, svid_02=41, elv_02=, az_02=, cno_02=35, svid_03=42, elv_03=10.0, az_03=36, cno_03=41, svid_04=58, elv_04=, az_04=, cno_04=43, signalID=1)>
2026-07-18 09:56:36,709 - INFO - <NMEA(GQGSV, numMsg=1, msgNum=1, numSV=0, signalID=0)>
2026-07-18 09:56:36,709 - INFO - <NMEA(GNGLL, lat=37.9008405, NS=N, lon=-97.6642245, EW=W, time=14:56:36.600000, status=A, posMode=D)>
2026-07-18 09:56:36,709 - INFO - <UBX(NAV-RELPOSNED, version=1, reserved0=0, refStationID=0, iTOW=14:56:36.600000, relPosN=25.1, relPosE=61.85, relPosD=-15.41, relPosLength=68.5, relPosHeading=67.91089, reserved1=0, accN=10.0, accE=10.0, accD=10.0, accLength=10.0, accHeading=0.85841, reserved2=0, gnssFixOK=1, diffSoln=1, relPosValid=1, carrSoln=2, isMoving=1, refPosMiss=0, refObsMiss=0, relPosHeadingValid=1, relPosNormalized=0)>
2026-07-18 09:56:36,710 - INFO - 2026-07-18 09:56:36 [3.4 OBSERVED] current_turn_radius: infm
2026-07-18 09:56:36,710 - INFO - 2026-07-18 09:56:36 [3.4 OBSERVED] turn_direction: LEFT
2026-07-18 09:56:36,710 - INFO - 2026-07-18 09:56:36 [3.4 OBSERVED] estimated left/right wheel speeds: nan, nan m/s
2026-07-18 09:56:36,712 - INFO - 2026-07-18 09:56:36 [STATE] Current state: FOLLOWING_PATH
2026-07-18 09:56:36,713 - INFO - 2026-07-18 09:56:36 [FOLLOW] ACQUIRE: progress=0.00m/40.7m seg=0 cross=5.20m alpha=-31.1° target=(0.14,1.99) R=3.28 LEFT v=1.07 dwell=0.0s
2026-07-18 09:56:36,713 - INFO - 2026-07-18 09:56:36 Turn: LEFT, R: 3.28m, v_L: 0.96 m/s, v_R: 1.18 m/s
2026-07-18 09:56:36,713 - INFO - 2026-07-18 09:56:36 left_actuator_position: 622 (counts) from v_L 0.956 m/s
2026-07-18 09:56:36,713 - INFO - 2026-07-18 09:56:36 right_actuator_position: 508 (counts) from v_R 1.184 m/s
2026-07-18 09:56:36,725 - INFO - Sent actuator positions to RoboClaw → M1 (left): 622, M2 (right): 508 (counts)
2026-07-18 09:56:36,726 - INFO - 2026-07-18 09:56:36 APPLY → left_pos: 622, right_pos: 508 (counts), v_L: 0.96 m/s, v_R: 1.18 m/s
2026-07-18 09:56:36,726 - INFO - 2026-07-18 09:56:36 Path tracking needs correction: heading_ok=False (alpha=31.1deg), distance_ok=False (cross=5.199m)
2026-07-18 09:56:36,726 - INFO - <UBX(RXM-RTCM, version=2, crcFailed=0, msgUsed=2, subType=0, refStation=0, msgType=4072)>
2026-07-18 09:56:36,844 - INFO - <UBX(RXM-RTCM, version=2, crcFailed=0, msgUsed=2, subType=0, refStation=0, msgType=1074)>
2026-07-18 09:56:36,847 - INFO - <UBX(RXM-RTCM, version=2, crcFailed=0, msgUsed=2, subType=0, refStation=0, msgType=1084)>
2026-07-18 09:56:36,849 - INFO - <UBX(RXM-RTCM, version=2, crcFailed=0, msgUsed=2, subType=0, refStation=0, msgType=1094)>
2026-07-18 09:56:36,852 - INFO - <UBX(RXM-RTCM, version=2, crcFailed=0, msgUsed=2, subType=0, refStation=0, msgType=1124)>
2026-07-18 09:56:36,852 - INFO - <UBX(RXM-RTCM, version=2, crcFailed=0, msgUsed=2, subType=0, refStation=0, msgType=1230)>
2026-07-18 09:56:36,897 - INFO - <UBX(NAV-PVT, iTOW=14:56:36.800000, year=2026, month=7, day=18, hour=14, min=56, second=36, validDate=1, validTime=1, fullyResolved=1, validMag=0, tAcc=1001, nano=799608696, fixType=3, gnssFixOk=1, diffSoln=1, psmState=0, headVehValid=0, carrSoln=2, confirmedAvai=1, confirmedDate=1, confirmedTime=1, numSV=26, lon=-97.6642239, lat=37.900841, height=409623, hMSL=435876, hAcc=69, vAcc=94, velN=236, velE=305, velD=85, gSpeed=386, headMot=52.34318, sAcc=69, headAcc=10.82601, pDOP=1.13, invalidLlh=0, lastCorrectionAge=1, reserved0=860630572, headVeh=0.0, magDec=0.0, magAcc=0.0)>
2026-07-18 09:56:36,898 - INFO - <NMEA(GNRMC, time=14:56:36.800000, status=A, lat=37.900841, NS=N, lon=-97.6642238333, EW=W, spd=0.75, cog=52.34, date=2026-07-18, mv=, mvEW=, posMode=R, navStatus=V)>
2026-07-18 09:56:36,898 - INFO - <NMEA(GNVTG, cogt=52.34, cogtUnit=T, cogm=, cogmUnit=M, sogn=0.75, sognUnit=N, sogk=1.388, sogkUnit=K, posMode=D)>
2026-07-18 09:56:36,899 - INFO - <NMEA(GNGGA, time=14:56:36.800000, lat=37.900841, NS=N, lon=-97.6642238333, EW=W, quality=4, numSV=12, HDOP=0.59, alt=435.9, altUnit=M, sep=-26.3, sepUnit=M, diffAge=0.2, diffStation=0)>
2026-07-18 09:56:36,899 - INFO - <NMEA(GNGSA, opMode=M, navMode=3, svid_01=29, svid_02=11, svid_03=21, svid_04=23, svid_05=20, svid_06=5, svid_07=15, svid_08=18, svid_09=, svid_10=, svid_11=, svid_12=, PDOP=1.13, HDOP=0.59, VDOP=0.97, systemId=1)>
