2026-06-07 15:00:50,979 - INFO - Logging initialized to /home/dali/Documents/ReMow-Rover-Tests/Repeat/Logs/readRecordedRun-2026-06-07_15-00-50.log
2026-06-07 15:00:50,981 - INFO - RoboClaw opened successfully on /dev/serial/by-id/usb-Basicmicro_Inc._USB_Roboclaw_2x15A-if00
2026-06-07 15:00:51,282 - INFO - Encoders reset to zero
2026-06-07 15:00:51,282 - INFO - Starting readRecordedRun with combination: 55
2026-06-07 15:00:51,282 - INFO - Selected most recent recording: 55_20260510-134004_GPSData.csv
2026-06-07 15:00:51,286 - INFO - GREEN_LED initialized on GPIO 17
2026-06-07 15:00:51,288 - INFO - Bootstrap: Initialized modifiers with estimate 73.86 mm/(rad/s)
2026-06-07 15:00:51,288 - INFO - ENU origin from first waypoint: 37.9008713333, -97.66418
2026-06-07 15:00:51,308 - INFO - goto_positions: M1=1100, M2=1100 [Startup - ensuring neutral position]
2026-06-07 15:00:51,308 - INFO - Actuators initialized to neutral (1100)
2026-06-07 15:00:51,308 - INFO - === STATE MACHINE INITIALIZED ===
2026-06-07 15:00:51,308 - INFO - Start waypoint: East=0.000m, North=0.000m, Heading=1.8°
2026-06-07 15:00:51,308 - INFO - Initial state: NAVIGATING_TO_START
2026-06-07 15:00:51,308 - INFO - Navigation timeout: 300.0s
2026-06-07 15:00:51,308 - INFO - === WAITING FOR GPS RTK FIX ===
2026-06-07 15:00:51,308 - INFO - Need: relPosValid=1, carrSoln=2, relPosHeadingValid=1 (timeout: 60.0s)
2026-06-07 15:00:51,319 - INFO - GPS status: relPosValid=1, carrSoln=2, headingValid=1 (0.0s)
2026-06-07 15:00:51,319 - INFO - === GPS RTK FIXED — ready to navigate (0.0s) ===
2026-06-07 15:00:51,319 - INFO - <UBX(RXM-RTCM, version=2, crcFailed=0, msgUsed=2, subType=0, refStation=0, msgType=4072)>
2026-06-07 15:00:51,319 - INFO - Using persisted heading from driving to work area: 289.93° (captured at 2026-06-07 15:00:32)
2026-06-07 15:00:51,320 - INFO - <UBX(RXM-RTCM, version=2, crcFailed=0, msgUsed=2, subType=0, refStation=0, msgType=1074)>
2026-06-07 15:00:51,320 - INFO - <UBX(RXM-RTCM, version=2, crcFailed=0, msgUsed=2, subType=0, refStation=0, msgType=1084)>
2026-06-07 15:00:51,320 - INFO - <UBX(RXM-RTCM, version=2, crcFailed=0, msgUsed=2, subType=0, refStation=0, msgType=1094)>
2026-06-07 15:00:51,320 - INFO - <UBX(RXM-RTCM, version=2, crcFailed=0, msgUsed=2, subType=0, refStation=0, msgType=1124)>
2026-06-07 15:00:51,320 - INFO - <UBX(RXM-RTCM, version=2, crcFailed=0, msgUsed=2, subType=0, refStation=0, msgType=1230)>
2026-06-07 15:00:51,320 - INFO - <UBX(NAV-PVT, iTOW=20:00:50.800000, year=2026, month=6, day=7, hour=20, min=0, second=50, validDate=1, validTime=1, fullyResolved=1, validMag=0, tAcc=22, nano=800174547, fixType=3, gnssFixOk=1, diffSoln=1, psmState=0, headVehValid=0, carrSoln=2, confirmedAvai=1, confirmedDate=1, confirmedTime=1, numSV=28, lon=-97.6641839, lat=37.9008465, height=409415, hMSL=435668, hAcc=83, vAcc=106, velN=-3, velE=2, velD=-2, gSpeed=3, headMot=345.39656, sAcc=78, headAcc=180.0, pDOP=0.91, invalidLlh=0, lastCorrectionAge=1, reserved0=860630572, headVeh=0.0, magDec=0.0, magAcc=0.0)>
2026-06-07 15:00:51,321 - INFO - <NMEA(GNRMC, time=20:00:50.800000, status=A, lat=37.9008465, NS=N, lon=-97.664184, EW=W, spd=0.007, cog=, date=2026-06-07, mv=, mvEW=, posMode=R, navStatus=V)>
2026-06-07 15:00:51,321 - INFO - <NMEA(GNVTG, cogt=, cogtUnit=T, cogm=, cogmUnit=M, sogn=0.007, sognUnit=N, sogk=0.012, sogkUnit=K, posMode=D)>
2026-06-07 15:00:51,322 - INFO - <NMEA(GNGGA, time=20:00:50.800000, lat=37.9008465, NS=N, lon=-97.664184, EW=W, quality=4, numSV=12, HDOP=0.52, alt=435.7, altUnit=M, sep=-26.3, sepUnit=M, diffAge=0.2, diffStation=0)>
2026-06-07 15:00:51,322 - INFO - <NMEA(GNGSA, opMode=M, navMode=3, svid_01=5, svid_02=10, svid_03=15, svid_04=18, svid_05=20, svid_06=23, svid_07=24, svid_08=29, svid_09=, svid_10=, svid_11=, svid_12=, PDOP=0.91, HDOP=0.52, VDOP=0.74, systemId=1)>
2026-06-07 15:00:51,323 - INFO - <NMEA(GNGSA, opMode=M, navMode=3, svid_01=70, svid_02=86, svid_03=69, svid_04=84, svid_05=85, svid_06=71, svid_07=, svid_08=, svid_09=, svid_10=, svid_11=, svid_12=, PDOP=0.91, HDOP=0.52, VDOP=0.74, systemId=2)>
2026-06-07 15:00:51,323 - INFO - <NMEA(GNGSA, opMode=M, navMode=3, svid_01=3, svid_02=5, svid_03=8, svid_04=13, svid_05=15, svid_06=27, svid_07=34, svid_08=, svid_09=, svid_10=, svid_11=, svid_12=, PDOP=0.91, HDOP=0.52, VDOP=0.74, systemId=3)>
2026-06-07 15:00:51,324 - INFO - <NMEA(GNGSA, opMode=M, navMode=3, svid_01=27, svid_02=28, svid_03=33, svid_04=38, svid_05=41, svid_06=42, svid_07=13, svid_08=, svid_09=, svid_10=, svid_11=, svid_12=, PDOP=0.91, HDOP=0.52, VDOP=0.74, systemId=4)>
2026-06-07 15:00:51,324 - INFO - <NMEA(GNGSA, opMode=M, navMode=3, svid_01=, svid_02=, svid_03=, svid_04=, svid_05=, svid_06=, svid_07=, svid_08=, svid_09=, svid_10=, svid_11=, svid_12=, PDOP=0.91, HDOP=0.52, VDOP=0.74, systemId=5)>
2026-06-07 15:00:51,324 - INFO - <NMEA(GPGSV, numMsg=3, msgNum=1, numSV=11, svid_01=5, elv_01=16.0, az_01=64, cno_01=41, svid_02=10, elv_02=25.0, az_02=263, cno_02=39, svid_03=15, elv_03=62.0, az_03=63, cno_03=49, svid_04=18, elv_04=75.0, az_04=358, cno_04=44, signalID=1)>
2026-06-07 15:00:51,325 - INFO - <NMEA(GPGSV, numMsg=3, msgNum=2, numSV=11, svid_01=20, elv_01=35.0, az_01=49, cno_01=45, svid_02=23, elv_02=56.0, az_02=288, cno_02=50, svid_03=24, elv_03=19.0, az_03=130, cno_03=38, svid_04=29, elv_04=36.0, az_04=180, cno_04=32, signalID=1)>
2026-06-07 15:00:51,325 - INFO - <NMEA(GPGSV, numMsg=3, msgNum=3, numSV=11, svid_01=44, elv_01=42.0, az_01=210, cno_01=36, svid_02=46, elv_02=35.0, az_02=225, cno_02=40, svid_03=48, elv_03=38.0, az_03=220, cno_03=41, signalID=1)>
2026-06-07 15:00:51,326 - INFO - <NMEA(GPGSV, numMsg=3, msgNum=1, numSV=9, svid_01=5, elv_01=16.0, az_01=64, cno_01=35, svid_02=10, elv_02=25.0, az_02=263, cno_02=17, svid_03=15, elv_03=62.0, az_03=63, cno_03=40, svid_04=18, elv_04=75.0, az_04=358, cno_04=44, signalID=6)>
2026-06-07 15:00:51,326 - INFO - <NMEA(GPGSV, numMsg=3, msgNum=2, numSV=9, svid_01=20, elv_01=35.0, az_01=49, cno_01=43, svid_02=23, elv_02=56.0, az_02=288, cno_02=45, svid_03=24, elv_03=19.0, az_03=130, cno_03=30, svid_04=27, elv_04=12.0, az_04=320, cno_04=13, signalID=6)>
2026-06-07 15:00:51,327 - INFO - <NMEA(GPGSV, numMsg=3, msgNum=3, numSV=9, svid_01=29, elv_01=36.0, az_01=180, cno_01=29, signalID=6)>
2026-06-07 15:00:51,327 - INFO - <NMEA(GPGSV, numMsg=1, msgNum=1, numSV=1, svid_01=16, elv_01=7.0, az_01=288, cno_01=, signalID=0)>
2026-06-07 15:00:51,327 - INFO - <NMEA(GLGSV, numMsg=2, msgNum=1, numSV=6, svid_01=69, elv_01=17.0, az_01=32, cno_01=39, svid_02=70, elv_02=69.0, az_02=25, cno_02=48, svid_03=71, elv_03=45.0, az_03=219, cno_03=39, svid_04=84, elv_04=30.0, az_04=129, cno_04=43, signalID=1)>
2026-06-07 15:00:51,328 - INFO - <NMEA(GLGSV, numMsg=2, msgNum=2, numSV=6, svid_01=85, elv_01=74.0, az_01=89, cno_01=45, svid_02=86, elv_02=31.0, az_02=326, cno_02=38, signalID=1)>
2026-06-07 15:00:51,328 - INFO - <NMEA(GLGSV, numMsg=2, msgNum=1, numSV=6, svid_01=69, elv_01=17.0, az_01=32, cno_01=35, svid_02=70, elv_02=69.0, az_02=25, cno_02=40, svid_03=71, elv_03=45.0, az_03=219, cno_03=37, svid_04=84, elv_04=30.0, az_04=129, cno_04=33, signalID=3)>
2026-06-07 15:00:51,328 - INFO - <NMEA(GLGSV, numMsg=2, msgNum=2, numSV=6, svid_01=85, elv_01=74.0, az_01=89, cno_01=40, svid_02=86, elv_02=31.0, az_02=326, cno_02=34, signalID=3)>
2026-06-07 15:00:51,329 - INFO - <NMEA(GAGSV, numMsg=3, msgNum=1, numSV=11, svid_01=3, elv_01=59.0, az_01=144, cno_01=45, svid_02=5, elv_02=41.0, az_02=56, cno_02=42, svid_03=8, elv_03=19.0, az_03=193, cno_03=34, svid_04=13, elv_04=14.0, az_04=300, cno_04=26, signalID=2)>
2026-06-07 15:00:51,329 - INFO - <NMEA(GAGSV, numMsg=3, msgNum=2, numSV=11, svid_01=15, elv_01=62.0, az_01=334, cno_01=49, svid_02=21, elv_02=8.0, az_02=308, cno_02=20, svid_03=27, elv_03=15.0, az_03=259, cno_03=26, svid_04=30, elv_04=5.0, az_04=213, cno_04=9, signalID=2)>
2026-06-07 15:00:51,330 - INFO - <NMEA(GAGSV, numMsg=3, msgNum=3, numSV=11, svid_01=32, elv_01=40.0, az_01=178, cno_01=36, svid_02=34, elv_02=51.0, az_02=87, cno_02=47, svid_03=36, elv_03=4.0, az_03=108, cno_03=37, signalID=2)>
2026-06-07 15:00:51,330 - INFO - <NMEA(GAGSV, numMsg=3, msgNum=1, numSV=11, svid_01=3, elv_01=59.0, az_01=144, cno_01=18, svid_02=5, elv_02=41.0, az_02=56, cno_02=42, svid_03=8, elv_03=19.0, az_03=193, cno_03=36, svid_04=13, elv_04=14.0, az_04=300, cno_04=28, signalID=7)>
2026-06-07 15:00:51,331 - INFO - <NMEA(GAGSV, numMsg=3, msgNum=2, numSV=11, svid_01=15, elv_01=62.0, az_01=334, cno_01=46, svid_02=21, elv_02=8.0, az_02=308, cno_02=15, svid_03=27, elv_03=15.0, az_03=259, cno_03=34, svid_04=30, elv_04=5.0, az_04=213, cno_04=26, signalID=7)>
2026-06-07 15:00:51,331 - INFO - <NMEA(GAGSV, numMsg=3, msgNum=3, numSV=11, svid_01=32, elv_01=40.0, az_01=178, cno_01=34, svid_02=34, elv_02=51.0, az_02=87, cno_02=46, svid_03=36, elv_03=4.0, az_03=108, cno_03=41, signalID=7)>
2026-06-07 15:00:51,331 - INFO - <NMEA(GBGSV, numMsg=2, msgNum=1, numSV=7, svid_01=13, elv_01=57.0, az_01=150, cno_01=43, svid_02=27, elv_02=43.0, az_02=311, cno_02=47, svid_03=28, elv_03=83.0, az_03=229, cno_03=42, svid_04=33, elv_04=70.0, az_04=38, cno_04=46, signalID=1)>
2026-06-07 15:00:51,332 - INFO - <NMEA(GBGSV, numMsg=2, msgNum=2, numSV=7, svid_01=38, elv_01=30.0, az_01=146, cno_01=40, svid_02=41, elv_02=55.0, az_02=232, cno_02=43, svid_03=42, elv_03=15.0, az_03=46, cno_03=40, signalID=1)>
2026-06-07 15:00:51,332 - INFO - <NMEA(GQGSV, numMsg=1, msgNum=1, numSV=0, signalID=0)>
2026-06-07 15:00:51,332 - INFO - <NMEA(GNGLL, lat=37.9008465, NS=N, lon=-97.664184, EW=W, time=20:00:50.800000, status=A, posMode=D)>
2026-06-07 15:00:51,333 - INFO - <UBX(NAV-RELPOSNED, version=1, reserved0=0, refStationID=0, iTOW=20:00:50.800000, relPosN=20.06, relPosE=-56.54, relPosD=-6.64, relPosLength=60.36, relPosHeading=289.53556, reserved1=0, accN=10.0, accE=10.0, accD=13.7, accLength=10.1, accHeading=0.95498, reserved2=0, gnssFixOK=1, diffSoln=1, relPosValid=1, carrSoln=2, isMoving=1, refPosMiss=0, refObsMiss=0, relPosHeadingValid=1, relPosNormalized=0)>
2026-06-07 15:00:51,334 - INFO - 2026-06-07 15:00:51 Initial Moving Baseline state: active
2026-06-07 15:00:51,334 - INFO - 2026-06-07 15:00:51 Initial carrier solution: fixed
2026-06-07 15:00:51,334 - INFO - 2026-06-07 15:00:51, current_target: {'timestamp': '2026-05-10 13:40:05', 'lat': 37.9008713333, 'lon': -97.66418, 'speed': 0.004629996, 'y_offset': 0.0, 'x_offset': 0.0, 'z_offset': 0.0, 'heading': 1.76477}, next_target: {'timestamp': '2026-05-10 13:40:06', 'lat': 37.9008713333, 'lon': -97.66418, 'speed': 0.00514444, 'y_offset': 0.0, 'x_offset': 0.0, 'z_offset': 0.0, 'heading': 1.76299}
2026-06-07 15:00:51,334 - INFO - <UBX(RXM-RTCM, version=2, crcFailed=0, msgUsed=2, subType=0, refStation=0, msgType=4072)>
2026-06-07 15:00:51,334 - INFO - 2026-06-07 15:00:51, current_target: {'timestamp': '2026-05-10 13:40:05', 'lat': 37.9008713333, 'lon': -97.66418, 'speed': 0.004629996, 'y_offset': 0.0, 'x_offset': 0.0, 'z_offset': 0.0, 'heading': 1.76477}, next_target: {'timestamp': '2026-05-10 13:40:06', 'lat': 37.9008713333, 'lon': -97.66418, 'speed': 0.00514444, 'y_offset': 0.0, 'x_offset': 0.0, 'z_offset': 0.0, 'heading': 1.76299}
2026-06-07 15:00:51,334 - INFO - 2026-06-07 15:00:51 [3.4 OBSERVED] current_turn_radius: infm
2026-06-07 15:00:51,334 - INFO - 2026-06-07 15:00:51 [3.4 OBSERVED] turn_direction: STRAIGHT
2026-06-07 15:00:51,334 - INFO - 2026-06-07 15:00:51 [3.4 OBSERVED] estimated left/right wheel speeds: 0.006, 0.006 rad/s
2026-06-07 15:00:51,338 - INFO - 2026-06-07 15:00:51 [STATE] Current state: NAVIGATING_TO_START
2026-06-07 15:00:51,338 - INFO - 2026-06-07 15:00:51 [NAV_TO_START] Phase: PIVOT_TO_BEARING, Dist: 2.779m, Bearing err: 77.7°, Heading diff: 72.2°, Elapsed: 0.0s
2026-06-07 15:00:51,338 - INFO - 2026-06-07 15:00:51 [NAV_TO_START] PIVOT_TO_BEARING RIGHT: heading=289.5°, bearing=7.3°, error=77.7°, force=aggressive
2026-06-07 15:00:51,352 - INFO - goto_positions: M1=830, M2=1370 [Pivot to bearing RIGHT]
2026-06-07 15:00:51,352 - INFO - <UBX(RXM-RTCM, version=2, crcFailed=0, msgUsed=2, subType=0, refStation=0, msgType=1074)>
2026-06-07 15:00:51,352 - INFO - <UBX(RXM-RTCM, version=2, crcFailed=0, msgUsed=2, subType=0, refStation=0, msgType=1084)>
2026-06-07 15:00:51,352 - INFO - <UBX(RXM-RTCM, version=2, crcFailed=0, msgUsed=2, subType=0, refStation=0, msgType=1094)>
2026-06-07 15:00:51,352 - INFO - <UBX(RXM-RTCM, version=2, crcFailed=0, msgUsed=2, subType=0, refStation=0, msgType=1124)>
2026-06-07 15:00:51,352 - INFO - <UBX(RXM-RTCM, version=2, crcFailed=0, msgUsed=2, subType=0, refStation=0, msgType=1230)>
2026-06-07 15:00:51,353 - INFO - <UBX(NAV-PVT, iTOW=20:00:51, year=2026, month=6, day=7, hour=20, min=0, second=51, validDate=1, validTime=1, fullyResolved=1, validMag=0, tAcc=22, nano=174503, fixType=3, gnssFixOk=1, diffSoln=1, psmState=0, headVehValid=0, carrSoln=2, confirmedAvai=1, confirmedDate=1, confirmedTime=1, numSV=28, lon=-97.6641839, lat=37.9008465, height=409415, hMSL=435668, hAcc=82, vAcc=105, velN=-4, velE=-6, velD=8, gSpeed=7, headMot=345.39656, sAcc=77, headAcc=180.0, pDOP=0.91, invalidLlh=0, lastCorrectionAge=1, reserved0=860630572, headVeh=0.0, magDec=0.0, magAcc=0.0)>
2026-06-07 15:00:51,353 - INFO - <NMEA(GNRMC, time=20:00:51, status=A, lat=37.9008465, NS=N, lon=-97.664184, EW=W, spd=0.014, cog=, date=2026-06-07, mv=, mvEW=, posMode=R, navStatus=V)>
2026-06-07 15:00:51,354 - INFO - <NMEA(GNVTG, cogt=, cogtUnit=T, cogm=, cogmUnit=M, sogn=0.014, sognUnit=N, sogk=0.026, sogkUnit=K, posMode=D)>
2026-06-07 15:00:51,354 - INFO - <NMEA(GNGGA, time=20:00:51, lat=37.9008465, NS=N, lon=-97.664184, EW=W, quality=4, numSV=12, HDOP=0.52, alt=435.7, altUnit=M, sep=-26.3, sepUnit=M, diffAge=0.2, diffStation=0)>
2026-06-07 15:00:51,355 - INFO - <NMEA(GNGSA, opMode=M, navMode=3, svid_01=5, svid_02=10, svid_03=15, svid_04=18, svid_05=20, svid_06=23, svid_07=24, svid_08=29, svid_09=, svid_10=, svid_11=, svid_12=, PDOP=0.91, HDOP=0.52, VDOP=0.74, systemId=1)>
2026-06-07 15:00:51,355 - INFO - <NMEA(GNGSA, opMode=M, navMode=3, svid_01=70, svid_02=86, svid_03=69, svid_04=84, svid_05=85, svid_06=71, svid_07=, svid_08=, svid_09=, svid_10=, svid_11=, svid_12=, PDOP=0.91, HDOP=0.52, VDOP=0.74, systemId=2)>
2026-06-07 15:00:51,355 - INFO - <NMEA(GNGSA, opMode=M, navMode=3, svid_01=3, svid_02=5, svid_03=8, svid_04=13, svid_05=15, svid_06=27, svid_07=34, svid_08=, svid_09=, svid_10=, svid_11=, svid_12=, PDOP=0.91, HDOP=0.52, VDOP=0.74, systemId=3)>
2026-06-07 15:00:51,356 - INFO - <NMEA(GNGSA, opMode=M, navMode=3, svid_01=27, svid_02=28, svid_03=33, svid_04=38, svid_05=41, svid_06=42, svid_07=13, svid_08=, svid_09=, svid_10=, svid_11=, svid_12=, PDOP=0.91, HDOP=0.52, VDOP=0.74, systemId=4)>
2026-06-07 15:00:51,356 - INFO - <NMEA(GNGSA, opMode=M, navMode=3, svid_01=, svid_02=, svid_03=, svid_04=, svid_05=, svid_06=, svid_07=, svid_08=, svid_09=, svid_10=, svid_11=, svid_12=, PDOP=0.91, HDOP=0.52, VDOP=0.74, systemId=5)>
2026-06-07 15:00:51,357 - INFO - <NMEA(GPGSV, numMsg=3, msgNum=1, numSV=11, svid_01=5, elv_01=16.0, az_01=64, cno_01=41, svid_02=10, elv_02=25.0, az_02=263, cno_02=41, svid_03=15, elv_03=62.0, az_03=63, cno_03=49, svid_04=18, elv_04=75.0, az_04=358, cno_04=44, signalID=1)>
2026-06-07 15:00:51,357 - INFO - <NMEA(GPGSV, numMsg=3, msgNum=2, numSV=11, svid_01=20, elv_01=35.0, az_01=49, cno_01=45, svid_02=23, elv_02=56.0, az_02=288, cno_02=50, svid_03=24, elv_03=19.0, az_03=130, cno_03=38, svid_04=29, elv_04=36.0, az_04=180, cno_04=32, signalID=1)>
2026-06-07 15:00:51,357 - INFO - <NMEA(GPGSV, numMsg=3, msgNum=3, numSV=11, svid_01=44, elv_01=42.0, az_01=210, cno_01=36, svid_02=46, elv_02=35.0, az_02=225, cno_02=40, svid_03=48, elv_03=38.0, az_03=220, cno_03=40, signalID=1)>
2026-06-07 15:00:51,358 - INFO - <NMEA(GPGSV, numMsg=3, msgNum=1, numSV=9, svid_01=5, elv_01=16.0, az_01=64, cno_01=35, svid_02=10, elv_02=25.0, az_02=263, cno_02=17, svid_03=15, elv_03=62.0, az_03=63, cno_03=40, svid_04=18, elv_04=75.0, az_04=358, cno_04=44, signalID=6)>
2026-06-07 15:00:51,358 - INFO - <NMEA(GPGSV, numMsg=3, msgNum=2, numSV=9, svid_01=20, elv_01=35.0, az_01=49, cno_01=43, svid_02=23, elv_02=56.0, az_02=288, cno_02=45, svid_03=24, elv_03=19.0, az_03=130, cno_03=30, svid_04=27, elv_04=12.0, az_04=320, cno_04=12, signalID=6)>
2026-06-07 15:00:51,359 - INFO - <NMEA(GPGSV, numMsg=3, msgNum=3, numSV=9, svid_01=29, elv_01=36.0, az_01=180, cno_01=29, signalID=6)>
2026-06-07 15:00:51,359 - INFO - <NMEA(GPGSV, numMsg=1, msgNum=1, numSV=1, svid_01=16, elv_01=7.0, az_01=288, cno_01=, signalID=0)>
2026-06-07 15:00:51,359 - INFO - <NMEA(GLGSV, numMsg=2, msgNum=1, numSV=6, svid_01=69, elv_01=17.0, az_01=32, cno_01=39, svid_02=70, elv_02=69.0, az_02=25, cno_02=48, svid_03=71, elv_03=45.0, az_03=219, cno_03=40, svid_04=84, elv_04=30.0, az_04=129, cno_04=43, signalID=1)>
2026-06-07 15:00:51,360 - INFO - <NMEA(GLGSV, numMsg=2, msgNum=2, numSV=6, svid_01=85, elv_01=74.0, az_01=89, cno_01=45, svid_02=86, elv_02=31.0, az_02=326, cno_02=38, signalID=1)>
2026-06-07 15:00:51,360 - INFO - <NMEA(GLGSV, numMsg=2, msgNum=1, numSV=6, svid_01=69, elv_01=17.0, az_01=32, cno_01=35, svid_02=70, elv_02=69.0, az_02=25, cno_02=40, svid_03=71, elv_03=45.0, az_03=219, cno_03=37, svid_04=84, elv_04=30.0, az_04=129, cno_04=33, signalID=3)>
2026-06-07 15:00:51,361 - INFO - <NMEA(GLGSV, numMsg=2, msgNum=2, numSV=6, svid_01=85, elv_01=74.0, az_01=89, cno_01=40, svid_02=86, elv_02=31.0, az_02=326, cno_02=34, signalID=3)>
2026-06-07 15:00:51,361 - INFO - <NMEA(GAGSV, numMsg=3, msgNum=1, numSV=11, svid_01=3, elv_01=59.0, az_01=144, cno_01=45, svid_02=5, elv_02=41.0, az_02=56, cno_02=42, svid_03=8, elv_03=19.0, az_03=193, cno_03=34, svid_04=13, elv_04=14.0, az_04=300, cno_04=26, signalID=2)>
2026-06-07 15:00:51,362 - INFO - <NMEA(GAGSV, numMsg=3, msgNum=2, numSV=11, svid_01=15, elv_01=62.0, az_01=334, cno_01=49, svid_02=21, elv_02=8.0, az_02=308, cno_02=20, svid_03=27, elv_03=15.0, az_03=259, cno_03=26, svid_04=30, elv_04=5.0, az_04=213, cno_04=10, signalID=2)>
2026-06-07 15:00:51,362 - INFO - <NMEA(GAGSV, numMsg=3, msgNum=3, numSV=11, svid_01=32, elv_01=40.0, az_01=178, cno_01=36, svid_02=34, elv_02=51.0, az_02=87, cno_02=47, svid_03=36, elv_03=4.0, az_03=108, cno_03=37, signalID=2)>
2026-06-07 15:00:51,362 - INFO - <NMEA(GAGSV, numMsg=3, msgNum=1, numSV=11, svid_01=3, elv_01=59.0, az_01=144, cno_01=18, svid_02=5, elv_02=41.0, az_02=56, cno_02=42, svid_03=8, elv_03=19.0, az_03=193, cno_03=36, svid_04=13, elv_04=14.0, az_04=300, cno_04=28, signalID=7)>
2026-06-07 15:00:51,363 - INFO - <NMEA(GAGSV, numMsg=3, msgNum=2, numSV=11, svid_01=15, elv_01=62.0, az_01=334, cno_01=46, svid_02=21, elv_02=8.0, az_02=308, cno_02=14, svid_03=27, elv_03=15.0, az_03=259, cno_03=34, svid_04=30, elv_04=5.0, az_04=213, cno_04=26, signalID=7)>
2026-06-07 15:00:51,363 - INFO - <UBX(RXM-RTCM, version=2, crcFailed=0, msgUsed=2, subType=0, refStation=0, msgType=4072)>
2026-06-07 15:00:51,364 - INFO - <NMEA(GAGSV, numMsg=3, msgNum=3, numSV=11, svid_01=32, elv_01=40.0, az_01=178, cno_01=34, svid_02=34, elv_02=51.0, az_02=87, cno_02=46, svid_03=36, elv_03=4.0, az_03=108, cno_03=41, signalID=7)>
2026-06-07 15:00:51,364 - INFO - <NMEA(GBGSV, numMsg=2, msgNum=1, numSV=7, svid_01=13, elv_01=57.0, az_01=150, cno_01=43, svid_02=27, elv_02=43.0, az_02=311, cno_02=47, svid_03=28, elv_03=83.0, az_03=229, cno_03=42, svid_04=33, elv_04=70.0, az_04=38, cno_04=46, signalID=1)>
2026-06-07 15:00:51,365 - INFO - <NMEA(GBGSV, numMsg=2, msgNum=2, numSV=7, svid_01=38, elv_01=30.0, az_01=146, cno_01=40, svid_02=41, elv_02=55.0, az_02=232, cno_02=43, svid_03=42, elv_03=15.0, az_03=46, cno_03=40, signalID=1)>
2026-06-07 15:00:51,365 - INFO - <NMEA(GQGSV, numMsg=1, msgNum=1, numSV=0, signalID=0)>
2026-06-07 15:00:51,365 - INFO - <NMEA(GNGLL, lat=37.9008465, NS=N, lon=-97.664184, EW=W, time=20:00:51, status=A, posMode=D)>
2026-06-07 15:00:51,365 - INFO - <UBX(NAV-RELPOSNED, version=1, reserved0=0, refStationID=0, iTOW=20:00:51, relPosN=20.08, relPosE=-56.72, relPosD=-6.44, relPosLength=60.51, relPosHeading=289.49076, reserved1=0, accN=10.0, accE=10.0, accD=13.8, accLength=10.1, accHeading=0.95226, reserved2=0, gnssFixOK=1, diffSoln=1, relPosValid=1, carrSoln=2, isMoving=1, refPosMiss=0, refObsMiss=0, relPosHeadingValid=1, relPosNormalized=0)>
2026-06-07 15:00:51,367 - INFO - 2026-06-07 15:00:51, current_target: {'timestamp': '2026-05-10 13:40:05', 'lat': 37.9008713333, 'lon': -97.66418, 'speed': 0.004629996, 'y_offset': 0.0, 'x_offset': 0.0, 'z_offset': 0.0, 'heading': 1.76477}, next_target: {'timestamp': '2026-05-10 13:40:06', 'lat': 37.9008713333, 'lon': -97.66418, 'speed': 0.00514444, 'y_offset': 0.0, 'x_offset': 0.0, 'z_offset': 0.0, 'heading': 1.76299}
2026-06-07 15:00:51,367 - INFO - 2026-06-07 15:00:51 [3.4 OBSERVED] current_turn_radius: infm
2026-06-07 15:00:51,367 - INFO - 2026-06-07 15:00:51 [3.4 OBSERVED] turn_direction: LEFT
2026-06-07 15:00:51,367 - INFO - 2026-06-07 15:00:51 [3.4 OBSERVED] estimated left/right wheel speeds: nan, nan rad/s
2026-06-07 15:00:51,369 - INFO - 2026-06-07 15:00:51 [STATE] Current state: NAVIGATING_TO_START
2026-06-07 15:00:51,369 - INFO - 2026-06-07 15:00:51 [NAV_TO_START] Phase: PIVOT_TO_BEARING, Dist: 2.779m, Bearing err: 77.8°, Heading diff: 72.3°, Elapsed: 0.1s
2026-06-07 15:00:51,369 - INFO - 2026-06-07 15:00:51 [NAV_TO_START] PIVOT_TO_BEARING RIGHT: heading=289.5°, bearing=7.3°, error=77.8°, force=aggressive
2026-06-07 15:00:51,382 - INFO - goto_positions: M1=830, M2=1370 [Pivot to bearing RIGHT]
2026-06-07 15:00:51,382 - INFO - <UBX(RXM-RTCM, version=2, crcFailed=0, msgUsed=2, subType=0, refStation=0, msgType=1074)>
2026-06-07 15:00:51,382 - INFO - <UBX(RXM-RTCM, version=2, crcFailed=0, msgUsed=2, subType=0, refStation=0, msgType=1084)>
2026-06-07 15:00:51,382 - INFO - <UBX(RXM-RTCM, version=2, crcFailed=0, msgUsed=2, subType=0, refStation=0, msgType=1094)>
2026-06-07 15:00:51,382 - INFO - <UBX(RXM-RTCM, version=2, crcFailed=0, msgUsed=2, subType=0, refStation=0, msgType=1124)>
2026-06-07 15:00:51,383 - INFO - <UBX(RXM-RTCM, version=2, crcFailed=0, msgUsed=2, subType=0, refStation=0, msgType=1230)>
2026-06-07 15:00:51,383 - INFO - <UBX(NAV-PVT, iTOW=20:00:51.200000, year=2026, month=6, day=7, hour=20, min=0, second=51, validDate=1, validTime=1, fullyResolved=1, validMag=0, tAcc=22, nano=200174459, fixType=3, gnssFixOk=1, diffSoln=1, psmState=0, headVehValid=0, carrSoln=2, confirmedAvai=1, confirmedDate=1, confirmedTime=1, numSV=28, lon=-97.6641839, lat=37.9008465, height=409414, hMSL=435667, hAcc=80, vAcc=102, velN=6, velE=-1, velD=12, gSpeed=6, headMot=345.39656, sAcc=89, headAcc=180.0, pDOP=0.91, invalidLlh=0, lastCorrectionAge=1, reserved0=860630572, headVeh=0.0, magDec=0.0, magAcc=0.0)>
2026-06-07 15:00:51,383 - INFO - <NMEA(GNRMC, time=20:00:51.200000, status=A, lat=37.9008465, NS=N, lon=-97.664184, EW=W, spd=0.012, cog=, date=2026-06-07, mv=, mvEW=, posMode=R, navStatus=V)>
2026-06-07 15:00:51,384 - INFO - <NMEA(GNVTG, cogt=, cogtUnit=T, cogm=, cogmUnit=M, sogn=0.012, sognUnit=N, sogk=0.023, sogkUnit=K, posMode=D)>
2026-06-07 15:00:51,384 - INFO - <NMEA(GNGGA, time=20:00:51.200000, lat=37.9008465, NS=N, lon=-97.664184, EW=W, quality=4, numSV=12, HDOP=0.52, alt=435.7, altUnit=M, sep=-26.3, sepUnit=M, diffAge=0.2, diffStation=0)>
2026-06-07 15:00:51,385 - INFO - <NMEA(GNGSA, opMode=M, navMode=3, svid_01=5, svid_02=10, svid_03=15, svid_04=18, svid_05=20, svid_06=23, svid_07=24, svid_08=29, svid_09=, svid_10=, svid_11=, svid_12=, PDOP=0.91, HDOP=0.52, VDOP=0.74, systemId=1)>
2026-06-07 15:00:51,385 - INFO - <NMEA(GNGSA, opMode=M, navMode=3, svid_01=70, svid_02=86, svid_03=69, svid_04=84, svid_05=85, svid_06=71, svid_07=, svid_08=, svid_09=, svid_10=, svid_11=, svid_12=, PDOP=0.91, HDOP=0.52, VDOP=0.74, systemId=2)>
2026-06-07 15:00:51,385 - INFO - <NMEA(GNGSA, opMode=M, navMode=3, svid_01=3, svid_02=5, svid_03=8, svid_04=13, svid_05=15, svid_06=27, svid_07=34, svid_08=, svid_09=, svid_10=, svid_11=, svid_12=, PDOP=0.91, HDOP=0.52, VDOP=0.74, systemId=3)>
2026-06-07 15:00:51,386 - INFO - <NMEA(GNGSA, opMode=M, navMode=3, svid_01=27, svid_02=28, svid_03=33, svid_04=38, svid_05=41, svid_06=42, svid_07=13, svid_08=, svid_09=, svid_10=, svid_11=, svid_12=, PDOP=0.91, HDOP=0.52, VDOP=0.74, systemId=4)>
2026-06-07 15:00:51,386 - INFO - <NMEA(GNGSA, opMode=M, navMode=3, svid_01=, svid_02=, svid_03=, svid_04=, svid_05=, svid_06=, svid_07=, svid_08=, svid_09=, svid_10=, svid_11=, svid_12=, PDOP=0.91, HDOP=0.52, VDOP=0.74, systemId=5)>
2026-06-07 15:00:51,387 - INFO - <NMEA(GPGSV, numMsg=3, msgNum=1, numSV=11, svid_01=5, elv_01=16.0, az_01=64, cno_01=41, svid_02=10, elv_02=25.0, az_02=263, cno_02=41, svid_03=15, elv_03=62.0, az_03=63, cno_03=50, svid_04=18, elv_04=75.0, az_04=358, cno_04=44, signalID=1)>
2026-06-07 15:00:51,387 - INFO - <NMEA(GPGSV, numMsg=3, msgNum=2, numSV=11, svid_01=20, elv_01=35.0, az_01=49, cno_01=45, svid_02=23, elv_02=56.0, az_02=288, cno_02=50, svid_03=24, elv_03=19.0, az_03=130, cno_03=38, svid_04=29, elv_04=36.0, az_04=180, cno_04=32, signalID=1)>
2026-06-07 15:00:51,388 - INFO - <NMEA(GPGSV, numMsg=3, msgNum=3, numSV=11, svid_01=44, elv_01=42.0, az_01=210, cno_01=36, svid_02=46, elv_02=35.0, az_02=225, cno_02=41, svid_03=48, elv_03=38.0, az_03=220, cno_03=40, signalID=1)>
2026-06-07 15:00:51,388 - INFO - <NMEA(GPGSV, numMsg=3, msgNum=1, numSV=9, svid_01=5, elv_01=16.0, az_01=64, cno_01=35, svid_02=10, elv_02=25.0, az_02=263, cno_02=17, svid_03=15, elv_03=62.0, az_03=63, cno_03=40, svid_04=18, elv_04=75.0, az_04=358, cno_04=44, signalID=6)>
2026-06-07 15:00:51,389 - INFO - <NMEA(GPGSV, numMsg=3, msgNum=2, numSV=9, svid_01=20, elv_01=35.0, az_01=49, cno_01=43, svid_02=23, elv_02=56.0, az_02=288, cno_02=45, svid_03=24, elv_03=19.0, az_03=130, cno_03=29, svid_04=27, elv_04=12.0, az_04=320, cno_04=12, signalID=6)>
2026-06-07 15:00:51,389 - INFO - <NMEA(GPGSV, numMsg=3, msgNum=3, numSV=9, svid_01=29, elv_01=36.0, az_01=180, cno_01=29, signalID=6)>
2026-06-07 15:00:51,389 - INFO - <NMEA(GPGSV, numMsg=1, msgNum=1, numSV=1, svid_01=16, elv_01=7.0, az_01=288, cno_01=, signalID=0)>
2026-06-07 15:00:51,389 - INFO - <NMEA(GLGSV, numMsg=2, msgNum=1, numSV=6, svid_01=69, elv_01=17.0, az_01=32, cno_01=39, svid_02=70, elv_02=69.0, az_02=25, cno_02=47, svid_03=71, elv_03=45.0, az_03=219, cno_03=40, svid_04=84, elv_04=30.0, az_04=129, cno_04=43, signalID=1)>
2026-06-07 15:00:51,390 - INFO - <NMEA(GLGSV, numMsg=2, msgNum=2, numSV=6, svid_01=85, elv_01=74.0, az_01=89, cno_01=44, svid_02=86, elv_02=31.0, az_02=326, cno_02=39, signalID=1)>
2026-06-07 15:00:51,390 - INFO - <NMEA(GLGSV, numMsg=2, msgNum=1, numSV=6, svid_01=69, elv_01=17.0, az_01=32, cno_01=35, svid_02=70, elv_02=69.0, az_02=25, cno_02=40, svid_03=71, elv_03=45.0, az_03=219, cno_03=37, svid_04=84, elv_04=30.0, az_04=129, cno_04=33, signalID=3)>
2026-06-07 15:00:51,391 - INFO - <NMEA(GLGSV, numMsg=2, msgNum=2, numSV=6, svid_01=85, elv_01=74.0, az_01=89, cno_01=40, svid_02=86, elv_02=31.0, az_02=326, cno_02=34, signalID=3)>
2026-06-07 15:00:51,391 - INFO - <NMEA(GAGSV, numMsg=3, msgNum=1, numSV=11, svid_01=3, elv_01=59.0, az_01=144, cno_01=45, svid_02=5, elv_02=41.0, az_02=56, cno_02=42, svid_03=8, elv_03=19.0, az_03=193, cno_03=34, svid_04=13, elv_04=14.0, az_04=300, cno_04=26, signalID=2)>
2026-06-07 15:00:51,392 - INFO - <NMEA(GAGSV, numMsg=3, msgNum=2, numSV=11, svid_01=15, elv_01=62.0, az_01=334, cno_01=49, svid_02=21, elv_02=8.0, az_02=308, cno_02=20, svid_03=27, elv_03=15.0, az_03=259, cno_03=26, svid_04=30, elv_04=5.0, az_04=213, cno_04=11, signalID=2)>
2026-06-07 15:00:51,392 - INFO - <NMEA(GAGSV, numMsg=3, msgNum=3, numSV=11, svid_01=32, elv_01=40.0, az_01=178, cno_01=36, svid_02=34, elv_02=51.0, az_02=87, cno_02=47, svid_03=36, elv_03=4.0, az_03=108, cno_03=37, signalID=2)>
2026-06-07 15:00:51,392 - INFO - <NMEA(GAGSV, numMsg=3, msgNum=1, numSV=11, svid_01=3, elv_01=59.0, az_01=144, cno_01=18, svid_02=5, elv_02=41.0, az_02=56, cno_02=42, svid_03=8, elv_03=19.0, az_03=193, cno_03=36, svid_04=13, elv_04=14.0, az_04=300, cno_04=28, signalID=7)>
2026-06-07 15:00:51,393 - INFO - <NMEA(GAGSV, numMsg=3, msgNum=2, numSV=11, svid_01=15, elv_01=62.0, az_01=334, cno_01=46, svid_02=21, elv_02=8.0, az_02=308, cno_02=14, svid_03=27, elv_03=15.0, az_03=259, cno_03=34, svid_04=30, elv_04=5.0, az_04=213, cno_04=26, signalID=7)>
2026-06-07 15:00:51,393 - INFO - <NMEA(GAGSV, numMsg=3, msgNum=3, numSV=11, svid_01=32, elv_01=40.0, az_01=178, cno_01=34, svid_02=34, elv_02=51.0, az_02=87, cno_02=45, svid_03=36, elv_03=4.0, az_03=108, cno_03=41, signalID=7)>
2026-06-07 15:00:51,394 - INFO - <NMEA(GBGSV, numMsg=2, msgNum=1, numSV=7, svid_01=13, elv_01=57.0, az_01=150, cno_01=43, svid_02=27, elv_02=43.0, az_02=311, cno_02=47, svid_03=28, elv_03=83.0, az_03=229, cno_03=42, svid_04=33, elv_04=70.0, az_04=38, cno_04=46, signalID=1)>
2026-06-07 15:00:51,394 - INFO - <NMEA(GBGSV, numMsg=2, msgNum=2, numSV=7, svid_01=38, elv_01=30.0, az_01=146, cno_01=40, svid_02=41, elv_02=55.0, az_02=232, cno_02=42, svid_03=42, elv_03=15.0, az_03=46, cno_03=39, signalID=1)>
2026-06-07 15:00:51,394 - INFO - <NMEA(GQGSV, numMsg=1, msgNum=1, numSV=0, signalID=0)>
2026-06-07 15:00:51,395 - INFO - <NMEA(GNGLL, lat=37.9008465, NS=N, lon=-97.664184, EW=W, time=20:00:51.200000, status=A, posMode=D)>
2026-06-07 15:00:51,395 - INFO - <UBX(NAV-RELPOSNED, version=1, reserved0=0, refStationID=0, iTOW=20:00:51.200000, relPosN=20.51, relPosE=-56.85, relPosD=-6.1, relPosLength=60.74, relPosHeading=289.83454, reserved1=0, accN=10.0, accE=10.0, accD=13.8, accLength=10.0, accHeading=0.94801, reserved2=0, gnssFixOK=1, diffSoln=1, relPosValid=1, carrSoln=2, isMoving=1, refPosMiss=0, refObsMiss=0, relPosHeadingValid=1, relPosNormalized=0)>
2026-06-07 15:00:51,396 - INFO - 2026-06-07 15:00:51, current_target: {'timestamp': '2026-05-10 13:40:05', 'lat': 37.9008713333, 'lon': -97.66418, 'speed': 0.004629996, 'y_offset': 0.0, 'x_offset': 0.0, 'z_offset': 0.0, 'heading': 1.76477}, next_target: {'timestamp': '2026-05-10 13:40:06', 'lat': 37.9008713333, 'lon': -97.66418, 'speed': 0.00514444, 'y_offset': 0.0, 'x_offset': 0.0, 'z_offset': 0.0, 'heading': 1.76299}
2026-06-07 15:00:51,396 - INFO - 2026-06-07 15:00:51 [3.4 OBSERVED] current_turn_radius: infm
2026-06-07 15:00:51,396 - INFO - 2026-06-07 15:00:51 [3.4 OBSERVED] turn_direction: RIGHT
2026-06-07 15:00:51,396 - INFO - 2026-06-07 15:00:51 [3.4 OBSERVED] estimated left/right wheel speeds: nan, nan rad/s
2026-06-07 15:00:51,399 - INFO - 2026-06-07 15:00:51 [STATE] Current state: NAVIGATING_TO_START
2026-06-07 15:00:51,399 - INFO - 2026-06-07 15:00:51 [NAV_TO_START] Phase: PIVOT_TO_BEARING, Dist: 2.779m, Bearing err: 77.4°, Heading diff: 71.9°, Elapsed: 0.1s
2026-06-07 15:00:51,399 - INFO - 2026-06-07 15:00:51 [NAV_TO_START] PIVOT_TO_BEARING RIGHT: heading=289.8°, bearing=7.3°, error=77.4°, force=aggressive
2026-06-07 15:00:51,412 - INFO - goto_positions: M1=830, M2=1370 [Pivot to bearing RIGHT]
2026-06-07 15:00:51,412 - INFO - <UBX(RXM-RTCM, version=2, crcFailed=0, msgUsed=2, subType=0, refStation=0, msgType=4072)>
2026-06-07 15:00:51,440 - INFO - <UBX(RXM-RTCM, version=2, crcFailed=0, msgUsed=2, subType=0, refStation=0, msgType=1074)>
2026-06-07 15:00:51,443 - INFO - <UBX(RXM-RTCM, version=2, crcFailed=0, msgUsed=2, subType=0, refStation=0, msgType=1084)>
2026-06-07 15:00:51,446 - INFO - <UBX(RXM-RTCM, version=2, crcFailed=0, msgUsed=2, subType=0, refStation=0, msgType=1094)>
2026-06-07 15:00:51,447 - INFO - <UBX(RXM-RTCM, version=2, crcFailed=0, msgUsed=2, subType=0, refStation=0, msgType=1124)>
2026-06-07 15:00:51,447 - INFO - <UBX(RXM-RTCM, version=2, crcFailed=0, msgUsed=2, subType=0, refStation=0, msgType=1230)>
2026-06-07 15:00:51,496 - INFO - <UBX(NAV-PVT, iTOW=20:00:51.400000, year=2026, month=6, day=7, hour=20, min=0, second=51, validDate=1, validTime=1, fullyResolved=1, validMag=0, tAcc=22, nano=400174415, fixType=3, gnssFixOk=1, diffSoln=1, psmState=0, headVehValid=0, carrSoln=2, confirmedAvai=1, confirmedDate=1, confirmedTime=1, numSV=28, lon=-97.6641839, lat=37.9008465, height=409404, hMSL=435657, hAcc=84, vAcc=108, velN=-2, velE=3, velD=18, gSpeed=4, headMot=345.39656, sAcc=84, headAcc=180.0, pDOP=0.91, invalidLlh=0, lastCorrectionAge=1, reserved0=860630572, headVeh=0.0, magDec=0.0, magAcc=0.0)>
2026-06-07 15:00:51,496 - INFO - <UBX(RXM-RTCM, version=2, crcFailed=0, msgUsed=2, subType=0, refStation=0, msgType=4072)>
2026-06-07 15:00:51,497 - INFO - <NMEA(GNRMC, time=20:00:51.400000, status=A, lat=37.9008465, NS=N, lon=-97.6641838333, EW=W, spd=0.007, cog=, date=2026-06-07, mv=, mvEW=, posMode=R, navStatus=V)>
2026-06-07 15:00:51,498 - INFO - <NMEA(GNVTG, cogt=, cogtUnit=T, cogm=, cogmUnit=M, sogn=0.007, sognUnit=N, sogk=0.014, sogkUnit=K, posMode=D)>
2026-06-07 15:00:51,498 - INFO - <NMEA(GNGGA, time=20:00:51.400000, lat=37.9008465, NS=N, lon=-97.6641838333, EW=W, quality=4, numSV=12, HDOP=0.52, alt=435.7, altUnit=M, sep=-26.3, sepUnit=M, diffAge=0.2, diffStation=0)>
2026-06-07 15:00:51,499 - INFO - <NMEA(GNGSA, opMode=M, navMode=3, svid_01=5, svid_02=10, svid_03=15, svid_04=18, svid_05=20, svid_06=23, svid_07=24, svid_08=29, svid_09=, svid_10=, svid_11=, svid_12=, PDOP=0.91, HDOP=0.52, VDOP=0.74, systemId=1)>
2026-06-07 15:00:51,499 - INFO - <NMEA(GNGSA, opMode=M, navMode=3, svid_01=70, svid_02=86, svid_03=69, svid_04=84, svid_05=85, svid_06=71, svid_07=, svid_08=, svid_09=, svid_10=, svid_11=, svid_12=, PDOP=0.91, HDOP=0.52, VDOP=0.74, systemId=2)>
2026-06-07 15:00:51,500 - INFO - <NMEA(GNGSA, opMode=M, navMode=3, svid_01=3, svid_02=5, svid_03=8, svid_04=13, svid_05=15, svid_06=27, svid_07=34, svid_08=, svid_09=, svid_10=, svid_11=, svid_12=, PDOP=0.91, HDOP=0.52, VDOP=0.74, systemId=3)>
2026-06-07 15:00:51,500 - INFO - <NMEA(GNGSA, opMode=M, navMode=3, svid_01=27, svid_02=28, svid_03=33, svid_04=38, svid_05=41, svid_06=42, svid_07=13, svid_08=, svid_09=, svid_10=, svid_11=, svid_12=, PDOP=0.91, HDOP=0.52, VDOP=0.74, systemId=4)>
2026-06-07 15:00:51,500 - INFO - <NMEA(GNGSA, opMode=M, navMode=3, svid_01=, svid_02=, svid_03=, svid_04=, svid_05=, svid_06=, svid_07=, svid_08=, svid_09=, svid_10=, svid_11=, svid_12=, PDOP=0.91, HDOP=0.52, VDOP=0.74, systemId=5)>
2026-06-07 15:00:51,501 - INFO - <NMEA(GPGSV, numMsg=3, msgNum=1, numSV=11, svid_01=5, elv_01=16.0, az_01=64, cno_01=41, svid_02=10, elv_02=25.0, az_02=263, cno_02=41, svid_03=15, elv_03=62.0, az_03=63, cno_03=50, svid_04=18, elv_04=75.0, az_04=358, cno_04=44, signalID=1)>
2026-06-07 15:00:51,502 - INFO - <NMEA(GPGSV, numMsg=3, msgNum=2, numSV=11, svid_01=20, elv_01=35.0, az_01=49, cno_01=45, svid_02=23, elv_02=56.0, az_02=288, cno_02=50, svid_03=24, elv_03=19.0, az_03=130, cno_03=36, svid_04=29, elv_04=36.0, az_04=180, cno_04=32, signalID=1)>
2026-06-07 15:00:51,502 - INFO - <NMEA(GPGSV, numMsg=3, msgNum=3, numSV=11, svid_01=44, elv_01=42.0, az_01=210, cno_01=36, svid_02=46, elv_02=35.0, az_02=225, cno_02=41, svid_03=48, elv_03=38.0, az_03=220, cno_03=40, signalID=1)>
2026-06-07 15:00:51,502 - INFO - <NMEA(GPGSV, numMsg=3, msgNum=1, numSV=9, svid_01=5, elv_01=16.0, az_01=64, cno_01=35, svid_02=10, elv_02=25.0, az_02=263, cno_02=17, svid_03=15, elv_03=62.0, az_03=63, cno_03=40, svid_04=18, elv_04=75.0, az_04=358, cno_04=44, signalID=6)>
2026-06-07 15:00:51,503 - INFO - <NMEA(GPGSV, numMsg=3, msgNum=2, numSV=9, svid_01=20, elv_01=35.0, az_01=49, cno_01=43, svid_02=23, elv_02=56.0, az_02=288, cno_02=45, svid_03=24, elv_03=19.0, az_03=130, cno_03=29, svid_04=27, elv_04=12.0, az_04=320, cno_04=12, signalID=6)>
2026-06-07 15:00:51,503 - INFO - <NMEA(GPGSV, numMsg=3, msgNum=3, numSV=9, svid_01=29, elv_01=36.0, az_01=180, cno_01=30, signalID=6)>
2026-06-07 15:00:51,503 - INFO - <NMEA(GPGSV, numMsg=1, msgNum=1, numSV=1, svid_01=16, elv_01=7.0, az_01=288, cno_01=, signalID=0)>
2026-06-07 15:00:51,504 - INFO - <NMEA(GLGSV, numMsg=2, msgNum=1, numSV=6, svid_01=69, elv_01=17.0, az_01=32, cno_01=39, svid_02=70, elv_02=69.0, az_02=25, cno_02=47, svid_03=71, elv_03=45.0, az_03=219, cno_03=39, svid_04=84, elv_04=30.0, az_04=129, cno_04=43, signalID=1)>
2026-06-07 15:00:51,504 - INFO - <NMEA(GLGSV, numMsg=2, msgNum=2, numSV=6, svid_01=85, elv_01=74.0, az_01=89, cno_01=44, svid_02=86, elv_02=31.0, az_02=326, cno_02=38, signalID=1)>
2026-06-07 15:00:51,505 - INFO - <NMEA(GLGSV, numMsg=2, msgNum=1, numSV=6, svid_01=69, elv_01=17.0, az_01=32, cno_01=35, svid_02=70, elv_02=69.0, az_02=25, cno_02=40, svid_03=71, elv_03=45.0, az_03=219, cno_03=36, svid_04=84, elv_04=30.0, az_04=129, cno_04=33, signalID=3)>
2026-06-07 15:00:51,505 - INFO - <NMEA(GLGSV, numMsg=2, msgNum=2, numSV=6, svid_01=85, elv_01=74.0, az_01=89, cno_01=40, svid_02=86, elv_02=31.0, az_02=326, cno_02=34, signalID=3)>
2026-06-07 15:00:51,506 - INFO - <NMEA(GAGSV, numMsg=3, msgNum=1, numSV=11, svid_01=3, elv_01=59.0, az_01=144, cno_01=45, svid_02=5, elv_02=41.0, az_02=56, cno_02=42, svid_03=8, elv_03=19.0, az_03=193, cno_03=34, svid_04=13, elv_04=14.0, az_04=300, cno_04=26, signalID=2)>
2026-06-07 15:00:51,506 - INFO - <NMEA(GAGSV, numMsg=3, msgNum=2, numSV=11, svid_01=15, elv_01=62.0, az_01=334, cno_01=49, svid_02=21, elv_02=8.0, az_02=308, cno_02=21, svid_03=27, elv_03=15.0, az_03=259, cno_03=26, svid_04=30, elv_04=5.0, az_04=213, cno_04=12, signalID=2)>
2026-06-07 15:00:51,507 - INFO - <NMEA(GAGSV, numMsg=3, msgNum=3, numSV=11, svid_01=32, elv_01=40.0, az_01=178, cno_01=36, svid_02=34, elv_02=51.0, az_02=87, cno_02=47, svid_03=36, elv_03=4.0, az_03=108, cno_03=37, signalID=2)>
2026-06-07 15:00:51,507 - INFO - <NMEA(GAGSV, numMsg=3, msgNum=1, numSV=11, svid_01=3, elv_01=59.0, az_01=144, cno_01=19, svid_02=5, elv_02=41.0, az_02=56, cno_02=42, svid_03=8, elv_03=19.0, az_03=193, cno_03=36, svid_04=13, elv_04=14.0, az_04=300, cno_04=28, signalID=7)>
2026-06-07 15:00:51,507 - INFO - <NMEA(GAGSV, numMsg=3, msgNum=2, numSV=11, svid_01=15, elv_01=62.0, az_01=334, cno_01=45, svid_02=21, elv_02=8.0, az_02=308, cno_02=14, svid_03=27, elv_03=15.0, az_03=259, cno_03=34, svid_04=30, elv_04=5.0, az_04=213, cno_04=26, signalID=7)>
2026-06-07 15:00:51,508 - INFO - <NMEA(GAGSV, numMsg=3, msgNum=3, numSV=11, svid_01=32, elv_01=40.0, az_01=178, cno_01=34, svid_02=34, elv_02=51.0, az_02=87, cno_02=45, svid_03=36, elv_03=4.0, az_03=108, cno_03=41, signalID=7)>
2026-06-07 15:00:51,508 - INFO - <NMEA(GBGSV, numMsg=2, msgNum=1, numSV=7, svid_01=13, elv_01=57.0, az_01=150, cno_01=43, svid_02=27, elv_02=43.0, az_02=311, cno_02=47, svid_03=28, elv_03=83.0, az_03=229, cno_03=42, svid_04=33, elv_04=70.0, az_04=38, cno_04=45, signalID=1)>
2026-06-07 15:00:51,509 - INFO - <NMEA(GBGSV, numMsg=2, msgNum=2, numSV=7, svid_01=38, elv_01=30.0, az_01=146, cno_01=40, svid_02=41, elv_02=55.0, az_02=232, cno_02=41, svid_03=42, elv_03=15.0, az_03=46, cno_03=38, signalID=1)>
2026-06-07 15:00:51,509 - INFO - <NMEA(GQGSV, numMsg=1, msgNum=1, numSV=0, signalID=0)>
2026-06-07 15:00:51,509 - INFO - <NMEA(GNGLL, lat=37.9008465, NS=N, lon=-97.6641838333, EW=W, time=20:00:51.400000, status=A, posMode=D)>
2026-06-07 15:00:51,510 - INFO - <UBX(NAV-RELPOSNED, version=1, reserved0=0, refStationID=0, iTOW=20:00:51.400000, relPosN=20.16, relPosE=-56.59, relPosD=-6.05, relPosLength=60.38, relPosHeading=289.61188, reserved1=0, accN=10.0, accE=10.0, accD=13.5, accLength=10.0, accHeading=0.95378, reserved2=0, gnssFixOK=1, diffSoln=1, relPosValid=1, carrSoln=2, isMoving=1, refPosMiss=0, refObsMiss=0, relPosHeadingValid=1, relPosNormalized=0)>
2026-06-07 15:00:51,511 - INFO - 2026-06-07 15:00:51, current_target: {'timestamp': '2026-05-10 13:40:05', 'lat': 37.9008713333, 'lon': -97.66418, 'speed': 0.004629996, 'y_offset': 0.0, 'x_offset': 0.0, 'z_offset': 0.0, 'heading': 1.76477}, next_target: {'timestamp': '2026-05-10 13:40:06', 'lat': 37.9008713333, 'lon': -97.66418, 'speed': 0.00514444, 'y_offset': 0.0, 'x_offset': 0.0, 'z_offset': 0.0, 'heading': 1.76299}
2026-06-07 15:00:51,511 - INFO - 2026-06-07 15:00:51 [3.4 OBSERVED] current_turn_radius: infm
2026-06-07 15:00:51,511 - INFO - 2026-06-07 15:00:51 [3.4 OBSERVED] turn_direction: LEFT
2026-06-07 15:00:51,511 - INFO - 2026-06-07 15:00:51 [3.4 OBSERVED] estimated left/right wheel speeds: nan, nan rad/s
2026-06-07 15:00:51,515 - INFO - 2026-06-07 15:00:51 [STATE] Current state: NAVIGATING_TO_START
2026-06-07 15:00:51,515 - INFO - 2026-06-07 15:00:51 [NAV_TO_START] Phase: PIVOT_TO_BEARING, Dist: 2.777m, Bearing err: 77.4°, Heading diff: 72.2°, Elapsed: 0.2s
2026-06-07 15:00:51,515 - INFO - 2026-06-07 15:00:51 [NAV_TO_START] PIVOT_TO_BEARING RIGHT: heading=289.6°, bearing=7.0°, error=77.4°, force=aggressive
2026-06-07 15:00:51,531 - INFO - goto_positions: M1=830, M2=1370 [Pivot to bearing RIGHT]
2026-06-07 15:00:51,639 - INFO - <UBX(RXM-RTCM, version=2, crcFailed=0, msgUsed=2, subType=0, refStation=0, msgType=1074)>
2026-06-07 15:00:51,641 - INFO - <UBX(RXM-RTCM, version=2, crcFailed=0, msgUsed=2, subType=0, refStation=0, msgType=1084)>
2026-06-07 15:00:51,644 - INFO - <UBX(RXM-RTCM, version=2, crcFailed=0, msgUsed=2, subType=0, refStation=0, msgType=1094)>
2026-06-07 15:00:51,646 - INFO - <UBX(RXM-RTCM, version=2, crcFailed=0, msgUsed=2, subType=0, refStation=0, msgType=1124)>
2026-06-07 15:00:51,646 - INFO - <UBX(RXM-RTCM, version=2, crcFailed=0, msgUsed=2, subType=0, refStation=0, msgType=1230)>
2026-06-07 15:00:51,691 - INFO - <UBX(RXM-RTCM, version=2, crcFailed=0, msgUsed=2, subType=0, refStation=0, msgType=4072)>
2026-06-07 15:00:51,694 - INFO - <UBX(NAV-PVT, iTOW=20:00:51.600000, year=2026, month=6, day=7, hour=20, min=0, second=51, validDate=1, validTime=1, fullyResolved=1, validMag=0, tAcc=22, nano=600174371, fixType=3, gnssFixOk=1, diffSoln=1, psmState=0, headVehValid=0, carrSoln=2, confirmedAvai=1, confirmedDate=1, confirmedTime=1, numSV=28, lon=-97.6641839, lat=37.9008465, height=409411, hMSL=435663, hAcc=87, vAcc=112, velN=-2, velE=3, velD=15, gSpeed=4, headMot=345.39656, sAcc=82, headAcc=180.0, pDOP=0.91, invalidLlh=0, lastCorrectionAge=1, reserved0=860630572, headVeh=0.0, magDec=0.0, magAcc=0.0)>
2026-06-07 15:00:51,695 - INFO - <NMEA(GNRMC, time=20:00:51.600000, status=A, lat=37.9008465, NS=N, lon=-97.6641838333, EW=W, spd=0.007, cog=, date=2026-06-07, mv=, mvEW=, posMode=R, navStatus=V)>
2026-06-07 15:00:51,696 - INFO - <NMEA(GNVTG, cogt=, cogtUnit=T, cogm=, cogmUnit=M, sogn=0.007, sognUnit=N, sogk=0.013, sogkUnit=K, posMode=D)>
2026-06-07 15:00:51,696 - INFO - <NMEA(GNGGA, time=20:00:51.600000, lat=37.9008465, NS=N, lon=-97.6641838333, EW=W, quality=4, numSV=12, HDOP=0.52, alt=435.7, altUnit=M, sep=-26.3, sepUnit=M, diffAge=0.2, diffStation=0)>
2026-06-07 15:00:51,697 - INFO - <NMEA(GNGSA, opMode=M, navMode=3, svid_01=5, svid_02=10, svid_03=15, svid_04=18, svid_05=20, svid_06=23, svid_07=24, svid_08=29, svid_09=, svid_10=, svid_11=, svid_12=, PDOP=0.91, HDOP=0.52, VDOP=0.74, systemId=1)>
2026-06-07 15:00:51,697 - INFO - <NMEA(GNGSA, opMode=M, navMode=3, svid_01=70, svid_02=86, svid_03=69, svid_04=84, svid_05=85, svid_06=71, svid_07=, svid_08=, svid_09=, svid_10=, svid_11=, svid_12=, PDOP=0.91, HDOP=0.52, VDOP=0.74, systemId=2)>
2026-06-07 15:00:51,698 - INFO - <NMEA(GNGSA, opMode=M, navMode=3, svid_01=3, svid_02=5, svid_03=8, svid_04=13, svid_05=15, svid_06=27, svid_07=34, svid_08=, svid_09=, svid_10=, svid_11=, svid_12=, PDOP=0.91, HDOP=0.52, VDOP=0.74, systemId=3)>
2026-06-07 15:00:51,698 - INFO - <NMEA(GNGSA, opMode=M, navMode=3, svid_01=27, svid_02=28, svid_03=33, svid_04=38, svid_05=41, svid_06=42, svid_07=13, svid_08=, svid_09=, svid_10=, svid_11=, svid_12=, PDOP=0.91, HDOP=0.52, VDOP=0.74, systemId=4)>
2026-06-07 15:00:51,698 - INFO - <NMEA(GNGSA, opMode=M, navMode=3, svid_01=, svid_02=, svid_03=, svid_04=, svid_05=, svid_06=, svid_07=, svid_08=, svid_09=, svid_10=, svid_11=, svid_12=, PDOP=0.91, HDOP=0.52, VDOP=0.74, systemId=5)>
2026-06-07 15:00:51,699 - INFO - <NMEA(GPGSV, numMsg=3, msgNum=1, numSV=11, svid_01=5, elv_01=16.0, az_01=64, cno_01=43, svid_02=10, elv_02=25.0, az_02=263, cno_02=41, svid_03=15, elv_03=62.0, az_03=63, cno_03=50, svid_04=18, elv_04=75.0, az_04=358, cno_04=44, signalID=1)>
2026-06-07 15:00:51,699 - INFO - <NMEA(GPGSV, numMsg=3, msgNum=2, numSV=11, svid_01=20, elv_01=35.0, az_01=49, cno_01=45, svid_02=23, elv_02=56.0, az_02=288, cno_02=50, svid_03=24, elv_03=19.0, az_03=130, cno_03=36, svid_04=29, elv_04=36.0, az_04=180, cno_04=32, signalID=1)>
2026-06-07 15:00:51,700 - INFO - <NMEA(GPGSV, numMsg=3, msgNum=3, numSV=11, svid_01=44, elv_01=42.0, az_01=210, cno_01=36, svid_02=46, elv_02=35.0, az_02=225, cno_02=41, svid_03=48, elv_03=38.0, az_03=220, cno_03=40, signalID=1)>
2026-06-07 15:00:51,700 - INFO - <NMEA(GPGSV, numMsg=3, msgNum=1, numSV=9, svid_01=5, elv_01=16.0, az_01=64, cno_01=35, svid_02=10, elv_02=25.0, az_02=263, cno_02=16, svid_03=15, elv_03=62.0, az_03=63, cno_03=40, svid_04=18, elv_04=75.0, az_04=358, cno_04=44, signalID=6)>
2026-06-07 15:00:51,701 - INFO - <NMEA(GPGSV, numMsg=3, msgNum=2, numSV=9, svid_01=20, elv_01=35.0, az_01=49, cno_01=43, svid_02=23, elv_02=56.0, az_02=288, cno_02=45, svid_03=24, elv_03=19.0, az_03=130, cno_03=29, svid_04=27, elv_04=12.0, az_04=320, cno_04=12, signalID=6)>
2026-06-07 15:00:51,701 - INFO - <NMEA(GPGSV, numMsg=3, msgNum=3, numSV=9, svid_01=29, elv_01=36.0, az_01=180, cno_01=29, signalID=6)>
2026-06-07 15:00:51,701 - INFO - <NMEA(GPGSV, numMsg=1, msgNum=1, numSV=1, svid_01=16, elv_01=7.0, az_01=288, cno_01=, signalID=0)>
2026-06-07 15:00:51,702 - INFO - <NMEA(GLGSV, numMsg=2, msgNum=1, numSV=6, svid_01=69, elv_01=17.0, az_01=32, cno_01=39, svid_02=70, elv_02=69.0, az_02=25, cno_02=47, svid_03=71, elv_03=45.0, az_03=219, cno_03=40, svid_04=84, elv_04=30.0, az_04=129, cno_04=43, signalID=1)>
2026-06-07 15:00:51,702 - INFO - <NMEA(GLGSV, numMsg=2, msgNum=2, numSV=6, svid_01=85, elv_01=74.0, az_01=89, cno_01=44, svid_02=86, elv_02=31.0, az_02=326, cno_02=38, signalID=1)>
2026-06-07 15:00:51,703 - INFO - <NMEA(GLGSV, numMsg=2, msgNum=1, numSV=6, svid_01=69, elv_01=17.0, az_01=32, cno_01=35, svid_02=70, elv_02=69.0, az_02=25, cno_02=40, svid_03=71, elv_03=45.0, az_03=219, cno_03=36, svid_04=84, elv_04=30.0, az_04=129, cno_04=33, signalID=3)>
2026-06-07 15:00:51,703 - INFO - <NMEA(GLGSV, numMsg=2, msgNum=2, numSV=6, svid_01=85, elv_01=74.0, az_01=89, cno_01=40, svid_02=86, elv_02=31.0, az_02=326, cno_02=34, signalID=3)>
2026-06-07 15:00:51,704 - INFO - <NMEA(GAGSV, numMsg=3, msgNum=1, numSV=11, svid_01=3, elv_01=59.0, az_01=144, cno_01=45, svid_02=5, elv_02=41.0, az_02=56, cno_02=42, svid_03=8, elv_03=19.0, az_03=193, cno_03=34, svid_04=13, elv_04=14.0, az_04=300, cno_04=26, signalID=2)>
2026-06-07 15:00:51,704 - INFO - <NMEA(GAGSV, numMsg=3, msgNum=2, numSV=11, svid_01=15, elv_01=62.0, az_01=334, cno_01=49, svid_02=21, elv_02=8.0, az_02=308, cno_02=21, svid_03=27, elv_03=15.0, az_03=259, cno_03=26, svid_04=30, elv_04=5.0, az_04=213, cno_04=13, signalID=2)>
2026-06-07 15:00:51,705 - INFO - <NMEA(GAGSV, numMsg=3, msgNum=3, numSV=11, svid_01=32, elv_01=40.0, az_01=178, cno_01=36, svid_02=34, elv_02=51.0, az_02=87, cno_02=47, svid_03=36, elv_03=4.0, az_03=108, cno_03=37, signalID=2)>
2026-06-07 15:00:51,705 - INFO - <NMEA(GAGSV, numMsg=3, msgNum=1, numSV=11, svid_01=3, elv_01=59.0, az_01=144, cno_01=21, svid_02=5, elv_02=41.0, az_02=56, cno_02=42, svid_03=8, elv_03=19.0, az_03=193, cno_03=36, svid_04=13, elv_04=14.0, az_04=300, cno_04=28, signalID=7)>
2026-06-07 15:00:51,705 - INFO - <NMEA(GAGSV, numMsg=3, msgNum=2, numSV=11, svid_01=15, elv_01=62.0, az_01=334, cno_01=45, svid_02=21, elv_02=8.0, az_02=308, cno_02=14, svid_03=27, elv_03=15.0, az_03=259, cno_03=34, svid_04=30, elv_04=5.0, az_04=213, cno_04=26, signalID=7)>
2026-06-07 15:00:51,706 - INFO - <NMEA(GAGSV, numMsg=3, msgNum=3, numSV=11, svid_01=32, elv_01=40.0, az_01=178, cno_01=34, svid_02=34, elv_02=51.0, az_02=87, cno_02=45, svid_03=36, elv_03=4.0, az_03=108, cno_03=40, signalID=7)>
2026-06-07 15:00:51,706 - INFO - <NMEA(GBGSV, numMsg=2, msgNum=1, numSV=7, svid_01=13, elv_01=57.0, az_01=150, cno_01=43, svid_02=27, elv_02=43.0, az_02=311, cno_02=47, svid_03=28, elv_03=83.0, az_03=229, cno_03=42, svid_04=33, elv_04=70.0, az_04=38, cno_04=45, signalID=1)>
2026-06-07 15:00:51,707 - INFO - <NMEA(GBGSV, numMsg=2, msgNum=2, numSV=7, svid_01=38, elv_01=30.0, az_01=146, cno_01=40, svid_02=41, elv_02=55.0, az_02=232, cno_02=41, svid_03=42, elv_03=15.0, az_03=46, cno_03=38, signalID=1)>
2026-06-07 15:00:51,707 - INFO - <NMEA(GQGSV, numMsg=1, msgNum=1, numSV=0, signalID=0)>
2026-06-07 15:00:51,707 - INFO - <NMEA(GNGLL, lat=37.9008465, NS=N, lon=-97.6641838333, EW=W, time=20:00:51.600000, status=A, posMode=D)>
2026-06-07 15:00:51,708 - INFO - <UBX(NAV-RELPOSNED, version=1, reserved0=0, refStationID=0, iTOW=20:00:51.600000, relPosN=20.1, relPosE=-56.79, relPosD=-6.66, relPosLength=60.61, relPosHeading=289.4927, reserved1=0, accN=10.0, accE=10.0, accD=14.2, accLength=10.1, accHeading=0.95101, reserved2=0, gnssFixOK=1, diffSoln=1, relPosValid=1, carrSoln=2, isMoving=1, refPosMiss=0, refObsMiss=0, relPosHeadingValid=1, relPosNormalized=0)>
2026-06-07 15:00:51,709 - INFO - 2026-06-07 15:00:51, current_target: {'timestamp': '2026-05-10 13:40:05', 'lat': 37.9008713333, 'lon': -97.66418, 'speed': 0.004629996, 'y_offset': 0.0, 'x_offset': 0.0, 'z_offset': 0.0, 'heading': 1.76477}, next_target: {'timestamp': '2026-05-10 13:40:06', 'lat': 37.9008713333, 'lon': -97.66418, 'speed': 0.00514444, 'y_offset': 0.0, 'x_offset': 0.0, 'z_offset': 0.0, 'heading': 1.76299}
2026-06-07 15:00:51,709 - INFO - 2026-06-07 15:00:51 [3.4 OBSERVED] current_turn_radius: infm
2026-06-07 15:00:51,709 - INFO - 2026-06-07 15:00:51 [3.4 OBSERVED] turn_direction: LEFT
2026-06-07 15:00:51,709 - INFO - 2026-06-07 15:00:51 [3.4 OBSERVED] estimated left/right wheel speeds: nan, nan rad/s
2026-06-07 15:00:51,712 - INFO - 2026-06-07 15:00:51 [STATE] Current state: NAVIGATING_TO_START
2026-06-07 15:00:51,712 - INFO - 2026-06-07 15:00:51 [NAV_TO_START] Phase: PIVOT_TO_BEARING, Dist: 2.777m, Bearing err: 77.5°, Heading diff: 72.3°, Elapsed: 0.4s
2026-06-07 15:00:51,712 - INFO - 2026-06-07 15:00:51 [NAV_TO_START] PIVOT_TO_BEARING RIGHT: heading=289.5°, bearing=7.0°, error=77.5°, force=aggressive
2026-06-07 15:00:51,728 - INFO - goto_positions: M1=830, M2=1370 [Pivot to bearing RIGHT]
2026-06-07 15:00:51,837 - INFO - <UBX(RXM-RTCM, version=2, crcFailed=0, msgUsed=2, subType=0, refStation=0, msgType=1074)>
2026-06-07 15:00:51,839 - INFO - <UBX(RXM-RTCM, version=2, crcFailed=0, msgUsed=2, subType=0, refStation=0, msgType=1084)>
2026-06-07 15:00:51,842 - INFO - <UBX(RXM-RTCM, version=2, crcFailed=0, msgUsed=2, subType=0, refStation=0, msgType=1094)>
2026-06-07 15:00:51,844 - INFO - <UBX(RXM-RTCM, version=2, crcFailed=0, msgUsed=2, subType=0, refStation=0, msgType=1124)>
2026-06-07 15:00:51,844 - INFO - <UBX(RXM-RTCM, version=2, crcFailed=0, msgUsed=2, subType=0, refStation=0, msgType=1230)>
2026-06-07 15:00:51,893 - INFO - <UBX(RXM-RTCM, version=2, crcFailed=0, msgUsed=2, subType=0, refStation=0, msgType=4072)>
2026-06-07 15:00:51,896 - INFO - <UBX(NAV-PVT, iTOW=20:00:51.800000, year=2026, month=6, day=7, hour=20, min=0, second=51, validDate=1, validTime=1, fullyResolved=1, validMag=0, tAcc=22, nano=800174327, fixType=3, gnssFixOk=1, diffSoln=1, psmState=0, headVehValid=0, carrSoln=2, confirmedAvai=1, confirmedDate=1, confirmedTime=1, numSV=28, lon=-97.6641838, lat=37.9008465, height=409409, hMSL=435661, hAcc=88, vAcc=112, velN=-52, velE=6, velD=22, gSpeed=52, headMot=345.39656, sAcc=75, headAcc=63.24161, pDOP=0.91, invalidLlh=0, lastCorrectionAge=1, reserved0=860630572, headVeh=0.0, magDec=0.0, magAcc=0.0)>
2026-06-07 15:00:51,897 - INFO - <NMEA(GNRMC, time=20:00:51.800000, status=A, lat=37.9008465, NS=N, lon=-97.6641838333, EW=W, spd=0.101, cog=, date=2026-06-07, mv=, mvEW=, posMode=R, navStatus=V)>
2026-06-07 15:00:51,897 - INFO - <NMEA(GNVTG, cogt=, cogtUnit=T, cogm=, cogmUnit=M, sogn=0.101, sognUnit=N, sogk=0.187, sogkUnit=K, posMode=D)>
2026-06-07 15:00:51,898 - INFO - <NMEA(GNGGA, time=20:00:51.800000, lat=37.9008465, NS=N, lon=-97.6641838333, EW=W, quality=4, numSV=12, HDOP=0.52, alt=435.7, altUnit=M, sep=-26.3, sepUnit=M, diffAge=0.2, diffStation=0)>
2026-06-07 15:00:51,898 - INFO - <NMEA(GNGSA, opMode=M, navMode=3, svid_01=5, svid_02=10, svid_03=15, svid_04=18, svid_05=20, svid_06=23, svid_07=24, svid_08=29, svid_09=, svid_10=, svid_11=, svid_12=, PDOP=0.91, HDOP=0.52, VDOP=0.74, systemId=1)>
2026-06-07 15:00:51,899 - INFO - <NMEA(GNGSA, opMode=M, navMode=3, svid_01=70, svid_02=86, svid_03=69, svid_04=84, svid_05=85, svid_06=71, svid_07=, svid_08=, svid_09=, svid_10=, svid_11=, svid_12=, PDOP=0.91, HDOP=0.52, VDOP=0.74, systemId=2)>
2026-06-07 15:00:51,899 - INFO - <NMEA(GNGSA, opMode=M, navMode=3, svid_01=3, svid_02=5, svid_03=8, svid_04=13, svid_05=15, svid_06=27, svid_07=34, svid_08=, svid_09=, svid_10=, svid_11=, svid_12=, PDOP=0.91, HDOP=0.52, VDOP=0.74, systemId=3)>
2026-06-07 15:00:51,900 - INFO - <NMEA(GNGSA, opMode=M, navMode=3, svid_01=27, svid_02=28, svid_03=33, svid_04=38, svid_05=41, svid_06=42, svid_07=13, svid_08=, svid_09=, svid_10=, svid_11=, svid_12=, PDOP=0.91, HDOP=0.52, VDOP=0.74, systemId=4)>
2026-06-07 15:00:51,900 - INFO - <NMEA(GNGSA, opMode=M, navMode=3, svid_01=, svid_02=, svid_03=, svid_04=, svid_05=, svid_06=, svid_07=, svid_08=, svid_09=, svid_10=, svid_11=, svid_12=, PDOP=0.91, HDOP=0.52, VDOP=0.74, systemId=5)>
2026-06-07 15:00:51,900 - INFO - <NMEA(GPGSV, numMsg=3, msgNum=1, numSV=11, svid_01=5, elv_01=16.0, az_01=64, cno_01=43, svid_02=10, elv_02=25.0, az_02=263, cno_02=41, svid_03=15, elv_03=62.0, az_03=63, cno_03=50, svid_04=18, elv_04=75.0, az_04=358, cno_04=44, signalID=1)>
2026-06-07 15:00:51,901 - INFO - <NMEA(GPGSV, numMsg=3, msgNum=2, numSV=11, svid_01=20, elv_01=35.0, az_01=49, cno_01=45, svid_02=23, elv_02=56.0, az_02=288, cno_02=50, svid_03=24, elv_03=19.0, az_03=130, cno_03=36, svid_04=29, elv_04=36.0, az_04=180, cno_04=32, signalID=1)>
2026-06-07 15:00:51,901 - INFO - <NMEA(GPGSV, numMsg=3, msgNum=3, numSV=11, svid_01=44, elv_01=42.0, az_01=210, cno_01=36, svid_02=46, elv_02=35.0, az_02=225, cno_02=41, svid_03=48, elv_03=38.0, az_03=220, cno_03=40, signalID=1)>
2026-06-07 15:00:51,902 - INFO - <NMEA(GPGSV, numMsg=3, msgNum=1, numSV=9, svid_01=5, elv_01=16.0, az_01=64, cno_01=36, svid_02=10, elv_02=25.0, az_02=263, cno_02=16, svid_03=15, elv_03=62.0, az_03=63, cno_03=40, svid_04=18, elv_04=75.0, az_04=358, cno_04=45, signalID=6)>
2026-06-07 15:00:51,902 - INFO - <NMEA(GPGSV, numMsg=3, msgNum=2, numSV=9, svid_01=20, elv_01=35.0, az_01=49, cno_01=43, svid_02=23, elv_02=56.0, az_02=288, cno_02=45, svid_03=24, elv_03=19.0, az_03=130, cno_03=29, svid_04=27, elv_04=12.0, az_04=320, cno_04=11, signalID=6)>
2026-06-07 15:00:51,903 - INFO - <NMEA(GPGSV, numMsg=3, msgNum=3, numSV=9, svid_01=29, elv_01=36.0, az_01=180, cno_01=29, signalID=6)>
2026-06-07 15:00:51,903 - INFO - <NMEA(GPGSV, numMsg=1, msgNum=1, numSV=1, svid_01=16, elv_01=7.0, az_01=288, cno_01=, signalID=0)>
2026-06-07 15:00:51,903 - INFO - <NMEA(GLGSV, numMsg=2, msgNum=1, numSV=6, svid_01=69, elv_01=17.0, az_01=32, cno_01=39, svid_02=70, elv_02=69.0, az_02=25, cno_02=47, svid_03=71, elv_03=45.0, az_03=219, cno_03=40, svid_04=84, elv_04=30.0, az_04=129, cno_04=45, signalID=1)>
2026-06-07 15:00:51,904 - INFO - <NMEA(GLGSV, numMsg=2, msgNum=2, numSV=6, svid_01=85, elv_01=74.0, az_01=89, cno_01=44, svid_02=86, elv_02=31.0, az_02=326, cno_02=37, signalID=1)>
2026-06-07 15:00:51,904 - INFO - <NMEA(GLGSV, numMsg=2, msgNum=1, numSV=6, svid_01=69, elv_01=17.0, az_01=32, cno_01=35, svid_02=70, elv_02=69.0, az_02=25, cno_02=40, svid_03=71, elv_03=45.0, az_03=219, cno_03=36, svid_04=84, elv_04=30.0, az_04=129, cno_04=33, signalID=3)>
2026-06-07 15:00:51,905 - INFO - <NMEA(GLGSV, numMsg=2, msgNum=2, numSV=6, svid_01=85, elv_01=74.0, az_01=89, cno_01=40, svid_02=86, elv_02=31.0, az_02=326, cno_02=34, signalID=3)>
2026-06-07 15:00:51,905 - INFO - <NMEA(GAGSV, numMsg=3, msgNum=1, numSV=11, svid_01=3, elv_01=59.0, az_01=144, cno_01=45, svid_02=5, elv_02=41.0, az_02=56, cno_02=42, svid_03=8, elv_03=19.0, az_03=193, cno_03=34, svid_04=13, elv_04=14.0, az_04=300, cno_04=26, signalID=2)>
2026-06-07 15:00:51,906 - INFO - <NMEA(GAGSV, numMsg=3, msgNum=2, numSV=11, svid_01=15, elv_01=62.0, az_01=334, cno_01=49, svid_02=21, elv_02=8.0, az_02=308, cno_02=21, svid_03=27, elv_03=15.0, az_03=259, cno_03=27, svid_04=30, elv_04=5.0, az_04=213, cno_04=14, signalID=2)>
2026-06-07 15:00:51,906 - INFO - <NMEA(GAGSV, numMsg=3, msgNum=3, numSV=11, svid_01=32, elv_01=40.0, az_01=178, cno_01=36, svid_02=34, elv_02=51.0, az_02=87, cno_02=46, svid_03=36, elv_03=4.0, az_03=108, cno_03=37, signalID=2)>
2026-06-07 15:00:51,906 - INFO - <NMEA(GAGSV, numMsg=3, msgNum=1, numSV=11, svid_01=3, elv_01=59.0, az_01=144, cno_01=22, svid_02=5, elv_02=41.0, az_02=56, cno_02=42, svid_03=8, elv_03=19.0, az_03=193, cno_03=35, svid_04=13, elv_04=14.0, az_04=300, cno_04=28, signalID=7)>
2026-06-07 15:00:51,907 - INFO - <NMEA(GAGSV, numMsg=3, msgNum=2, numSV=11, svid_01=15, elv_01=62.0, az_01=334, cno_01=45, svid_02=21, elv_02=8.0, az_02=308, cno_02=14, svid_03=27, elv_03=15.0, az_03=259, cno_03=34, svid_04=30, elv_04=5.0, az_04=213, cno_04=26, signalID=7)>
2026-06-07 15:00:51,907 - INFO - <NMEA(GAGSV, numMsg=3, msgNum=3, numSV=11, svid_01=32, elv_01=40.0, az_01=178, cno_01=34, svid_02=34, elv_02=51.0, az_02=87, cno_02=45, svid_03=36, elv_03=4.0, az_03=108, cno_03=39, signalID=7)>
2026-06-07 15:00:51,908 - INFO - <NMEA(GBGSV, numMsg=2, msgNum=1, numSV=7, svid_01=13, elv_01=57.0, az_01=150, cno_01=45, svid_02=27, elv_02=43.0, az_02=311, cno_02=47, svid_03=28, elv_03=83.0, az_03=229, cno_03=42, svid_04=33, elv_04=70.0, az_04=38, cno_04=45, signalID=1)>
2026-06-07 15:00:51,908 - INFO - <NMEA(GBGSV, numMsg=2, msgNum=2, numSV=7, svid_01=38, elv_01=30.0, az_01=146, cno_01=40, svid_02=41, elv_02=55.0, az_02=232, cno_02=41, svid_03=42, elv_03=15.0, az_03=46, cno_03=40, signalID=1)>
2026-06-07 15:00:51,908 - INFO - <NMEA(GQGSV, numMsg=1, msgNum=1, numSV=0, signalID=0)>
2026-06-07 15:00:51,909 - INFO - <NMEA(GNGLL, lat=37.9008465, NS=N, lon=-97.6641838333, EW=W, time=20:00:51.800000, status=A, posMode=D)>
2026-06-07 15:00:51,909 - INFO - <UBX(NAV-RELPOSNED, version=1, reserved0=0, refStationID=0, iTOW=20:00:51.800000, relPosN=20.58, relPosE=-56.48, relPosD=-6.19, relPosLength=60.43, relPosHeading=290.02392, reserved1=0, accN=10.0, accE=10.0, accD=14.5, accLength=10.1, accHeading=0.95314, reserved2=0, gnssFixOK=1, diffSoln=1, relPosValid=1, carrSoln=2, isMoving=1, refPosMiss=0, refObsMiss=0, relPosHeadingValid=1, relPosNormalized=0)>
2026-06-07 15:00:51,910 - INFO - 2026-06-07 15:00:51, current_target: {'timestamp': '2026-05-10 13:40:05', 'lat': 37.9008713333, 'lon': -97.66418, 'speed': 0.004629996, 'y_offset': 0.0, 'x_offset': 0.0, 'z_offset': 0.0, 'heading': 1.76477}, next_target: {'timestamp': '2026-05-10 13:40:06', 'lat': 37.9008713333, 'lon': -97.66418, 'speed': 0.00514444, 'y_offset': 0.0, 'x_offset': 0.0, 'z_offset': 0.0, 'heading': 1.76299}
2026-06-07 15:00:51,910 - INFO - 2026-06-07 15:00:51 [3.4 OBSERVED] current_turn_radius: infm
2026-06-07 15:00:51,910 - INFO - 2026-06-07 15:00:51 [3.4 OBSERVED] turn_direction: RIGHT
2026-06-07 15:00:51,910 - INFO - 2026-06-07 15:00:51 [3.4 OBSERVED] estimated left/right wheel speeds: nan, nan rad/s
2026-06-07 15:00:51,912 - INFO - 2026-06-07 15:00:51 [STATE] Current state: NAVIGATING_TO_START
2026-06-07 15:00:51,912 - INFO - 2026-06-07 15:00:51 [NAV_TO_START] Phase: PIVOT_TO_BEARING, Dist: 2.777m, Bearing err: 76.9°, Heading diff: 71.7°, Elapsed: 0.6s
2026-06-07 15:00:51,912 - INFO - 2026-06-07 15:00:51 [NAV_TO_START] PIVOT_TO_BEARING RIGHT: heading=290.0°, bearing=7.0°, error=76.9°, force=aggressive
2026-06-07 15:00:51,924 - INFO - goto_positions: M1=830, M2=1370 [Pivot to bearing RIGHT]
2026-06-07 15:00:52,038 - INFO - <UBX(RXM-RTCM, version=2, crcFailed=0, msgUsed=2, subType=0, refStation=0, msgType=1074)>
2026-06-07 15:00:52,041 - INFO - <UBX(RXM-RTCM, version=2, crcFailed=0, msgUsed=2, subType=0, refStation=0, msgType=1084)>
