2026-06-07 15:47:00,669 - INFO - Logging initialized to /home/dali/Documents/ReMow-Rover-Tests/Repeat/Logs/readRecordedRun-2026-06-07_15-47-00.log
2026-06-07 15:47:00,671 - INFO - RoboClaw opened successfully on /dev/serial/by-id/usb-Basicmicro_Inc._USB_Roboclaw_2x15A-if00
2026-06-07 15:47:00,972 - INFO - Encoders reset to zero
2026-06-07 15:47:00,972 - INFO - Starting readRecordedRun with combination: 55
2026-06-07 15:47:00,972 - INFO - Selected most recent recording: 55_20260510-134004_GPSData.csv
2026-06-07 15:47:00,976 - INFO - GREEN_LED initialized on GPIO 17
2026-06-07 15:47:00,983 - INFO - Bootstrap: Initialized modifiers with estimate 73.86 mm/(rad/s)
2026-06-07 15:47:00,984 - INFO - ENU origin from first waypoint: 37.9008713333, -97.66418
2026-06-07 15:47:01,039 - INFO - goto_positions: M1=1100, M2=1100 [Startup - ensuring neutral position]
2026-06-07 15:47:01,039 - INFO - Actuators initialized to neutral (1100)
2026-06-07 15:47:01,039 - INFO - === STATE MACHINE INITIALIZED ===
2026-06-07 15:47:01,039 - INFO - Start waypoint: East=0.000m, North=0.000m, Heading=1.8°
2026-06-07 15:47:01,039 - INFO - Initial state: NAVIGATING_TO_START
2026-06-07 15:47:01,039 - INFO - Navigation timeout: 300.0s
2026-06-07 15:47:01,039 - INFO - === WAITING FOR GPS RTK FIX ===
2026-06-07 15:47:01,039 - INFO - Need: relPosValid=1, carrSoln=2, relPosHeadingValid=1 (timeout: 60.0s)
2026-06-07 15:47:01,108 - INFO - GPS status: relPosValid=1, carrSoln=2, headingValid=1 (0.1s)
2026-06-07 15:47:01,108 - INFO - === GPS RTK FIXED — ready to navigate (0.1s) ===
2026-06-07 15:47:01,109 - INFO - <UBX(RXM-RTCM, version=2, crcFailed=0, msgUsed=2, subType=0, refStation=0, msgType=4072)>
2026-06-07 15:47:01,109 - INFO - Using persisted heading from driving to work area: 9.05° (captured at 2026-06-07 15:46:42)
2026-06-07 15:47:01,245 - INFO - <UBX(RXM-RTCM, version=2, crcFailed=0, msgUsed=2, subType=0, refStation=0, msgType=1074)>
2026-06-07 15:47:01,245 - INFO - <UBX(RXM-RTCM, version=2, crcFailed=0, msgUsed=2, subType=0, refStation=0, msgType=1084)>
2026-06-07 15:47:01,248 - INFO - <UBX(RXM-RTCM, version=2, crcFailed=0, msgUsed=2, subType=0, refStation=0, msgType=1094)>
2026-06-07 15:47:01,249 - INFO - <UBX(RXM-RTCM, version=2, crcFailed=0, msgUsed=2, subType=0, refStation=0, msgType=1124)>
2026-06-07 15:47:01,249 - INFO - <UBX(RXM-RTCM, version=2, crcFailed=0, msgUsed=2, subType=0, refStation=0, msgType=1230)>
2026-06-07 15:47:01,296 - INFO - <UBX(RXM-RTCM, version=2, crcFailed=0, msgUsed=2, subType=0, refStation=0, msgType=4072)>
2026-06-07 15:47:01,303 - INFO - <UBX(NAV-PVT, iTOW=20:47:01.200000, year=2026, month=6, day=7, hour=20, min=47, second=1, validDate=1, validTime=1, fullyResolved=1, validMag=0, tAcc=22, nano=200130238, fixType=3, gnssFixOk=1, diffSoln=1, psmState=0, headVehValid=0, carrSoln=2, confirmedAvai=1, confirmedDate=1, confirmedTime=1, numSV=28, lon=-97.6641437, lat=37.9008316, height=404426, hMSL=430678, hAcc=52, vAcc=73, velN=3, velE=-7, velD=-2, gSpeed=8, headMot=35.40146, sAcc=64, headAcc=180.0, pDOP=0.9, invalidLlh=0, lastCorrectionAge=1, reserved0=860630572, headVeh=0.0, magDec=0.0, magAcc=0.0)>
2026-06-07 15:47:01,304 - INFO - <NMEA(GNRMC, time=20:47:01.200000, status=A, lat=37.9008316667, NS=N, lon=-97.6641436667, EW=W, spd=0.015, cog=, date=2026-06-07, mv=, mvEW=, posMode=R, navStatus=V)>
2026-06-07 15:47:01,304 - INFO - <NMEA(GNVTG, cogt=, cogtUnit=T, cogm=, cogmUnit=M, sogn=0.015, sognUnit=N, sogk=0.027, sogkUnit=K, posMode=D)>
2026-06-07 15:47:01,305 - INFO - <NMEA(GNGGA, time=20:47:01.200000, lat=37.9008316667, NS=N, lon=-97.6641436667, EW=W, quality=4, numSV=12, HDOP=0.52, alt=430.7, altUnit=M, sep=-26.3, sepUnit=M, diffAge=0.2, diffStation=0)>
2026-06-07 15:47:01,305 - INFO - <NMEA(GNGSA, opMode=M, navMode=3, svid_01=10, svid_02=15, svid_03=18, svid_04=20, svid_05=23, svid_06=24, svid_07=29, svid_08=27, svid_09=32, svid_10=, svid_11=, svid_12=, PDOP=0.9, HDOP=0.52, VDOP=0.74, systemId=1)>
2026-06-07 15:47:01,305 - INFO - <NMEA(GNGSA, opMode=M, navMode=3, svid_01=70, svid_02=86, svid_03=84, svid_04=87, svid_05=85, svid_06=71, svid_07=72, svid_08=, svid_09=, svid_10=, svid_11=, svid_12=, PDOP=0.9, HDOP=0.52, VDOP=0.74, systemId=2)>
2026-06-07 15:47:01,306 - INFO - <NMEA(GNGSA, opMode=M, navMode=3, svid_01=3, svid_02=5, svid_03=8, svid_04=13, svid_05=15, svid_06=34, svid_07=, svid_08=, svid_09=, svid_10=, svid_11=, svid_12=, PDOP=0.9, HDOP=0.52, VDOP=0.74, systemId=3)>
2026-06-07 15:47:01,306 - INFO - <NMEA(GNGSA, opMode=M, navMode=3, svid_01=13, svid_02=27, svid_03=33, svid_04=38, svid_05=41, svid_06=28, svid_07=, svid_08=, svid_09=, svid_10=, svid_11=, svid_12=, PDOP=0.9, HDOP=0.52, VDOP=0.74, systemId=4)>
2026-06-07 15:47:01,307 - INFO - <NMEA(GNGSA, opMode=M, navMode=3, svid_01=, svid_02=, svid_03=, svid_04=, svid_05=, svid_06=, svid_07=, svid_08=, svid_09=, svid_10=, svid_11=, svid_12=, PDOP=0.9, HDOP=0.52, VDOP=0.74, systemId=5)>
2026-06-07 15:47:01,307 - INFO - <NMEA(GPGSV, numMsg=4, msgNum=1, numSV=13, svid_01=5, elv_01=2.0, az_01=78, cno_01=44, svid_02=8, elv_02=2.0, az_02=327, cno_02=21, svid_03=10, elv_03=38.0, az_03=283, cno_03=47, svid_04=15, elv_04=42.0, az_04=48, cno_04=47, signalID=1)>
2026-06-07 15:47:01,308 - INFO - <NMEA(GPGSV, numMsg=4, msgNum=2, numSV=13, svid_01=18, elv_01=77.0, az_01=99, cno_01=46, svid_02=20, elv_02=18.0, az_02=44, cno_02=45, svid_03=23, elv_03=64.0, az_03=327, cno_03=45, svid_04=24, elv_04=32.0, az_04=111, cno_04=43, signalID=1)>
2026-06-07 15:47:01,308 - INFO - <NMEA(GPGSV, numMsg=4, msgNum=3, numSV=13, svid_01=27, elv_01=26.0, az_01=305, cno_01=32, svid_02=29, elv_02=15.0, az_02=177, cno_02=30, svid_03=32, elv_03=13.0, az_03=215, cno_03=38, svid_04=44, elv_04=42.0, az_04=210, cno_04=42, signalID=1)>
2026-06-07 15:47:01,308 - INFO - <NMEA(GPGSV, numMsg=4, msgNum=4, numSV=13, svid_01=46, elv_01=35.0, az_01=225, cno_01=41, signalID=1)>
2026-06-07 15:47:01,309 - INFO - <NMEA(GPGSV, numMsg=3, msgNum=1, numSV=10, svid_01=5, elv_01=2.0, az_01=78, cno_01=39, svid_02=10, elv_02=38.0, az_02=283, cno_02=39, svid_03=15, elv_03=42.0, az_03=48, cno_03=42, svid_04=18, elv_04=77.0, az_04=99, cno_04=43, signalID=6)>
2026-06-07 15:47:01,309 - INFO - <NMEA(GPGSV, numMsg=3, msgNum=2, numSV=10, svid_01=20, elv_01=18.0, az_01=44, cno_01=43, svid_02=23, elv_02=64.0, az_02=327, cno_02=43, svid_03=24, elv_03=32.0, az_03=111, cno_03=36, svid_04=27, elv_04=26.0, az_04=305, cno_04=31, signalID=6)>
2026-06-07 15:47:01,310 - INFO - <NMEA(GPGSV, numMsg=3, msgNum=3, numSV=10, svid_01=29, elv_01=15.0, az_01=177, cno_01=20, svid_02=32, elv_02=13.0, az_02=215, cno_02=27, signalID=6)>
2026-06-07 15:47:01,310 - INFO - <NMEA(GPGSV, numMsg=1, msgNum=1, numSV=1, svid_01=48, elv_01=38.0, az_01=220, cno_01=, signalID=0)>
2026-06-07 15:47:01,310 - INFO - <NMEA(GLGSV, numMsg=3, msgNum=1, numSV=9, svid_01=70, elv_01=44.0, az_01=29, cno_01=49, svid_02=71, elv_02=65.0, az_02=253, cno_02=47, svid_03=72, elv_03=15.0, az_03=228, cno_03=42, svid_04=84, elv_04=10.0, az_04=144, cno_04=42, signalID=1)>
2026-06-07 15:47:01,311 - INFO - <NMEA(GLGSV, numMsg=3, msgNum=2, numSV=9, svid_01=85, elv_01=55.0, az_01=143, cno_01=39, svid_02=86, elv_02=55.0, az_02=328, cno_02=48, svid_03=87, elv_03=15.0, az_03=327, cno_03=29, svid_04=, elv_04=, az_04=, cno_04=39, signalID=1)>
2026-06-07 15:47:01,311 - INFO - <NMEA(GLGSV, numMsg=3, msgNum=3, numSV=9, svid_01=, elv_01=, az_01=, cno_01=40, signalID=1)>
2026-06-07 15:47:01,311 - INFO - <NMEA(GLGSV, numMsg=2, msgNum=1, numSV=6, svid_01=70, elv_01=44.0, az_01=29, cno_01=46, svid_02=71, elv_02=65.0, az_02=253, cno_02=36, svid_03=72, elv_03=15.0, az_03=228, cno_03=32, svid_04=84, elv_04=10.0, az_04=144, cno_04=36, signalID=3)>
2026-06-07 15:47:01,312 - INFO - <NMEA(GLGSV, numMsg=2, msgNum=2, numSV=6, svid_01=85, elv_01=55.0, az_01=143, cno_01=32, svid_02=86, elv_02=55.0, az_02=328, cno_02=39, signalID=3)>
2026-06-07 15:47:01,312 - INFO - <NMEA(GAGSV, numMsg=2, msgNum=1, numSV=8, svid_01=3, elv_01=71.0, az_01=108, cno_01=47, svid_02=5, elv_02=29.0, az_02=45, cno_02=47, svid_03=8, elv_03=37.0, az_03=197, cno_03=43, svid_04=13, elv_04=26.0, az_04=310, cno_04=29, signalID=2)>
2026-06-07 15:47:01,313 - INFO - <NMEA(GAGSV, numMsg=2, msgNum=2, numSV=8, svid_01=15, elv_01=74.0, az_01=4, cno_01=45, svid_02=21, elv_02=4.0, az_02=294, cno_02=18, svid_03=32, elv_03=58.0, az_03=176, cno_03=41, svid_04=34, elv_04=40.0, az_04=109, cno_04=46, signalID=2)>
2026-06-07 15:47:01,313 - INFO - <NMEA(GAGSV, numMsg=2, msgNum=1, numSV=7, svid_01=3, elv_01=71.0, az_01=108, cno_01=41, svid_02=5, elv_02=29.0, az_02=45, cno_02=42, svid_03=8, elv_03=37.0, az_03=197, cno_03=34, svid_04=13, elv_04=26.0, az_04=310, cno_04=32, signalID=7)>
2026-06-07 15:47:01,314 - INFO - <NMEA(GAGSV, numMsg=2, msgNum=2, numSV=7, svid_01=15, elv_01=74.0, az_01=4, cno_01=43, svid_02=32, elv_02=58.0, az_02=176, cno_02=33, svid_03=34, elv_03=40.0, az_03=109, cno_03=28, signalID=7)>
2026-06-07 15:47:01,314 - INFO - <NMEA(GAGSV, numMsg=1, msgNum=1, numSV=1, svid_01=27, elv_01=3.0, az_01=246, cno_01=, signalID=0)>
2026-06-07 15:47:01,314 - INFO - <NMEA(GBGSV, numMsg=3, msgNum=1, numSV=10, svid_01=13, elv_01=37.0, az_01=159, cno_01=34, svid_02=24, elv_02=1.0, az_02=85, cno_02=38, svid_03=27, elv_03=59.0, az_03=295, cno_03=48, svid_04=28, elv_04=64.0, az_04=183, cno_04=44, signalID=1)>
2026-06-07 15:47:01,315 - INFO - <NMEA(GBGSV, numMsg=3, msgNum=2, numSV=10, svid_01=30, elv_01=7.0, az_01=320, cno_01=33, svid_02=32, elv_02=, az_02=, cno_02=36, svid_03=33, elv_03=51.0, az_03=41, cno_03=46, svid_04=38, elv_04=13.0, az_04=152, cno_04=40, signalID=1)>
2026-06-07 15:47:01,315 - INFO - <NMEA(GBGSV, numMsg=3, msgNum=3, numSV=10, svid_01=41, elv_01=70.0, az_01=268, cno_01=48, svid_02=42, elv_02=0.0, az_02=53, cno_02=29, signalID=1)>
2026-06-07 15:47:01,315 - INFO - <NMEA(GQGSV, numMsg=1, msgNum=1, numSV=0, signalID=0)>
2026-06-07 15:47:01,316 - INFO - <NMEA(GNGLL, lat=37.9008316667, NS=N, lon=-97.6641436667, EW=W, time=20:47:01.200000, status=A, posMode=D)>
2026-06-07 15:47:01,316 - INFO - <UBX(NAV-RELPOSNED, version=1, reserved0=0, refStationID=0, iTOW=20:47:01.200000, relPosN=57.78, relPosE=8.93, relPosD=-0.37, relPosLength=58.47, relPosHeading=8.78713, reserved1=0, accN=10.0, accE=10.0, accD=12.3, accLength=10.0, accHeading=0.98001, reserved2=0, gnssFixOK=1, diffSoln=1, relPosValid=1, carrSoln=2, isMoving=1, refPosMiss=0, refObsMiss=0, relPosHeadingValid=1, relPosNormalized=0)>
2026-06-07 15:47:01,317 - INFO - 2026-06-07 15:47:01 Initial Moving Baseline state: active
2026-06-07 15:47:01,317 - INFO - 2026-06-07 15:47:01 Initial carrier solution: fixed
2026-06-07 15:47:01,317 - INFO - 2026-06-07 15:47:01, current_target: {'timestamp': '2026-05-10 13:40:05', 'lat': 37.9008713333, 'lon': -97.66418, 'speed': 0.004629996, 'y_offset': 0.0, 'x_offset': 0.0, 'z_offset': 0.0, 'heading': 1.76477}, next_target: {'timestamp': '2026-05-10 13:40:06', 'lat': 37.9008713333, 'lon': -97.66418, 'speed': 0.00514444, 'y_offset': 0.0, 'x_offset': 0.0, 'z_offset': 0.0, 'heading': 1.76299}
2026-06-07 15:47:01,442 - INFO - <UBX(RXM-RTCM, version=2, crcFailed=0, msgUsed=2, subType=0, refStation=0, msgType=1074)>
2026-06-07 15:47:01,442 - INFO - 2026-06-07 15:47:01, current_target: {'timestamp': '2026-05-10 13:40:05', 'lat': 37.9008713333, 'lon': -97.66418, 'speed': 0.004629996, 'y_offset': 0.0, 'x_offset': 0.0, 'z_offset': 0.0, 'heading': 1.76477}, next_target: {'timestamp': '2026-05-10 13:40:06', 'lat': 37.9008713333, 'lon': -97.66418, 'speed': 0.00514444, 'y_offset': 0.0, 'x_offset': 0.0, 'z_offset': 0.0, 'heading': 1.76299}
2026-06-07 15:47:01,442 - INFO - 2026-06-07 15:47:01 [3.4 OBSERVED] current_turn_radius: infm
2026-06-07 15:47:01,442 - INFO - 2026-06-07 15:47:01 [3.4 OBSERVED] turn_direction: STRAIGHT
2026-06-07 15:47:01,442 - INFO - 2026-06-07 15:47:01 [3.4 OBSERVED] estimated left/right wheel speeds: 0.012, 0.012 rad/s
2026-06-07 15:47:01,445 - INFO - 2026-06-07 15:47:01 [STATE] Current state: NAVIGATING_TO_START
2026-06-07 15:47:01,445 - INFO - 2026-06-07 15:47:01 [NAV_TO_START] Phase: DRIVE_TO_START, Dist: 5.440m, Bearing err: -44.8°, Heading diff: 7.0°, Elapsed: 0.4s
2026-06-07 15:47:01,445 - INFO - 2026-06-07 15:47:01 [NAV_TO_START] DRIVE: bearing=324.0°, dist=5.44m, turn=LEFT, radius=3.86m, speed=1.00
2026-06-07 15:47:01,445 - INFO - 2026-06-07 15:47:01 Turn: LEFT, Radius: 3.86m, DLWS: 1.44 rad/s, DRWS: 1.64 rad/s
2026-06-07 15:47:01,445 - INFO - 2026-06-07 15:47:01 left_actuator_position: 815 (counts) from DLWS 1.437 rad/s
2026-06-07 15:47:01,445 - INFO - 2026-06-07 15:47:01 right_actuator_position: 775 (counts) from DRWS 1.640 rad/s
2026-06-07 15:47:01,445 - INFO - 2026-06-07 15:47:01 LAM: 73.86 mm/(rad/s), RAM: 73.86 mm/(rad/s)
2026-06-07 15:47:01,445 - INFO - 2026-06-07 15:47:01 DLAP: 106.16 mm, DRAP: 121.11 mm
2026-06-07 15:47:01,459 - INFO - Sent actuator positions to RoboClaw → M1 (left): 815, M2 (right): 775 (counts)
2026-06-07 15:47:01,459 - INFO - 2026-06-07 15:47:01 APPLY → left_pos: 815, right_pos: 775 (counts), DLAP: 106.16 mm, DRAP: 121.11 mm
2026-06-07 15:47:01,459 - INFO - <UBX(RXM-RTCM, version=2, crcFailed=0, msgUsed=2, subType=0, refStation=0, msgType=1084)>
2026-06-07 15:47:01,459 - INFO - <UBX(RXM-RTCM, version=2, crcFailed=0, msgUsed=2, subType=0, refStation=0, msgType=1094)>
2026-06-07 15:47:01,459 - INFO - <UBX(RXM-RTCM, version=2, crcFailed=0, msgUsed=2, subType=0, refStation=0, msgType=1124)>
2026-06-07 15:47:01,459 - INFO - <UBX(RXM-RTCM, version=2, crcFailed=0, msgUsed=2, subType=0, refStation=0, msgType=1230)>
2026-06-07 15:47:01,493 - INFO - <UBX(NAV-PVT, iTOW=20:47:01.400000, year=2026, month=6, day=7, hour=20, min=47, second=1, validDate=1, validTime=1, fullyResolved=1, validMag=0, tAcc=22, nano=400130194, fixType=3, gnssFixOk=1, diffSoln=1, psmState=0, headVehValid=0, carrSoln=2, confirmedAvai=1, confirmedDate=1, confirmedTime=1, numSV=28, lon=-97.6641437, lat=37.9008316, height=404422, hMSL=430675, hAcc=53, vAcc=75, velN=-2, velE=4, velD=-2, gSpeed=4, headMot=35.40146, sAcc=68, headAcc=180.0, pDOP=0.9, invalidLlh=0, lastCorrectionAge=1, reserved0=860630572, headVeh=0.0, magDec=0.0, magAcc=0.0)>
2026-06-07 15:47:01,494 - INFO - <NMEA(GNRMC, time=20:47:01.400000, status=A, lat=37.9008316667, NS=N, lon=-97.6641436667, EW=W, spd=0.008, cog=, date=2026-06-07, mv=, mvEW=, posMode=R, navStatus=V)>
2026-06-07 15:47:01,494 - INFO - <NMEA(GNVTG, cogt=, cogtUnit=T, cogm=, cogmUnit=M, sogn=0.008, sognUnit=N, sogk=0.015, sogkUnit=K, posMode=D)>
2026-06-07 15:47:01,495 - INFO - <NMEA(GNGGA, time=20:47:01.400000, lat=37.9008316667, NS=N, lon=-97.6641436667, EW=W, quality=4, numSV=12, HDOP=0.52, alt=430.7, altUnit=M, sep=-26.3, sepUnit=M, diffAge=0.2, diffStation=0)>
2026-06-07 15:47:01,495 - INFO - <NMEA(GNGSA, opMode=M, navMode=3, svid_01=10, svid_02=15, svid_03=18, svid_04=20, svid_05=23, svid_06=24, svid_07=29, svid_08=27, svid_09=32, svid_10=, svid_11=, svid_12=, PDOP=0.9, HDOP=0.52, VDOP=0.74, systemId=1)>
2026-06-07 15:47:01,495 - INFO - <NMEA(GNGSA, opMode=M, navMode=3, svid_01=70, svid_02=86, svid_03=84, svid_04=87, svid_05=85, svid_06=71, svid_07=72, svid_08=, svid_09=, svid_10=, svid_11=, svid_12=, PDOP=0.9, HDOP=0.52, VDOP=0.74, systemId=2)>
2026-06-07 15:47:01,496 - INFO - <NMEA(GNGSA, opMode=M, navMode=3, svid_01=3, svid_02=5, svid_03=8, svid_04=13, svid_05=15, svid_06=34, svid_07=, svid_08=, svid_09=, svid_10=, svid_11=, svid_12=, PDOP=0.9, HDOP=0.52, VDOP=0.74, systemId=3)>
2026-06-07 15:47:01,496 - INFO - <NMEA(GNGSA, opMode=M, navMode=3, svid_01=13, svid_02=27, svid_03=33, svid_04=38, svid_05=41, svid_06=28, svid_07=, svid_08=, svid_09=, svid_10=, svid_11=, svid_12=, PDOP=0.9, HDOP=0.52, VDOP=0.74, systemId=4)>
2026-06-07 15:47:01,497 - INFO - <NMEA(GNGSA, opMode=M, navMode=3, svid_01=, svid_02=, svid_03=, svid_04=, svid_05=, svid_06=, svid_07=, svid_08=, svid_09=, svid_10=, svid_11=, svid_12=, PDOP=0.9, HDOP=0.52, VDOP=0.74, systemId=5)>
2026-06-07 15:47:01,497 - INFO - <UBX(RXM-RTCM, version=2, crcFailed=0, msgUsed=2, subType=0, refStation=0, msgType=4072)>
2026-06-07 15:47:01,497 - INFO - <NMEA(GPGSV, numMsg=4, msgNum=1, numSV=13, svid_01=5, elv_01=2.0, az_01=78, cno_01=44, svid_02=8, elv_02=2.0, az_02=327, cno_02=22, svid_03=10, elv_03=38.0, az_03=283, cno_03=47, svid_04=15, elv_04=42.0, az_04=48, cno_04=47, signalID=1)>
2026-06-07 15:47:01,498 - INFO - <NMEA(GPGSV, numMsg=4, msgNum=2, numSV=13, svid_01=18, elv_01=77.0, az_01=99, cno_01=46, svid_02=20, elv_02=18.0, az_02=44, cno_02=45, svid_03=23, elv_03=64.0, az_03=327, cno_03=45, svid_04=24, elv_04=32.0, az_04=111, cno_04=43, signalID=1)>
2026-06-07 15:47:01,498 - INFO - <NMEA(GPGSV, numMsg=4, msgNum=3, numSV=13, svid_01=27, elv_01=26.0, az_01=305, cno_01=32, svid_02=29, elv_02=15.0, az_02=177, cno_02=30, svid_03=32, elv_03=13.0, az_03=215, cno_03=38, svid_04=44, elv_04=42.0, az_04=210, cno_04=42, signalID=1)>
2026-06-07 15:47:01,498 - INFO - <NMEA(GPGSV, numMsg=4, msgNum=4, numSV=13, svid_01=46, elv_01=35.0, az_01=225, cno_01=41, signalID=1)>
2026-06-07 15:47:01,499 - INFO - <NMEA(GPGSV, numMsg=3, msgNum=1, numSV=10, svid_01=5, elv_01=2.0, az_01=78, cno_01=39, svid_02=10, elv_02=38.0, az_02=283, cno_02=38, svid_03=15, elv_03=42.0, az_03=48, cno_03=42, svid_04=18, elv_04=77.0, az_04=99, cno_04=43, signalID=6)>
2026-06-07 15:47:01,499 - INFO - <NMEA(GPGSV, numMsg=3, msgNum=2, numSV=10, svid_01=20, elv_01=18.0, az_01=44, cno_01=43, svid_02=23, elv_02=64.0, az_02=327, cno_02=43, svid_03=24, elv_03=32.0, az_03=111, cno_03=36, svid_04=27, elv_04=26.0, az_04=305, cno_04=31, signalID=6)>
2026-06-07 15:47:01,500 - INFO - <NMEA(GPGSV, numMsg=3, msgNum=3, numSV=10, svid_01=29, elv_01=15.0, az_01=177, cno_01=19, svid_02=32, elv_02=13.0, az_02=215, cno_02=27, signalID=6)>
2026-06-07 15:47:01,500 - INFO - <NMEA(GPGSV, numMsg=1, msgNum=1, numSV=1, svid_01=48, elv_01=38.0, az_01=220, cno_01=, signalID=0)>
2026-06-07 15:47:01,500 - INFO - <NMEA(GLGSV, numMsg=3, msgNum=1, numSV=9, svid_01=70, elv_01=44.0, az_01=29, cno_01=49, svid_02=71, elv_02=65.0, az_02=253, cno_02=46, svid_03=72, elv_03=15.0, az_03=228, cno_03=42, svid_04=84, elv_04=10.0, az_04=144, cno_04=42, signalID=1)>
2026-06-07 15:47:01,501 - INFO - <NMEA(GLGSV, numMsg=3, msgNum=2, numSV=9, svid_01=85, elv_01=55.0, az_01=143, cno_01=39, svid_02=86, elv_02=55.0, az_02=328, cno_02=48, svid_03=87, elv_03=15.0, az_03=327, cno_03=29, svid_04=, elv_04=, az_04=, cno_04=39, signalID=1)>
2026-06-07 15:47:01,501 - INFO - <NMEA(GLGSV, numMsg=3, msgNum=3, numSV=9, svid_01=, elv_01=, az_01=, cno_01=40, signalID=1)>
2026-06-07 15:47:01,502 - INFO - <NMEA(GLGSV, numMsg=2, msgNum=1, numSV=6, svid_01=70, elv_01=44.0, az_01=29, cno_01=46, svid_02=71, elv_02=65.0, az_02=253, cno_02=36, svid_03=72, elv_03=15.0, az_03=228, cno_03=32, svid_04=84, elv_04=10.0, az_04=144, cno_04=36, signalID=3)>
2026-06-07 15:47:01,502 - INFO - <NMEA(GLGSV, numMsg=2, msgNum=2, numSV=6, svid_01=85, elv_01=55.0, az_01=143, cno_01=32, svid_02=86, elv_02=55.0, az_02=328, cno_02=39, signalID=3)>
2026-06-07 15:47:01,502 - INFO - <NMEA(GAGSV, numMsg=2, msgNum=1, numSV=8, svid_01=3, elv_01=71.0, az_01=108, cno_01=47, svid_02=5, elv_02=29.0, az_02=45, cno_02=47, svid_03=8, elv_03=37.0, az_03=197, cno_03=43, svid_04=13, elv_04=26.0, az_04=310, cno_04=30, signalID=2)>
2026-06-07 15:47:01,503 - INFO - <NMEA(GAGSV, numMsg=2, msgNum=2, numSV=8, svid_01=15, elv_01=74.0, az_01=4, cno_01=45, svid_02=21, elv_02=4.0, az_02=294, cno_02=18, svid_03=32, elv_03=58.0, az_03=176, cno_03=41, svid_04=34, elv_04=40.0, az_04=109, cno_04=46, signalID=2)>
2026-06-07 15:47:01,503 - INFO - <NMEA(GAGSV, numMsg=2, msgNum=1, numSV=7, svid_01=3, elv_01=71.0, az_01=108, cno_01=41, svid_02=5, elv_02=29.0, az_02=45, cno_02=42, svid_03=8, elv_03=37.0, az_03=197, cno_03=34, svid_04=13, elv_04=26.0, az_04=310, cno_04=32, signalID=7)>
2026-06-07 15:47:01,504 - INFO - <NMEA(GAGSV, numMsg=2, msgNum=2, numSV=7, svid_01=15, elv_01=74.0, az_01=4, cno_01=43, svid_02=32, elv_02=58.0, az_02=176, cno_02=33, svid_03=34, elv_03=40.0, az_03=109, cno_03=28, signalID=7)>
2026-06-07 15:47:01,504 - INFO - <NMEA(GAGSV, numMsg=1, msgNum=1, numSV=1, svid_01=27, elv_01=3.0, az_01=246, cno_01=, signalID=0)>
2026-06-07 15:47:01,504 - INFO - <NMEA(GBGSV, numMsg=3, msgNum=1, numSV=10, svid_01=13, elv_01=37.0, az_01=159, cno_01=34, svid_02=24, elv_02=1.0, az_02=85, cno_02=38, svid_03=27, elv_03=59.0, az_03=295, cno_03=48, svid_04=28, elv_04=64.0, az_04=183, cno_04=44, signalID=1)>
2026-06-07 15:47:01,505 - INFO - <NMEA(GBGSV, numMsg=3, msgNum=2, numSV=10, svid_01=30, elv_01=7.0, az_01=320, cno_01=33, svid_02=32, elv_02=, az_02=, cno_02=35, svid_03=33, elv_03=51.0, az_03=41, cno_03=46, svid_04=38, elv_04=13.0, az_04=152, cno_04=40, signalID=1)>
2026-06-07 15:47:01,505 - INFO - <NMEA(GBGSV, numMsg=3, msgNum=3, numSV=10, svid_01=41, elv_01=70.0, az_01=268, cno_01=48, svid_02=42, elv_02=0.0, az_02=53, cno_02=29, signalID=1)>
2026-06-07 15:47:01,505 - INFO - <NMEA(GQGSV, numMsg=1, msgNum=1, numSV=0, signalID=0)>
2026-06-07 15:47:01,506 - INFO - <NMEA(GNGLL, lat=37.9008316667, NS=N, lon=-97.6641436667, EW=W, time=20:47:01.400000, status=A, posMode=D)>
2026-06-07 15:47:01,506 - INFO - <UBX(NAV-RELPOSNED, version=1, reserved0=0, refStationID=0, iTOW=20:47:01.400000, relPosN=57.81, relPosE=8.69, relPosD=-0.2, relPosLength=58.46, relPosHeading=8.551, reserved1=0, accN=10.0, accE=10.0, accD=12.5, accLength=10.0, accHeading=0.98009, reserved2=0, gnssFixOK=1, diffSoln=1, relPosValid=1, carrSoln=2, isMoving=1, refPosMiss=0, refObsMiss=0, relPosHeadingValid=1, relPosNormalized=0)>
2026-06-07 15:47:01,507 - INFO - 2026-06-07 15:47:01, current_target: {'timestamp': '2026-05-10 13:40:05', 'lat': 37.9008713333, 'lon': -97.66418, 'speed': 0.004629996, 'y_offset': 0.0, 'x_offset': 0.0, 'z_offset': 0.0, 'heading': 1.76477}, next_target: {'timestamp': '2026-05-10 13:40:06', 'lat': 37.9008713333, 'lon': -97.66418, 'speed': 0.00514444, 'y_offset': 0.0, 'x_offset': 0.0, 'z_offset': 0.0, 'heading': 1.76299}
2026-06-07 15:47:01,507 - INFO - 2026-06-07 15:47:01 [3.4 OBSERVED] current_turn_radius: infm
2026-06-07 15:47:01,507 - INFO - 2026-06-07 15:47:01 [3.4 OBSERVED] turn_direction: LEFT
2026-06-07 15:47:01,507 - INFO - 2026-06-07 15:47:01 [3.4 OBSERVED] estimated left/right wheel speeds: nan, nan rad/s
2026-06-07 15:47:01,510 - INFO - 2026-06-07 15:47:01 [STATE] Current state: NAVIGATING_TO_START
2026-06-07 15:47:01,510 - INFO - 2026-06-07 15:47:01 [NAV_TO_START] Phase: DRIVE_TO_START, Dist: 5.440m, Bearing err: -44.5°, Heading diff: 6.8°, Elapsed: 0.5s
2026-06-07 15:47:01,510 - INFO - 2026-06-07 15:47:01 [NAV_TO_START] DRIVE: bearing=324.0°, dist=5.44m, turn=LEFT, radius=3.88m, speed=1.00
2026-06-07 15:47:01,510 - INFO - 2026-06-07 15:47:01 Turn: LEFT, Radius: 3.88m, DLWS: 1.44 rad/s, DRWS: 1.64 rad/s
2026-06-07 15:47:01,510 - INFO - 2026-06-07 15:47:01 left_actuator_position: 815 (counts) from DLWS 1.438 rad/s
2026-06-07 15:47:01,510 - INFO - 2026-06-07 15:47:01 right_actuator_position: 775 (counts) from DRWS 1.639 rad/s
2026-06-07 15:47:01,510 - INFO - 2026-06-07 15:47:01 LAM: 73.86 mm/(rad/s), RAM: 73.86 mm/(rad/s)
2026-06-07 15:47:01,510 - INFO - 2026-06-07 15:47:01 DLAP: 106.20 mm, DRAP: 121.08 mm
2026-06-07 15:47:01,525 - INFO - Sent actuator positions to RoboClaw → M1 (left): 815, M2 (right): 775 (counts)
2026-06-07 15:47:01,525 - INFO - 2026-06-07 15:47:01 APPLY → left_pos: 815, right_pos: 775 (counts), DLAP: 106.20 mm, DRAP: 121.08 mm
2026-06-07 15:47:01,642 - INFO - <UBX(RXM-RTCM, version=2, crcFailed=0, msgUsed=2, subType=0, refStation=0, msgType=1074)>
2026-06-07 15:47:01,645 - INFO - <UBX(RXM-RTCM, version=2, crcFailed=0, msgUsed=2, subType=0, refStation=0, msgType=1084)>
2026-06-07 15:47:01,647 - INFO - <UBX(RXM-RTCM, version=2, crcFailed=0, msgUsed=2, subType=0, refStation=0, msgType=1094)>
2026-06-07 15:47:01,649 - INFO - <UBX(RXM-RTCM, version=2, crcFailed=0, msgUsed=2, subType=0, refStation=0, msgType=1124)>
2026-06-07 15:47:01,649 - INFO - <UBX(RXM-RTCM, version=2, crcFailed=0, msgUsed=2, subType=0, refStation=0, msgType=1230)>
2026-06-07 15:47:01,695 - INFO - <UBX(RXM-RTCM, version=2, crcFailed=0, msgUsed=2, subType=0, refStation=0, msgType=4072)>
2026-06-07 15:47:01,696 - INFO - <UBX(NAV-PVT, iTOW=20:47:01.600000, year=2026, month=6, day=7, hour=20, min=47, second=1, validDate=1, validTime=1, fullyResolved=1, validMag=0, tAcc=22, nano=600130151, fixType=3, gnssFixOk=1, diffSoln=1, psmState=0, headVehValid=0, carrSoln=2, confirmedAvai=1, confirmedDate=1, confirmedTime=1, numSV=28, lon=-97.6641436, lat=37.9008316, height=404425, hMSL=430678, hAcc=53, vAcc=74, velN=2, velE=-5, velD=8, gSpeed=5, headMot=35.40146, sAcc=76, headAcc=180.0, pDOP=0.9, invalidLlh=0, lastCorrectionAge=1, reserved0=860630572, headVeh=0.0, magDec=0.0, magAcc=0.0)>
2026-06-07 15:47:01,697 - INFO - <NMEA(GNRMC, time=20:47:01.600000, status=A, lat=37.9008316667, NS=N, lon=-97.6641436667, EW=W, spd=0.01, cog=, date=2026-06-07, mv=, mvEW=, posMode=R, navStatus=V)>
2026-06-07 15:47:01,697 - INFO - <NMEA(GNVTG, cogt=, cogtUnit=T, cogm=, cogmUnit=M, sogn=0.01, sognUnit=N, sogk=0.019, sogkUnit=K, posMode=D)>
2026-06-07 15:47:01,698 - INFO - <NMEA(GNGGA, time=20:47:01.600000, lat=37.9008316667, NS=N, lon=-97.6641436667, EW=W, quality=4, numSV=12, HDOP=0.52, alt=430.7, altUnit=M, sep=-26.3, sepUnit=M, diffAge=0.2, diffStation=0)>
2026-06-07 15:47:01,698 - INFO - <NMEA(GNGSA, opMode=M, navMode=3, svid_01=10, svid_02=15, svid_03=18, svid_04=20, svid_05=23, svid_06=24, svid_07=29, svid_08=27, svid_09=32, svid_10=, svid_11=, svid_12=, PDOP=0.9, HDOP=0.52, VDOP=0.74, systemId=1)>
2026-06-07 15:47:01,698 - INFO - <NMEA(GNGSA, opMode=M, navMode=3, svid_01=70, svid_02=86, svid_03=84, svid_04=87, svid_05=85, svid_06=71, svid_07=72, svid_08=, svid_09=, svid_10=, svid_11=, svid_12=, PDOP=0.9, HDOP=0.52, VDOP=0.74, systemId=2)>
2026-06-07 15:47:01,699 - INFO - <NMEA(GNGSA, opMode=M, navMode=3, svid_01=3, svid_02=5, svid_03=8, svid_04=13, svid_05=15, svid_06=34, svid_07=, svid_08=, svid_09=, svid_10=, svid_11=, svid_12=, PDOP=0.9, HDOP=0.52, VDOP=0.74, systemId=3)>
2026-06-07 15:47:01,699 - INFO - <NMEA(GNGSA, opMode=M, navMode=3, svid_01=13, svid_02=27, svid_03=33, svid_04=38, svid_05=41, svid_06=28, svid_07=, svid_08=, svid_09=, svid_10=, svid_11=, svid_12=, PDOP=0.9, HDOP=0.52, VDOP=0.74, systemId=4)>
2026-06-07 15:47:01,700 - INFO - <NMEA(GNGSA, opMode=M, navMode=3, svid_01=, svid_02=, svid_03=, svid_04=, svid_05=, svid_06=, svid_07=, svid_08=, svid_09=, svid_10=, svid_11=, svid_12=, PDOP=0.9, HDOP=0.52, VDOP=0.74, systemId=5)>
2026-06-07 15:47:01,700 - INFO - <NMEA(GPGSV, numMsg=4, msgNum=1, numSV=13, svid_01=5, elv_01=2.0, az_01=78, cno_01=44, svid_02=8, elv_02=2.0, az_02=327, cno_02=22, svid_03=10, elv_03=38.0, az_03=283, cno_03=47, svid_04=15, elv_04=42.0, az_04=48, cno_04=47, signalID=1)>
2026-06-07 15:47:01,701 - INFO - <NMEA(GPGSV, numMsg=4, msgNum=2, numSV=13, svid_01=18, elv_01=77.0, az_01=99, cno_01=46, svid_02=20, elv_02=18.0, az_02=44, cno_02=45, svid_03=23, elv_03=64.0, az_03=327, cno_03=45, svid_04=24, elv_04=32.0, az_04=111, cno_04=43, signalID=1)>
2026-06-07 15:47:01,701 - INFO - <NMEA(GPGSV, numMsg=4, msgNum=3, numSV=13, svid_01=27, elv_01=26.0, az_01=305, cno_01=32, svid_02=29, elv_02=15.0, az_02=177, cno_02=30, svid_03=32, elv_03=13.0, az_03=215, cno_03=38, svid_04=44, elv_04=42.0, az_04=210, cno_04=42, signalID=1)>
2026-06-07 15:47:01,701 - INFO - <NMEA(GPGSV, numMsg=4, msgNum=4, numSV=13, svid_01=46, elv_01=35.0, az_01=225, cno_01=41, signalID=1)>
2026-06-07 15:47:01,702 - INFO - <NMEA(GPGSV, numMsg=3, msgNum=1, numSV=10, svid_01=5, elv_01=2.0, az_01=78, cno_01=39, svid_02=10, elv_02=38.0, az_02=283, cno_02=39, svid_03=15, elv_03=42.0, az_03=48, cno_03=42, svid_04=18, elv_04=77.0, az_04=99, cno_04=43, signalID=6)>
2026-06-07 15:47:01,702 - INFO - <NMEA(GPGSV, numMsg=3, msgNum=2, numSV=10, svid_01=20, elv_01=18.0, az_01=44, cno_01=43, svid_02=23, elv_02=64.0, az_02=327, cno_02=43, svid_03=24, elv_03=32.0, az_03=111, cno_03=36, svid_04=27, elv_04=26.0, az_04=305, cno_04=31, signalID=6)>
2026-06-07 15:47:01,703 - INFO - <NMEA(GPGSV, numMsg=3, msgNum=3, numSV=10, svid_01=29, elv_01=15.0, az_01=177, cno_01=19, svid_02=32, elv_02=13.0, az_02=215, cno_02=27, signalID=6)>
2026-06-07 15:47:01,703 - INFO - <NMEA(GPGSV, numMsg=1, msgNum=1, numSV=1, svid_01=48, elv_01=38.0, az_01=220, cno_01=, signalID=0)>
2026-06-07 15:47:01,703 - INFO - <NMEA(GLGSV, numMsg=3, msgNum=1, numSV=9, svid_01=70, elv_01=44.0, az_01=29, cno_01=49, svid_02=71, elv_02=65.0, az_02=253, cno_02=46, svid_03=72, elv_03=15.0, az_03=228, cno_03=42, svid_04=84, elv_04=10.0, az_04=144, cno_04=42, signalID=1)>
2026-06-07 15:47:01,704 - INFO - <NMEA(GLGSV, numMsg=3, msgNum=2, numSV=9, svid_01=85, elv_01=55.0, az_01=143, cno_01=39, svid_02=86, elv_02=55.0, az_02=328, cno_02=48, svid_03=87, elv_03=15.0, az_03=327, cno_03=29, svid_04=, elv_04=, az_04=, cno_04=39, signalID=1)>
2026-06-07 15:47:01,704 - INFO - <NMEA(GLGSV, numMsg=3, msgNum=3, numSV=9, svid_01=, elv_01=, az_01=, cno_01=40, signalID=1)>
2026-06-07 15:47:01,704 - INFO - <NMEA(GLGSV, numMsg=2, msgNum=1, numSV=6, svid_01=70, elv_01=44.0, az_01=29, cno_01=46, svid_02=71, elv_02=65.0, az_02=253, cno_02=36, svid_03=72, elv_03=15.0, az_03=228, cno_03=32, svid_04=84, elv_04=10.0, az_04=144, cno_04=36, signalID=3)>
2026-06-07 15:47:01,705 - INFO - <NMEA(GLGSV, numMsg=2, msgNum=2, numSV=6, svid_01=85, elv_01=55.0, az_01=143, cno_01=32, svid_02=86, elv_02=55.0, az_02=328, cno_02=39, signalID=3)>
2026-06-07 15:47:01,705 - INFO - <NMEA(GAGSV, numMsg=2, msgNum=1, numSV=8, svid_01=3, elv_01=71.0, az_01=108, cno_01=47, svid_02=5, elv_02=29.0, az_02=45, cno_02=47, svid_03=8, elv_03=37.0, az_03=197, cno_03=43, svid_04=13, elv_04=26.0, az_04=310, cno_04=30, signalID=2)>
2026-06-07 15:47:01,706 - INFO - <NMEA(GAGSV, numMsg=2, msgNum=2, numSV=8, svid_01=15, elv_01=74.0, az_01=4, cno_01=45, svid_02=21, elv_02=4.0, az_02=294, cno_02=18, svid_03=32, elv_03=58.0, az_03=176, cno_03=41, svid_04=34, elv_04=40.0, az_04=109, cno_04=46, signalID=2)>
2026-06-07 15:47:01,706 - INFO - <NMEA(GAGSV, numMsg=2, msgNum=1, numSV=7, svid_01=3, elv_01=71.0, az_01=108, cno_01=41, svid_02=5, elv_02=29.0, az_02=45, cno_02=43, svid_03=8, elv_03=37.0, az_03=197, cno_03=34, svid_04=13, elv_04=26.0, az_04=310, cno_04=32, signalID=7)>
2026-06-07 15:47:01,707 - INFO - <NMEA(GAGSV, numMsg=2, msgNum=2, numSV=7, svid_01=15, elv_01=74.0, az_01=4, cno_01=43, svid_02=32, elv_02=58.0, az_02=176, cno_02=33, svid_03=34, elv_03=40.0, az_03=109, cno_03=28, signalID=7)>
2026-06-07 15:47:01,707 - INFO - <NMEA(GAGSV, numMsg=1, msgNum=1, numSV=1, svid_01=27, elv_01=3.0, az_01=246, cno_01=, signalID=0)>
2026-06-07 15:47:01,707 - INFO - <NMEA(GBGSV, numMsg=3, msgNum=1, numSV=10, svid_01=13, elv_01=37.0, az_01=159, cno_01=34, svid_02=24, elv_02=1.0, az_02=85, cno_02=38, svid_03=27, elv_03=59.0, az_03=295, cno_03=48, svid_04=28, elv_04=64.0, az_04=183, cno_04=44, signalID=1)>
2026-06-07 15:47:01,708 - INFO - <NMEA(GBGSV, numMsg=3, msgNum=2, numSV=10, svid_01=30, elv_01=7.0, az_01=320, cno_01=33, svid_02=32, elv_02=, az_02=, cno_02=35, svid_03=33, elv_03=51.0, az_03=41, cno_03=46, svid_04=38, elv_04=13.0, az_04=152, cno_04=40, signalID=1)>
2026-06-07 15:47:01,708 - INFO - <NMEA(GBGSV, numMsg=3, msgNum=3, numSV=10, svid_01=41, elv_01=70.0, az_01=268, cno_01=48, svid_02=42, elv_02=0.0, az_02=53, cno_02=29, signalID=1)>
2026-06-07 15:47:01,708 - INFO - <NMEA(GQGSV, numMsg=1, msgNum=1, numSV=0, signalID=0)>
2026-06-07 15:47:01,709 - INFO - <NMEA(GNGLL, lat=37.9008316667, NS=N, lon=-97.6641436667, EW=W, time=20:47:01.600000, status=A, posMode=D)>
2026-06-07 15:47:01,709 - INFO - <UBX(NAV-RELPOSNED, version=1, reserved0=0, refStationID=0, iTOW=20:47:01.600000, relPosN=57.79, relPosE=8.89, relPosD=-0.67, relPosLength=58.47, relPosHeading=8.74466, reserved1=0, accN=10.0, accE=10.0, accD=12.7, accLength=10.0, accHeading=0.97991, reserved2=0, gnssFixOK=1, diffSoln=1, relPosValid=1, carrSoln=2, isMoving=1, refPosMiss=0, refObsMiss=0, relPosHeadingValid=1, relPosNormalized=0)>
2026-06-07 15:47:01,710 - INFO - 2026-06-07 15:47:01, current_target: {'timestamp': '2026-05-10 13:40:05', 'lat': 37.9008713333, 'lon': -97.66418, 'speed': 0.004629996, 'y_offset': 0.0, 'x_offset': 0.0, 'z_offset': 0.0, 'heading': 1.76477}, next_target: {'timestamp': '2026-05-10 13:40:06', 'lat': 37.9008713333, 'lon': -97.66418, 'speed': 0.00514444, 'y_offset': 0.0, 'x_offset': 0.0, 'z_offset': 0.0, 'heading': 1.76299}
2026-06-07 15:47:01,710 - INFO - 2026-06-07 15:47:01 [3.4 OBSERVED] current_turn_radius: infm
2026-06-07 15:47:01,710 - INFO - 2026-06-07 15:47:01 [3.4 OBSERVED] turn_direction: RIGHT
2026-06-07 15:47:01,710 - INFO - 2026-06-07 15:47:01 [3.4 OBSERVED] estimated left/right wheel speeds: nan, nan rad/s
2026-06-07 15:47:01,713 - INFO - 2026-06-07 15:47:01 [STATE] Current state: NAVIGATING_TO_START
2026-06-07 15:47:01,713 - INFO - 2026-06-07 15:47:01 [NAV_TO_START] Phase: DRIVE_TO_START, Dist: 5.440m, Bearing err: -44.7°, Heading diff: 7.0°, Elapsed: 0.7s
2026-06-07 15:47:01,713 - INFO - 2026-06-07 15:47:01 [NAV_TO_START] DRIVE: bearing=324.0°, dist=5.44m, turn=LEFT, radius=3.87m, speed=1.00
2026-06-07 15:47:01,713 - INFO - 2026-06-07 15:47:01 Turn: LEFT, Radius: 3.87m, DLWS: 1.44 rad/s, DRWS: 1.64 rad/s
2026-06-07 15:47:01,713 - INFO - 2026-06-07 15:47:01 left_actuator_position: 815 (counts) from DLWS 1.437 rad/s
2026-06-07 15:47:01,713 - INFO - 2026-06-07 15:47:01 right_actuator_position: 775 (counts) from DRWS 1.640 rad/s
2026-06-07 15:47:01,713 - INFO - 2026-06-07 15:47:01 LAM: 73.86 mm/(rad/s), RAM: 73.86 mm/(rad/s)
2026-06-07 15:47:01,713 - INFO - 2026-06-07 15:47:01 DLAP: 106.17 mm, DRAP: 121.10 mm
2026-06-07 15:47:01,726 - INFO - Sent actuator positions to RoboClaw → M1 (left): 815, M2 (right): 775 (counts)
2026-06-07 15:47:01,726 - INFO - 2026-06-07 15:47:01 APPLY → left_pos: 815, right_pos: 775 (counts), DLAP: 106.17 mm, DRAP: 121.10 mm
2026-06-07 15:47:01,842 - INFO - <UBX(RXM-RTCM, version=2, crcFailed=0, msgUsed=2, subType=0, refStation=0, msgType=1074)>
2026-06-07 15:47:01,845 - INFO - <UBX(RXM-RTCM, version=2, crcFailed=0, msgUsed=2, subType=0, refStation=0, msgType=1084)>
2026-06-07 15:47:01,847 - INFO - <UBX(RXM-RTCM, version=2, crcFailed=0, msgUsed=2, subType=0, refStation=0, msgType=1094)>
2026-06-07 15:47:01,849 - INFO - <UBX(RXM-RTCM, version=2, crcFailed=0, msgUsed=2, subType=0, refStation=0, msgType=1124)>
2026-06-07 15:47:01,849 - INFO - <UBX(RXM-RTCM, version=2, crcFailed=0, msgUsed=2, subType=0, refStation=0, msgType=1230)>
2026-06-07 15:47:01,894 - INFO - <UBX(NAV-PVT, iTOW=20:47:01.800000, year=2026, month=6, day=7, hour=20, min=47, second=1, validDate=1, validTime=1, fullyResolved=1, validMag=0, tAcc=22, nano=800130108, fixType=3, gnssFixOk=1, diffSoln=1, psmState=0, headVehValid=0, carrSoln=2, confirmedAvai=1, confirmedDate=1, confirmedTime=1, numSV=28, lon=-97.6641436, lat=37.9008316, height=404419, hMSL=430671, hAcc=53, vAcc=75, velN=4, velE=7, velD=8, gSpeed=8, headMot=35.40146, sAcc=64, headAcc=180.0, pDOP=0.9, invalidLlh=0, lastCorrectionAge=1, reserved0=860630572, headVeh=0.0, magDec=0.0, magAcc=0.0)>
2026-06-07 15:47:01,895 - INFO - <NMEA(GNRMC, time=20:47:01.800000, status=A, lat=37.9008316667, NS=N, lon=-97.6641436667, EW=W, spd=0.015, cog=, date=2026-06-07, mv=, mvEW=, posMode=R, navStatus=V)>
2026-06-07 15:47:01,895 - INFO - <NMEA(GNVTG, cogt=, cogtUnit=T, cogm=, cogmUnit=M, sogn=0.015, sognUnit=N, sogk=0.028, sogkUnit=K, posMode=D)>
2026-06-07 15:47:01,896 - INFO - <NMEA(GNGGA, time=20:47:01.800000, lat=37.9008316667, NS=N, lon=-97.6641436667, EW=W, quality=4, numSV=12, HDOP=0.52, alt=430.7, altUnit=M, sep=-26.3, sepUnit=M, diffAge=0.2, diffStation=0)>
2026-06-07 15:47:01,896 - INFO - <NMEA(GNGSA, opMode=M, navMode=3, svid_01=10, svid_02=15, svid_03=18, svid_04=20, svid_05=23, svid_06=24, svid_07=29, svid_08=27, svid_09=32, svid_10=, svid_11=, svid_12=, PDOP=0.9, HDOP=0.52, VDOP=0.74, systemId=1)>
2026-06-07 15:47:01,897 - INFO - <NMEA(GNGSA, opMode=M, navMode=3, svid_01=70, svid_02=86, svid_03=84, svid_04=87, svid_05=85, svid_06=71, svid_07=72, svid_08=, svid_09=, svid_10=, svid_11=, svid_12=, PDOP=0.9, HDOP=0.52, VDOP=0.74, systemId=2)>
2026-06-07 15:47:01,897 - INFO - <NMEA(GNGSA, opMode=M, navMode=3, svid_01=3, svid_02=5, svid_03=8, svid_04=13, svid_05=15, svid_06=34, svid_07=, svid_08=, svid_09=, svid_10=, svid_11=, svid_12=, PDOP=0.9, HDOP=0.52, VDOP=0.74, systemId=3)>
2026-06-07 15:47:01,897 - INFO - <NMEA(GNGSA, opMode=M, navMode=3, svid_01=13, svid_02=27, svid_03=33, svid_04=38, svid_05=41, svid_06=28, svid_07=, svid_08=, svid_09=, svid_10=, svid_11=, svid_12=, PDOP=0.9, HDOP=0.52, VDOP=0.74, systemId=4)>
2026-06-07 15:47:01,898 - INFO - <UBX(RXM-RTCM, version=2, crcFailed=0, msgUsed=2, subType=0, refStation=0, msgType=4072)>
2026-06-07 15:47:01,898 - INFO - <NMEA(GNGSA, opMode=M, navMode=3, svid_01=, svid_02=, svid_03=, svid_04=, svid_05=, svid_06=, svid_07=, svid_08=, svid_09=, svid_10=, svid_11=, svid_12=, PDOP=0.9, HDOP=0.52, VDOP=0.74, systemId=5)>
2026-06-07 15:47:01,898 - INFO - <NMEA(GPGSV, numMsg=4, msgNum=1, numSV=13, svid_01=5, elv_01=2.0, az_01=78, cno_01=44, svid_02=8, elv_02=2.0, az_02=327, cno_02=22, svid_03=10, elv_03=38.0, az_03=283, cno_03=47, svid_04=15, elv_04=42.0, az_04=48, cno_04=47, signalID=1)>
2026-06-07 15:47:01,899 - INFO - <NMEA(GPGSV, numMsg=4, msgNum=2, numSV=13, svid_01=18, elv_01=77.0, az_01=99, cno_01=45, svid_02=20, elv_02=18.0, az_02=44, cno_02=45, svid_03=23, elv_03=64.0, az_03=327, cno_03=45, svid_04=24, elv_04=32.0, az_04=111, cno_04=43, signalID=1)>
2026-06-07 15:47:01,899 - INFO - <NMEA(GPGSV, numMsg=4, msgNum=3, numSV=13, svid_01=27, elv_01=26.0, az_01=305, cno_01=32, svid_02=29, elv_02=15.0, az_02=177, cno_02=30, svid_03=32, elv_03=13.0, az_03=215, cno_03=38, svid_04=44, elv_04=42.0, az_04=210, cno_04=42, signalID=1)>
2026-06-07 15:47:01,900 - INFO - <NMEA(GPGSV, numMsg=4, msgNum=4, numSV=13, svid_01=46, elv_01=35.0, az_01=225, cno_01=41, signalID=1)>
2026-06-07 15:47:01,900 - INFO - <NMEA(GPGSV, numMsg=3, msgNum=1, numSV=10, svid_01=5, elv_01=2.0, az_01=78, cno_01=39, svid_02=10, elv_02=38.0, az_02=283, cno_02=39, svid_03=15, elv_03=42.0, az_03=48, cno_03=42, svid_04=18, elv_04=77.0, az_04=99, cno_04=43, signalID=6)>
2026-06-07 15:47:01,901 - INFO - <NMEA(GPGSV, numMsg=3, msgNum=2, numSV=10, svid_01=20, elv_01=18.0, az_01=44, cno_01=43, svid_02=23, elv_02=64.0, az_02=327, cno_02=43, svid_03=24, elv_03=32.0, az_03=111, cno_03=36, svid_04=27, elv_04=26.0, az_04=305, cno_04=31, signalID=6)>
2026-06-07 15:47:01,901 - INFO - <NMEA(GPGSV, numMsg=3, msgNum=3, numSV=10, svid_01=29, elv_01=15.0, az_01=177, cno_01=19, svid_02=32, elv_02=13.0, az_02=215, cno_02=26, signalID=6)>
2026-06-07 15:47:01,901 - INFO - <NMEA(GPGSV, numMsg=1, msgNum=1, numSV=1, svid_01=48, elv_01=38.0, az_01=220, cno_01=, signalID=0)>
2026-06-07 15:47:01,902 - INFO - <NMEA(GLGSV, numMsg=3, msgNum=1, numSV=9, svid_01=70, elv_01=44.0, az_01=29, cno_01=49, svid_02=71, elv_02=65.0, az_02=253, cno_02=46, svid_03=72, elv_03=15.0, az_03=228, cno_03=41, svid_04=84, elv_04=10.0, az_04=144, cno_04=42, signalID=1)>
2026-06-07 15:47:01,902 - INFO - <NMEA(GLGSV, numMsg=3, msgNum=2, numSV=9, svid_01=85, elv_01=55.0, az_01=143, cno_01=39, svid_02=86, elv_02=55.0, az_02=328, cno_02=48, svid_03=87, elv_03=15.0, az_03=327, cno_03=29, svid_04=, elv_04=, az_04=, cno_04=39, signalID=1)>
2026-06-07 15:47:01,902 - INFO - <NMEA(GLGSV, numMsg=3, msgNum=3, numSV=9, svid_01=, elv_01=, az_01=, cno_01=40, signalID=1)>
2026-06-07 15:47:01,903 - INFO - <NMEA(GLGSV, numMsg=2, msgNum=1, numSV=6, svid_01=70, elv_01=44.0, az_01=29, cno_01=46, svid_02=71, elv_02=65.0, az_02=253, cno_02=36, svid_03=72, elv_03=15.0, az_03=228, cno_03=31, svid_04=84, elv_04=10.0, az_04=144, cno_04=36, signalID=3)>
2026-06-07 15:47:01,903 - INFO - <NMEA(GLGSV, numMsg=2, msgNum=2, numSV=6, svid_01=85, elv_01=55.0, az_01=143, cno_01=32, svid_02=86, elv_02=55.0, az_02=328, cno_02=39, signalID=3)>
2026-06-07 15:47:01,904 - INFO - <NMEA(GAGSV, numMsg=2, msgNum=1, numSV=8, svid_01=3, elv_01=71.0, az_01=108, cno_01=47, svid_02=5, elv_02=29.0, az_02=45, cno_02=47, svid_03=8, elv_03=37.0, az_03=197, cno_03=43, svid_04=13, elv_04=26.0, az_04=310, cno_04=30, signalID=2)>
2026-06-07 15:47:01,904 - INFO - <NMEA(GAGSV, numMsg=2, msgNum=2, numSV=8, svid_01=15, elv_01=74.0, az_01=4, cno_01=45, svid_02=21, elv_02=4.0, az_02=294, cno_02=18, svid_03=32, elv_03=58.0, az_03=176, cno_03=42, svid_04=34, elv_04=40.0, az_04=109, cno_04=46, signalID=2)>
2026-06-07 15:47:01,904 - INFO - <NMEA(GAGSV, numMsg=2, msgNum=1, numSV=7, svid_01=3, elv_01=71.0, az_01=108, cno_01=41, svid_02=5, elv_02=29.0, az_02=45, cno_02=43, svid_03=8, elv_03=37.0, az_03=197, cno_03=34, svid_04=13, elv_04=26.0, az_04=310, cno_04=32, signalID=7)>
2026-06-07 15:47:01,905 - INFO - <NMEA(GAGSV, numMsg=2, msgNum=2, numSV=7, svid_01=15, elv_01=74.0, az_01=4, cno_01=43, svid_02=32, elv_02=58.0, az_02=176, cno_02=33, svid_03=34, elv_03=40.0, az_03=109, cno_03=28, signalID=7)>
2026-06-07 15:47:01,905 - INFO - <NMEA(GAGSV, numMsg=1, msgNum=1, numSV=1, svid_01=27, elv_01=3.0, az_01=246, cno_01=, signalID=0)>
2026-06-07 15:47:01,906 - INFO - <NMEA(GBGSV, numMsg=3, msgNum=1, numSV=10, svid_01=13, elv_01=37.0, az_01=159, cno_01=34, svid_02=24, elv_02=1.0, az_02=85, cno_02=38, svid_03=27, elv_03=59.0, az_03=295, cno_03=48, svid_04=28, elv_04=64.0, az_04=183, cno_04=44, signalID=1)>
2026-06-07 15:47:01,906 - INFO - <NMEA(GBGSV, numMsg=3, msgNum=2, numSV=10, svid_01=30, elv_01=7.0, az_01=320, cno_01=33, svid_02=32, elv_02=, az_02=, cno_02=35, svid_03=33, elv_03=51.0, az_03=41, cno_03=46, svid_04=38, elv_04=13.0, az_04=152, cno_04=40, signalID=1)>
2026-06-07 15:47:01,906 - INFO - <NMEA(GBGSV, numMsg=3, msgNum=3, numSV=10, svid_01=41, elv_01=70.0, az_01=268, cno_01=48, svid_02=42, elv_02=0.0, az_02=53, cno_02=28, signalID=1)>
2026-06-07 15:47:01,907 - INFO - <NMEA(GQGSV, numMsg=1, msgNum=1, numSV=0, signalID=0)>
2026-06-07 15:47:01,907 - INFO - <NMEA(GNGLL, lat=37.9008316667, NS=N, lon=-97.6641436667, EW=W, time=20:47:01.800000, status=A, posMode=D)>
2026-06-07 15:47:01,907 - INFO - <UBX(NAV-RELPOSNED, version=1, reserved0=0, refStationID=0, iTOW=20:47:01.800000, relPosN=57.74, relPosE=9.03, relPosD=-0.38, relPosLength=58.44, relPosHeading=8.8902, reserved1=0, accN=10.0, accE=10.0, accD=13.0, accLength=10.0, accHeading=0.98042, reserved2=0, gnssFixOK=1, diffSoln=1, relPosValid=1, carrSoln=2, isMoving=1, refPosMiss=0, refObsMiss=0, relPosHeadingValid=1, relPosNormalized=0)>
2026-06-07 15:47:01,908 - INFO - 2026-06-07 15:47:01, current_target: {'timestamp': '2026-05-10 13:40:05', 'lat': 37.9008713333, 'lon': -97.66418, 'speed': 0.004629996, 'y_offset': 0.0, 'x_offset': 0.0, 'z_offset': 0.0, 'heading': 1.76477}, next_target: {'timestamp': '2026-05-10 13:40:06', 'lat': 37.9008713333, 'lon': -97.66418, 'speed': 0.00514444, 'y_offset': 0.0, 'x_offset': 0.0, 'z_offset': 0.0, 'heading': 1.76299}
2026-06-07 15:47:01,908 - INFO - 2026-06-07 15:47:01 [3.4 OBSERVED] current_turn_radius: infm
2026-06-07 15:47:01,908 - INFO - 2026-06-07 15:47:01 [3.4 OBSERVED] turn_direction: RIGHT
2026-06-07 15:47:01,908 - INFO - 2026-06-07 15:47:01 [3.4 OBSERVED] estimated left/right wheel speeds: nan, nan rad/s
2026-06-07 15:47:01,912 - INFO - 2026-06-07 15:47:01 [STATE] Current state: NAVIGATING_TO_START
2026-06-07 15:47:01,912 - INFO - 2026-06-07 15:47:01 [NAV_TO_START] Phase: DRIVE_TO_START, Dist: 5.440m, Bearing err: -44.9°, Heading diff: 7.1°, Elapsed: 0.9s
2026-06-07 15:47:01,912 - INFO - 2026-06-07 15:47:01 [NAV_TO_START] DRIVE: bearing=324.0°, dist=5.44m, turn=LEFT, radius=3.86m, speed=1.00
2026-06-07 15:47:01,912 - INFO - 2026-06-07 15:47:01 Turn: LEFT, Radius: 3.86m, DLWS: 1.44 rad/s, DRWS: 1.64 rad/s
2026-06-07 15:47:01,912 - INFO - 2026-06-07 15:47:01 left_actuator_position: 815 (counts) from DLWS 1.437 rad/s
2026-06-07 15:47:01,912 - INFO - 2026-06-07 15:47:01 right_actuator_position: 775 (counts) from DRWS 1.640 rad/s
2026-06-07 15:47:01,912 - INFO - 2026-06-07 15:47:01 LAM: 73.86 mm/(rad/s), RAM: 73.86 mm/(rad/s)
2026-06-07 15:47:01,912 - INFO - 2026-06-07 15:47:01 DLAP: 106.15 mm, DRAP: 121.12 mm
2026-06-07 15:47:01,926 - INFO - Sent actuator positions to RoboClaw → M1 (left): 815, M2 (right): 775 (counts)
2026-06-07 15:47:01,926 - INFO - 2026-06-07 15:47:01 APPLY → left_pos: 815, right_pos: 775 (counts), DLAP: 106.15 mm, DRAP: 121.12 mm
2026-06-07 15:47:02,043 - INFO - <UBX(RXM-RTCM, version=2, crcFailed=0, msgUsed=2, subType=0, refStation=0, msgType=1074)>
2026-06-07 15:47:02,045 - INFO - <UBX(RXM-RTCM, version=2, crcFailed=0, msgUsed=2, subType=0, refStation=0, msgType=1084)>
2026-06-07 15:47:02,047 - INFO - <UBX(RXM-RTCM, version=2, crcFailed=0, msgUsed=2, subType=0, refStation=0, msgType=1094)>
2026-06-07 15:47:02,049 - INFO - <UBX(RXM-RTCM, version=2, crcFailed=0, msgUsed=2, subType=0, refStation=0, msgType=1124)>
2026-06-07 15:47:02,049 - INFO - <UBX(RXM-RTCM, version=2, crcFailed=0, msgUsed=2, subType=0, refStation=0, msgType=1230)>
2026-06-07 15:47:02,111 - INFO - <UBX(NAV-PVT, iTOW=20:47:02, year=2026, month=6, day=7, hour=20, min=47, second=2, validDate=1, validTime=1, fullyResolved=1, validMag=0, tAcc=22, nano=130064, fixType=3, gnssFixOk=1, diffSoln=1, psmState=0, headVehValid=0, carrSoln=2, confirmedAvai=1, confirmedDate=1, confirmedTime=1, numSV=28, lon=-97.6641436, lat=37.9008316, height=404418, hMSL=430671, hAcc=54, vAcc=76, velN=3, velE=-3, velD=-2, gSpeed=4, headMot=35.40146, sAcc=63, headAcc=180.0, pDOP=0.9, invalidLlh=0, lastCorrectionAge=1, reserved0=860630572, headVeh=0.0, magDec=0.0, magAcc=0.0)>
2026-06-07 15:47:02,112 - INFO - <NMEA(GNRMC, time=20:47:02, status=A, lat=37.9008316667, NS=N, lon=-97.6641436667, EW=W, spd=0.008, cog=, date=2026-06-07, mv=, mvEW=, posMode=R, navStatus=V)>
2026-06-07 15:47:02,112 - INFO - <NMEA(GNVTG, cogt=, cogtUnit=T, cogm=, cogmUnit=M, sogn=0.008, sognUnit=N, sogk=0.015, sogkUnit=K, posMode=D)>
2026-06-07 15:47:02,113 - INFO - <NMEA(GNGGA, time=20:47:02, lat=37.9008316667, NS=N, lon=-97.6641436667, EW=W, quality=4, numSV=12, HDOP=0.52, alt=430.7, altUnit=M, sep=-26.3, sepUnit=M, diffAge=0.2, diffStation=0)>
2026-06-07 15:47:02,113 - INFO - <NMEA(GNGSA, opMode=M, navMode=3, svid_01=10, svid_02=15, svid_03=18, svid_04=20, svid_05=23, svid_06=24, svid_07=29, svid_08=27, svid_09=32, svid_10=, svid_11=, svid_12=, PDOP=0.9, HDOP=0.52, VDOP=0.74, systemId=1)>
2026-06-07 15:47:02,113 - INFO - <NMEA(GNGSA, opMode=M, navMode=3, svid_01=70, svid_02=86, svid_03=84, svid_04=87, svid_05=85, svid_06=71, svid_07=72, svid_08=, svid_09=, svid_10=, svid_11=, svid_12=, PDOP=0.9, HDOP=0.52, VDOP=0.74, systemId=2)>
2026-06-07 15:47:02,114 - INFO - <NMEA(GNGSA, opMode=M, navMode=3, svid_01=3, svid_02=5, svid_03=8, svid_04=13, svid_05=15, svid_06=34, svid_07=, svid_08=, svid_09=, svid_10=, svid_11=, svid_12=, PDOP=0.9, HDOP=0.52, VDOP=0.74, systemId=3)>
2026-06-07 15:47:02,114 - INFO - <NMEA(GNGSA, opMode=M, navMode=3, svid_01=13, svid_02=27, svid_03=33, svid_04=38, svid_05=41, svid_06=28, svid_07=, svid_08=, svid_09=, svid_10=, svid_11=, svid_12=, PDOP=0.9, HDOP=0.52, VDOP=0.74, systemId=4)>
2026-06-07 15:47:02,115 - INFO - <NMEA(GNGSA, opMode=M, navMode=3, svid_01=, svid_02=, svid_03=, svid_04=, svid_05=, svid_06=, svid_07=, svid_08=, svid_09=, svid_10=, svid_11=, svid_12=, PDOP=0.9, HDOP=0.52, VDOP=0.74, systemId=5)>
2026-06-07 15:47:02,115 - INFO - <UBX(RXM-RTCM, version=2, crcFailed=0, msgUsed=2, subType=0, refStation=0, msgType=4072)>
2026-06-07 15:47:02,115 - INFO - <NMEA(GPGSV, numMsg=4, msgNum=1, numSV=13, svid_01=5, elv_01=2.0, az_01=78, cno_01=44, svid_02=8, elv_02=2.0, az_02=327, cno_02=22, svid_03=10, elv_03=38.0, az_03=283, cno_03=47, svid_04=15, elv_04=42.0, az_04=48, cno_04=47, signalID=1)>
2026-06-07 15:47:02,116 - INFO - <NMEA(GPGSV, numMsg=4, msgNum=2, numSV=13, svid_01=18, elv_01=77.0, az_01=99, cno_01=45, svid_02=20, elv_02=18.0, az_02=44, cno_02=45, svid_03=23, elv_03=64.0, az_03=327, cno_03=45, svid_04=24, elv_04=32.0, az_04=111, cno_04=43, signalID=1)>
2026-06-07 15:47:02,116 - INFO - <NMEA(GPGSV, numMsg=4, msgNum=3, numSV=13, svid_01=27, elv_01=26.0, az_01=305, cno_01=32, svid_02=29, elv_02=15.0, az_02=177, cno_02=29, svid_03=32, elv_03=13.0, az_03=215, cno_03=38, svid_04=44, elv_04=42.0, az_04=210, cno_04=42, signalID=1)>
2026-06-07 15:47:02,116 - INFO - <NMEA(GPGSV, numMsg=4, msgNum=4, numSV=13, svid_01=46, elv_01=35.0, az_01=225, cno_01=41, signalID=1)>
2026-06-07 15:47:02,117 - INFO - <NMEA(GPGSV, numMsg=3, msgNum=1, numSV=10, svid_01=5, elv_01=2.0, az_01=78, cno_01=39, svid_02=10, elv_02=38.0, az_02=283, cno_02=39, svid_03=15, elv_03=42.0, az_03=48, cno_03=42, svid_04=18, elv_04=77.0, az_04=99, cno_04=43, signalID=6)>
2026-06-07 15:47:02,117 - INFO - <NMEA(GPGSV, numMsg=3, msgNum=2, numSV=10, svid_01=20, elv_01=18.0, az_01=44, cno_01=43, svid_02=23, elv_02=64.0, az_02=327, cno_02=43, svid_03=24, elv_03=32.0, az_03=111, cno_03=36, svid_04=27, elv_04=26.0, az_04=305, cno_04=31, signalID=6)>
2026-06-07 15:47:02,118 - INFO - <NMEA(GPGSV, numMsg=3, msgNum=3, numSV=10, svid_01=29, elv_01=15.0, az_01=177, cno_01=19, svid_02=32, elv_02=13.0, az_02=215, cno_02=26, signalID=6)>
2026-06-07 15:47:02,118 - INFO - <NMEA(GPGSV, numMsg=1, msgNum=1, numSV=1, svid_01=48, elv_01=38.0, az_01=220, cno_01=, signalID=0)>
2026-06-07 15:47:02,119 - INFO - <NMEA(GLGSV, numMsg=3, msgNum=1, numSV=9, svid_01=70, elv_01=44.0, az_01=29, cno_01=49, svid_02=71, elv_02=65.0, az_02=253, cno_02=46, svid_03=72, elv_03=15.0, az_03=228, cno_03=41, svid_04=84, elv_04=10.0, az_04=144, cno_04=42, signalID=1)>
2026-06-07 15:47:02,119 - INFO - <NMEA(GLGSV, numMsg=3, msgNum=2, numSV=9, svid_01=85, elv_01=55.0, az_01=143, cno_01=39, svid_02=86, elv_02=55.0, az_02=328, cno_02=48, svid_03=87, elv_03=15.0, az_03=327, cno_03=29, svid_04=, elv_04=, az_04=, cno_04=39, signalID=1)>
2026-06-07 15:47:02,119 - INFO - <NMEA(GLGSV, numMsg=3, msgNum=3, numSV=9, svid_01=, elv_01=, az_01=, cno_01=40, signalID=1)>
2026-06-07 15:47:02,120 - INFO - <NMEA(GLGSV, numMsg=2, msgNum=1, numSV=6, svid_01=70, elv_01=44.0, az_01=29, cno_01=46, svid_02=71, elv_02=65.0, az_02=253, cno_02=36, svid_03=72, elv_03=15.0, az_03=228, cno_03=31, svid_04=84, elv_04=10.0, az_04=144, cno_04=36, signalID=3)>
2026-06-07 15:47:02,120 - INFO - <NMEA(GLGSV, numMsg=2, msgNum=2, numSV=6, svid_01=85, elv_01=55.0, az_01=143, cno_01=32, svid_02=86, elv_02=55.0, az_02=328, cno_02=39, signalID=3)>
2026-06-07 15:47:02,120 - INFO - <NMEA(GAGSV, numMsg=2, msgNum=1, numSV=8, svid_01=3, elv_01=71.0, az_01=108, cno_01=47, svid_02=5, elv_02=29.0, az_02=45, cno_02=47, svid_03=8, elv_03=37.0, az_03=197, cno_03=43, svid_04=13, elv_04=26.0, az_04=310, cno_04=30, signalID=2)>
2026-06-07 15:47:02,121 - INFO - <NMEA(GAGSV, numMsg=2, msgNum=2, numSV=8, svid_01=15, elv_01=74.0, az_01=4, cno_01=45, svid_02=21, elv_02=4.0, az_02=294, cno_02=18, svid_03=32, elv_03=58.0, az_03=176, cno_03=41, svid_04=34, elv_04=40.0, az_04=109, cno_04=46, signalID=2)>
2026-06-07 15:47:02,121 - INFO - <NMEA(GAGSV, numMsg=2, msgNum=1, numSV=7, svid_01=3, elv_01=71.0, az_01=108, cno_01=41, svid_02=5, elv_02=29.0, az_02=45, cno_02=43, svid_03=8, elv_03=37.0, az_03=197, cno_03=34, svid_04=13, elv_04=26.0, az_04=310, cno_04=32, signalID=7)>
2026-06-07 15:47:02,122 - INFO - <NMEA(GAGSV, numMsg=2, msgNum=2, numSV=7, svid_01=15, elv_01=74.0, az_01=4, cno_01=43, svid_02=32, elv_02=58.0, az_02=176, cno_02=33, svid_03=34, elv_03=40.0, az_03=109, cno_03=28, signalID=7)>
2026-06-07 15:47:02,122 - INFO - <NMEA(GAGSV, numMsg=1, msgNum=1, numSV=1, svid_01=27, elv_01=3.0, az_01=246, cno_01=, signalID=0)>
2026-06-07 15:47:02,123 - INFO - <NMEA(GBGSV, numMsg=3, msgNum=1, numSV=10, svid_01=13, elv_01=37.0, az_01=159, cno_01=34, svid_02=24, elv_02=1.0, az_02=85, cno_02=38, svid_03=27, elv_03=59.0, az_03=295, cno_03=48, svid_04=28, elv_04=64.0, az_04=183, cno_04=44, signalID=1)>
2026-06-07 15:47:02,123 - INFO - <NMEA(GBGSV, numMsg=3, msgNum=2, numSV=10, svid_01=30, elv_01=7.0, az_01=320, cno_01=33, svid_02=32, elv_02=, az_02=, cno_02=35, svid_03=33, elv_03=51.0, az_03=41, cno_03=46, svid_04=38, elv_04=13.0, az_04=152, cno_04=40, signalID=1)>
2026-06-07 15:47:02,123 - INFO - <NMEA(GBGSV, numMsg=3, msgNum=3, numSV=10, svid_01=41, elv_01=70.0, az_01=268, cno_01=48, svid_02=42, elv_02=0.0, az_02=53, cno_02=28, signalID=1)>
2026-06-07 15:47:02,124 - INFO - <NMEA(GQGSV, numMsg=1, msgNum=1, numSV=0, signalID=0)>
2026-06-07 15:47:02,124 - INFO - <NMEA(GNGLL, lat=37.9008316667, NS=N, lon=-97.6641436667, EW=W, time=20:47:02, status=A, posMode=D)>
2026-06-07 15:47:02,124 - INFO - <UBX(NAV-RELPOSNED, version=1, reserved0=0, refStationID=0, iTOW=20:47:02, relPosN=57.72, relPosE=8.83, relPosD=-0.09, relPosLength=58.39, relPosHeading=8.7, reserved1=0, accN=10.0, accE=10.0, accD=13.5, accLength=10.0, accHeading=0.98127, reserved2=0, gnssFixOK=1, diffSoln=1, relPosValid=1, carrSoln=2, isMoving=1, refPosMiss=0, refObsMiss=0, relPosHeadingValid=1, relPosNormalized=0)>
2026-06-07 15:47:02,125 - INFO - 2026-06-07 15:47:02, current_target: {'timestamp': '2026-05-10 13:40:05', 'lat': 37.9008713333, 'lon': -97.66418, 'speed': 0.004629996, 'y_offset': 0.0, 'x_offset': 0.0, 'z_offset': 0.0, 'heading': 1.76477}, next_target: {'timestamp': '2026-05-10 13:40:06', 'lat': 37.9008713333, 'lon': -97.66418, 'speed': 0.00514444, 'y_offset': 0.0, 'x_offset': 0.0, 'z_offset': 0.0, 'heading': 1.76299}
2026-06-07 15:47:02,125 - INFO - 2026-06-07 15:47:02 [3.4 OBSERVED] current_turn_radius: infm
2026-06-07 15:47:02,125 - INFO - 2026-06-07 15:47:02 [3.4 OBSERVED] turn_direction: LEFT
2026-06-07 15:47:02,125 - INFO - 2026-06-07 15:47:02 [3.4 OBSERVED] estimated left/right wheel speeds: nan, nan rad/s
2026-06-07 15:47:02,129 - INFO - 2026-06-07 15:47:02 [STATE] Current state: NAVIGATING_TO_START
2026-06-07 15:47:02,129 - INFO - 2026-06-07 15:47:02 [NAV_TO_START] Phase: DRIVE_TO_START, Dist: 5.440m, Bearing err: -44.7°, Heading diff: 6.9°, Elapsed: 1.1s
2026-06-07 15:47:02,129 - INFO - 2026-06-07 15:47:02 [NAV_TO_START] DRIVE: bearing=324.0°, dist=5.44m, turn=LEFT, radius=3.87m, speed=1.00
2026-06-07 15:47:02,129 - INFO - 2026-06-07 15:47:02 Turn: LEFT, Radius: 3.87m, DLWS: 1.44 rad/s, DRWS: 1.64 rad/s
2026-06-07 15:47:02,129 - INFO - 2026-06-07 15:47:02 left_actuator_position: 815 (counts) from DLWS 1.437 rad/s
2026-06-07 15:47:02,129 - INFO - 2026-06-07 15:47:02 right_actuator_position: 775 (counts) from DRWS 1.639 rad/s
2026-06-07 15:47:02,129 - INFO - 2026-06-07 15:47:02 LAM: 73.86 mm/(rad/s), RAM: 73.86 mm/(rad/s)
2026-06-07 15:47:02,129 - INFO - 2026-06-07 15:47:02 DLAP: 106.18 mm, DRAP: 121.10 mm
2026-06-07 15:47:02,142 - INFO - Sent actuator positions to RoboClaw → M1 (left): 815, M2 (right): 775 (counts)
2026-06-07 15:47:02,142 - INFO - 2026-06-07 15:47:02 APPLY → left_pos: 815, right_pos: 775 (counts), DLAP: 106.18 mm, DRAP: 121.10 mm
2026-06-07 15:47:02,247 - INFO - <UBX(RXM-RTCM, version=2, crcFailed=0, msgUsed=2, subType=0, refStation=0, msgType=1074)>
2026-06-07 15:47:02,247 - INFO - <UBX(RXM-RTCM, version=2, crcFailed=0, msgUsed=2, subType=0, refStation=0, msgType=1084)>
2026-06-07 15:47:02,247 - INFO - <UBX(RXM-RTCM, version=2, crcFailed=0, msgUsed=2, subType=0, refStation=0, msgType=1094)>
2026-06-07 15:47:02,251 - INFO - <UBX(RXM-RTCM, version=2, crcFailed=0, msgUsed=2, subType=0, refStation=0, msgType=1124)>
2026-06-07 15:47:02,251 - INFO - <UBX(RXM-RTCM, version=2, crcFailed=0, msgUsed=2, subType=0, refStation=0, msgType=1230)>
2026-06-07 15:47:02,297 - INFO - <UBX(RXM-RTCM, version=2, crcFailed=0, msgUsed=2, subType=0, refStation=0, msgType=4072)>
2026-06-07 15:47:02,299 - INFO - <UBX(NAV-PVT, iTOW=20:47:02.200000, year=2026, month=6, day=7, hour=20, min=47, second=2, validDate=1, validTime=1, fullyResolved=1, validMag=0, tAcc=22, nano=200130021, fixType=3, gnssFixOk=1, diffSoln=1, psmState=0, headVehValid=0, carrSoln=2, confirmedAvai=1, confirmedDate=1, confirmedTime=1, numSV=28, lon=-97.6641436, lat=37.9008317, height=404417, hMSL=430669, hAcc=55, vAcc=77, velN=33, velE=16, velD=-7, gSpeed=37, headMot=35.40146, sAcc=59, headAcc=100.05308, pDOP=0.9, invalidLlh=0, lastCorrectionAge=1, reserved0=860630572, headVeh=0.0, magDec=0.0, magAcc=0.0)>
2026-06-07 15:47:02,300 - INFO - <NMEA(GNRMC, time=20:47:02.200000, status=A, lat=37.9008316667, NS=N, lon=-97.6641436667, EW=W, spd=0.071, cog=, date=2026-06-07, mv=, mvEW=, posMode=R, navStatus=V)>
2026-06-07 15:47:02,300 - INFO - <NMEA(GNVTG, cogt=, cogtUnit=T, cogm=, cogmUnit=M, sogn=0.071, sognUnit=N, sogk=0.132, sogkUnit=K, posMode=D)>
2026-06-07 15:47:02,301 - INFO - <NMEA(GNGGA, time=20:47:02.200000, lat=37.9008316667, NS=N, lon=-97.6641436667, EW=W, quality=4, numSV=12, HDOP=0.52, alt=430.7, altUnit=M, sep=-26.3, sepUnit=M, diffAge=0.2, diffStation=0)>
2026-06-07 15:47:02,301 - INFO - <NMEA(GNGSA, opMode=M, navMode=3, svid_01=10, svid_02=15, svid_03=18, svid_04=20, svid_05=23, svid_06=24, svid_07=29, svid_08=27, svid_09=32, svid_10=, svid_11=, svid_12=, PDOP=0.9, HDOP=0.52, VDOP=0.74, systemId=1)>
2026-06-07 15:47:02,302 - INFO - <NMEA(GNGSA, opMode=M, navMode=3, svid_01=70, svid_02=86, svid_03=84, svid_04=87, svid_05=85, svid_06=71, svid_07=72, svid_08=, svid_09=, svid_10=, svid_11=, svid_12=, PDOP=0.9, HDOP=0.52, VDOP=0.74, systemId=2)>
2026-06-07 15:47:02,302 - INFO - <NMEA(GNGSA, opMode=M, navMode=3, svid_01=3, svid_02=5, svid_03=8, svid_04=13, svid_05=15, svid_06=34, svid_07=, svid_08=, svid_09=, svid_10=, svid_11=, svid_12=, PDOP=0.9, HDOP=0.52, VDOP=0.74, systemId=3)>
2026-06-07 15:47:02,303 - INFO - <NMEA(GNGSA, opMode=M, navMode=3, svid_01=13, svid_02=27, svid_03=33, svid_04=38, svid_05=41, svid_06=28, svid_07=, svid_08=, svid_09=, svid_10=, svid_11=, svid_12=, PDOP=0.9, HDOP=0.52, VDOP=0.74, systemId=4)>
2026-06-07 15:47:02,303 - INFO - <NMEA(GNGSA, opMode=M, navMode=3, svid_01=, svid_02=, svid_03=, svid_04=, svid_05=, svid_06=, svid_07=, svid_08=, svid_09=, svid_10=, svid_11=, svid_12=, PDOP=0.9, HDOP=0.52, VDOP=0.74, systemId=5)>
2026-06-07 15:47:02,303 - INFO - <NMEA(GPGSV, numMsg=4, msgNum=1, numSV=13, svid_01=5, elv_01=2.0, az_01=78, cno_01=44, svid_02=8, elv_02=2.0, az_02=327, cno_02=22, svid_03=10, elv_03=38.0, az_03=283, cno_03=47, svid_04=15, elv_04=42.0, az_04=48, cno_04=47, signalID=1)>
2026-06-07 15:47:02,304 - INFO - <NMEA(GPGSV, numMsg=4, msgNum=2, numSV=13, svid_01=18, elv_01=77.0, az_01=99, cno_01=45, svid_02=20, elv_02=18.0, az_02=44, cno_02=45, svid_03=23, elv_03=64.0, az_03=327, cno_03=45, svid_04=24, elv_04=32.0, az_04=111, cno_04=43, signalID=1)>
2026-06-07 15:47:02,304 - INFO - <NMEA(GPGSV, numMsg=4, msgNum=3, numSV=13, svid_01=27, elv_01=26.0, az_01=305, cno_01=32, svid_02=29, elv_02=15.0, az_02=177, cno_02=29, svid_03=32, elv_03=13.0, az_03=215, cno_03=38, svid_04=44, elv_04=42.0, az_04=210, cno_04=43, signalID=1)>
2026-06-07 15:47:02,305 - INFO - <NMEA(GPGSV, numMsg=4, msgNum=4, numSV=13, svid_01=46, elv_01=35.0, az_01=225, cno_01=41, signalID=1)>
2026-06-07 15:47:02,305 - INFO - <NMEA(GPGSV, numMsg=3, msgNum=1, numSV=10, svid_01=5, elv_01=2.0, az_01=78, cno_01=40, svid_02=10, elv_02=38.0, az_02=283, cno_02=39, svid_03=15, elv_03=42.0, az_03=48, cno_03=42, svid_04=18, elv_04=77.0, az_04=99, cno_04=43, signalID=6)>
2026-06-07 15:47:02,306 - INFO - <NMEA(GPGSV, numMsg=3, msgNum=2, numSV=10, svid_01=20, elv_01=18.0, az_01=44, cno_01=43, svid_02=23, elv_02=64.0, az_02=327, cno_02=43, svid_03=24, elv_03=32.0, az_03=111, cno_03=36, svid_04=27, elv_04=26.0, az_04=305, cno_04=31, signalID=6)>
2026-06-07 15:47:02,306 - INFO - <NMEA(GPGSV, numMsg=3, msgNum=3, numSV=10, svid_01=29, elv_01=15.0, az_01=177, cno_01=19, svid_02=32, elv_02=13.0, az_02=215, cno_02=26, signalID=6)>
2026-06-07 15:47:02,306 - INFO - <NMEA(GPGSV, numMsg=1, msgNum=1, numSV=1, svid_01=48, elv_01=38.0, az_01=220, cno_01=, signalID=0)>
