2026-06-14 11:37:44,721 - INFO - Logging initialized to /home/dali/Documents/ReMow-Rover-Tests/Repeat/Logs/readRecordedRun-2026-06-14_11-37-44.log
2026-06-14 11:37:44,722 - INFO - RoboClaw opened successfully on /dev/serial/by-id/usb-Basicmicro_Inc._USB_Roboclaw_2x15A-if00
2026-06-14 11:37:45,025 - INFO - Encoders reset to zero
2026-06-14 11:37:45,025 - INFO - Starting readRecordedRun with combination: 55
2026-06-14 11:37:45,025 - INFO - Selected most recent recording: 55_20260510-134004_GPSData.csv
2026-06-14 11:37:45,029 - INFO - GREEN_LED initialized on GPIO 17
2026-06-14 11:37:45,036 - INFO - Bootstrap: Initialized modifiers with estimate 24.55 mm/(rad/s)
2026-06-14 11:37:45,037 - INFO - ENU origin from first waypoint: 37.9008713333, -97.66418
2026-06-14 11:37:45,092 - INFO - goto_positions: M1=1100, M2=1100 [Startup - ensuring neutral position]
2026-06-14 11:37:45,093 - INFO - Actuators initialized to neutral (1100)
2026-06-14 11:37:45,093 - INFO - === STATE MACHINE INITIALIZED ===
2026-06-14 11:37:45,093 - INFO - Start waypoint: East=0.000m, North=0.000m, Heading=1.8°
2026-06-14 11:37:45,093 - INFO - Initial state: NAVIGATING_TO_START
2026-06-14 11:37:45,093 - INFO - Navigation timeout: 300.0s
2026-06-14 11:37:45,093 - INFO - === WAITING FOR GPS RTK FIX ===
2026-06-14 11:37:45,093 - INFO - Need: relPosValid=1, carrSoln=2, relPosHeadingValid=1 (timeout: 60.0s)
2026-06-14 11:37:45,129 - INFO - GPS status: relPosValid=1, carrSoln=2, headingValid=1 (0.0s)
2026-06-14 11:37:45,130 - INFO - === GPS RTK FIXED — ready to navigate (0.0s) ===
2026-06-14 11:37:45,261 - INFO - <UBX(RXM-RTCM, version=2, crcFailed=0, msgUsed=2, subType=0, refStation=0, msgType=1074)>
2026-06-14 11:37:45,261 - INFO - Using persisted heading from driving to work area: 32.89° (captured at 2026-06-14 11:37:24)
2026-06-14 11:37:45,263 - INFO - <UBX(RXM-RTCM, version=2, crcFailed=0, msgUsed=2, subType=0, refStation=0, msgType=1084)>
2026-06-14 11:37:45,267 - INFO - <UBX(RXM-RTCM, version=2, crcFailed=0, msgUsed=2, subType=0, refStation=0, msgType=1094)>
2026-06-14 11:37:45,269 - INFO - <UBX(RXM-RTCM, version=2, crcFailed=0, msgUsed=2, subType=0, refStation=0, msgType=1124)>
2026-06-14 11:37:45,269 - INFO - <UBX(RXM-RTCM, version=2, crcFailed=0, msgUsed=2, subType=0, refStation=0, msgType=1230)>
2026-06-14 11:37:45,303 - INFO - <UBX(NAV-PVT, iTOW=16:37:45.200000, year=2026, month=6, day=14, hour=16, min=37, second=45, validDate=1, validTime=1, fullyResolved=1, validMag=0, tAcc=21, nano=200422373, fixType=3, gnssFixOk=1, diffSoln=1, psmState=0, headVehValid=0, carrSoln=2, confirmedAvai=1, confirmedDate=1, confirmedTime=1, numSV=27, lon=-97.6642143, lat=37.90084, height=404581, hMSL=430834, hAcc=1103, vAcc=1685, velN=-11, velE=-1, velD=8, gSpeed=11, headMot=197.87992, sAcc=85, headAcc=180.0, pDOP=1.04, invalidLlh=0, lastCorrectionAge=1, reserved0=860630572, headVeh=0.0, magDec=0.0, magAcc=0.0)>
2026-06-14 11:37:45,303 - INFO - <NMEA(GNRMC, time=16:37:45.200000, status=A, lat=37.90084, NS=N, lon=-97.6642143333, EW=W, spd=0.021, cog=, date=2026-06-14, mv=, mvEW=, posMode=R, navStatus=V)>
2026-06-14 11:37:45,304 - INFO - <NMEA(GNVTG, cogt=, cogtUnit=T, cogm=, cogmUnit=M, sogn=0.021, sognUnit=N, sogk=0.039, sogkUnit=K, posMode=D)>
2026-06-14 11:37:45,304 - INFO - <NMEA(GNGGA, time=16:37:45.200000, lat=37.90084, NS=N, lon=-97.6642143333, EW=W, quality=4, numSV=12, HDOP=0.59, alt=430.8, altUnit=M, sep=-26.3, sepUnit=M, diffAge=0.2, diffStation=0)>
2026-06-14 11:37:45,305 - INFO - <NMEA(GNGSA, opMode=M, navMode=3, svid_01=5, svid_02=11, svid_03=12, svid_04=15, svid_05=20, svid_06=21, svid_07=25, svid_08=29, svid_09=, svid_10=, svid_11=, svid_12=, PDOP=1.04, HDOP=0.59, VDOP=0.85, systemId=1)>
2026-06-14 11:37:45,305 - INFO - <NMEA(GNGSA, opMode=M, navMode=3, svid_01=82, svid_02=73, svid_03=84, svid_04=83, svid_05=67, svid_06=, svid_07=, svid_08=, svid_09=, svid_10=, svid_11=, svid_12=, PDOP=1.04, HDOP=0.59, VDOP=0.85, systemId=2)>
2026-06-14 11:37:45,305 - INFO - <NMEA(GNGSA, opMode=M, navMode=3, svid_01=2, svid_02=4, svid_03=6, svid_04=9, svid_05=10, svid_06=11, svid_07=36, svid_08=, svid_09=, svid_10=, svid_11=, svid_12=, PDOP=1.04, HDOP=0.59, VDOP=0.85, systemId=3)>
2026-06-14 11:37:45,306 - INFO - <NMEA(GNGSA, opMode=M, navMode=3, svid_01=14, svid_02=21, svid_03=28, svid_04=38, svid_05=42, svid_06=34, svid_07=37, svid_08=, svid_09=, svid_10=, svid_11=, svid_12=, PDOP=1.04, HDOP=0.59, VDOP=0.85, systemId=4)>
2026-06-14 11:37:45,306 - INFO - <NMEA(GNGSA, opMode=M, navMode=3, svid_01=, svid_02=, svid_03=, svid_04=, svid_05=, svid_06=, svid_07=, svid_08=, svid_09=, svid_10=, svid_11=, svid_12=, PDOP=1.04, HDOP=0.59, VDOP=0.85, systemId=5)>
2026-06-14 11:37:45,306 - INFO - <UBX(RXM-RTCM, version=2, crcFailed=0, msgUsed=2, subType=0, refStation=0, msgType=4072)>
2026-06-14 11:37:45,307 - INFO - <NMEA(GPGSV, numMsg=3, msgNum=1, numSV=10, svid_01=5, elv_01=87.0, az_01=134, cno_01=44, svid_02=11, elv_02=32.0, az_02=66, cno_02=46, svid_03=12, elv_03=27.0, az_03=196, cno_03=28, svid_04=13, elv_04=23.0, az_04=200, cno_04=34, signalID=1)>
2026-06-14 11:37:45,307 - INFO - <NMEA(GPGSV, numMsg=3, msgNum=2, numSV=10, svid_01=18, elv_01=16.0, az_01=275, cno_01=29, svid_02=20, elv_02=25.0, az_02=142, cno_02=41, svid_03=21, elv_03=54.0, az_03=51, cno_03=47, svid_04=25, elv_04=39.0, az_04=239, cno_04=35, signalID=1)>
2026-06-14 11:37:45,308 - INFO - <NMEA(GPGSV, numMsg=3, msgNum=3, numSV=10, svid_01=29, elv_01=52.0, az_01=316, cno_01=48, svid_02=46, elv_02=35.0, az_02=225, cno_02=31, signalID=1)>
2026-06-14 11:37:45,308 - INFO - <NMEA(GPGSV, numMsg=3, msgNum=1, numSV=10, svid_01=5, elv_01=87.0, az_01=134, cno_01=36, svid_02=11, elv_02=32.0, az_02=66, cno_02=43, svid_03=12, elv_03=27.0, az_03=196, cno_03=25, svid_04=13, elv_04=23.0, az_04=200, cno_04=25, signalID=6)>
2026-06-14 11:37:45,309 - INFO - <NMEA(GPGSV, numMsg=3, msgNum=2, numSV=10, svid_01=15, elv_01=16.0, az_01=171, cno_01=24, svid_02=18, elv_02=16.0, az_02=275, cno_02=30, svid_03=20, elv_03=25.0, az_03=142, cno_03=39, svid_04=21, elv_04=54.0, az_04=51, cno_04=46, signalID=6)>
2026-06-14 11:37:45,309 - INFO - <NMEA(GPGSV, numMsg=3, msgNum=3, numSV=10, svid_01=25, elv_01=39.0, az_01=239, cno_01=38, svid_02=29, elv_02=52.0, az_02=316, cno_02=42, signalID=6)>
2026-06-14 11:37:45,309 - INFO - <NMEA(GPGSV, numMsg=1, msgNum=1, numSV=2, svid_01=44, elv_01=42.0, az_01=210, cno_01=, svid_02=48, elv_02=38.0, az_02=220, cno_02=, signalID=0)>
2026-06-14 11:37:45,310 - INFO - <NMEA(GLGSV, numMsg=3, msgNum=1, numSV=11, svid_01=66, elv_01=5.0, az_01=21, cno_01=46, svid_02=67, elv_02=46.0, az_02=64, cno_02=48, svid_03=68, elv_03=42.0, az_03=142, cno_03=42, svid_04=69, elv_04=6.0, az_04=177, cno_04=28, signalID=1)>
2026-06-14 11:37:45,310 - INFO - <NMEA(GLGSV, numMsg=3, msgNum=2, numSV=11, svid_01=73, elv_01=27.0, az_01=264, cno_01=36, svid_02=74, elv_02=20.0, az_02=315, cno_02=17, svid_03=80, elv_03=9.0, az_03=211, cno_03=37, svid_04=81, elv_04=3.0, az_04=93, cno_04=39, signalID=1)>
2026-06-14 11:37:45,311 - INFO - <NMEA(GLGSV, numMsg=3, msgNum=3, numSV=11, svid_01=82, elv_01=39.0, az_01=64, cno_01=47, svid_02=83, elv_02=52.0, az_02=340, cno_02=48, svid_03=84, elv_03=13.0, az_03=294, cno_03=38, signalID=1)>
2026-06-14 11:37:45,311 - INFO - <NMEA(GLGSV, numMsg=3, msgNum=1, numSV=10, svid_01=66, elv_01=5.0, az_01=21, cno_01=32, svid_02=67, elv_02=46.0, az_02=64, cno_02=45, svid_03=68, elv_03=42.0, az_03=142, cno_03=40, svid_04=69, elv_04=6.0, az_04=177, cno_04=20, signalID=3)>
2026-06-14 11:37:45,312 - INFO - <NMEA(GLGSV, numMsg=3, msgNum=2, numSV=10, svid_01=73, elv_01=27.0, az_01=264, cno_01=38, svid_02=80, elv_02=9.0, az_02=211, cno_02=22, svid_03=81, elv_03=3.0, az_03=93, cno_03=40, svid_04=82, elv_04=39.0, az_04=64, cno_04=45, signalID=3)>
2026-06-14 11:37:45,312 - INFO - <NMEA(GLGSV, numMsg=3, msgNum=3, numSV=10, svid_01=83, elv_01=52.0, az_01=340, cno_01=39, svid_02=84, elv_02=13.0, az_02=294, cno_02=31, signalID=3)>
2026-06-14 11:37:45,312 - INFO - <NMEA(GAGSV, numMsg=2, msgNum=1, numSV=8, svid_01=2, elv_01=53.0, az_01=254, cno_01=47, svid_02=4, elv_02=19.0, az_02=67, cno_02=41, svid_03=6, elv_03=23.0, az_03=94, cno_03=47, svid_04=9, elv_04=21.0, az_04=120, cno_04=43, signalID=2)>
2026-06-14 11:37:45,313 - INFO - <NMEA(GAGSV, numMsg=2, msgNum=2, numSV=8, svid_01=10, elv_01=11.0, az_01=67, cno_01=44, svid_02=11, elv_02=36.0, az_02=56, cno_02=44, svid_03=14, elv_03=41.0, az_03=129, cno_03=41, svid_04=36, elv_04=68.0, az_04=337, cno_04=47, signalID=2)>
2026-06-14 11:37:45,313 - INFO - <NMEA(GAGSV, numMsg=2, msgNum=1, numSV=8, svid_01=2, elv_01=53.0, az_01=254, cno_01=45, svid_02=4, elv_02=19.0, az_02=67, cno_02=34, svid_03=6, elv_03=23.0, az_03=94, cno_03=41, svid_04=9, elv_04=21.0, az_04=120, cno_04=37, signalID=7)>
2026-06-14 11:37:45,314 - INFO - <NMEA(GAGSV, numMsg=2, msgNum=2, numSV=8, svid_01=10, elv_01=11.0, az_01=67, cno_01=44, svid_02=11, elv_02=36.0, az_02=56, cno_02=43, svid_03=14, elv_03=41.0, az_03=129, cno_03=44, svid_04=36, elv_04=68.0, az_04=337, cno_04=38, signalID=7)>
2026-06-14 11:37:45,314 - INFO - <NMEA(GAGSV, numMsg=1, msgNum=1, numSV=1, svid_01=5, elv_01=2.0, az_01=166, cno_01=, signalID=0)>
2026-06-14 11:37:45,315 - INFO - <NMEA(GBGSV, numMsg=3, msgNum=1, numSV=9, svid_01=13, elv_01=, az_01=, cno_01=46, svid_02=14, elv_02=47.0, az_02=71, cno_02=47, svid_03=21, elv_03=29.0, az_03=48, cno_03=47, svid_04=23, elv_04=, az_04=, cno_04=31, signalID=1)>
2026-06-14 11:37:45,315 - INFO - <NMEA(GBGSV, numMsg=3, msgNum=2, numSV=9, svid_01=28, elv_01=24.0, az_01=299, cno_01=40, svid_02=34, elv_02=34.0, az_02=97, cno_02=42, svid_03=37, elv_03=13.0, az_03=294, cno_03=27, svid_04=38, elv_04=72.0, az_04=356, cno_04=33, signalID=1)>
2026-06-14 11:37:45,315 - INFO - <NMEA(GBGSV, numMsg=3, msgNum=3, numSV=9, svid_01=42, elv_01=57.0, az_01=111, cno_01=42, signalID=1)>
2026-06-14 11:37:45,316 - INFO - <NMEA(GQGSV, numMsg=1, msgNum=1, numSV=0, signalID=0)>
2026-06-14 11:37:45,317 - INFO - <NMEA(GNGLL, lat=37.90084, NS=N, lon=-97.6642143333, EW=W, time=16:37:45.200000, status=A, posMode=D)>
2026-06-14 11:37:45,318 - INFO - <UBX(NAV-RELPOSNED, version=1, reserved0=0, refStationID=0, iTOW=16:37:45.200000, relPosN=49.37, relPosE=32.11, relPosD=3.89, relPosLength=59.03, relPosHeading=33.0385, reserved1=0, accN=10.0, accE=10.0, accD=10.6, accLength=10.0, accHeading=0.97281, reserved2=0, gnssFixOK=1, diffSoln=1, relPosValid=1, carrSoln=2, isMoving=1, refPosMiss=0, refObsMiss=0, relPosHeadingValid=1, relPosNormalized=0)>
2026-06-14 11:37:45,319 - INFO - 2026-06-14 11:37:45 Initial Moving Baseline state: active
2026-06-14 11:37:45,319 - INFO - 2026-06-14 11:37:45 Initial carrier solution: fixed
2026-06-14 11:37:45,319 - INFO - 2026-06-14 11:37:45, current_target: {'timestamp': '2026-05-10 13:40:05', 'lat': 37.9008713333, 'lon': -97.66418, 'speed': 0.004629996, 'y_offset': 0.0, 'x_offset': 0.0, 'z_offset': 0.0, 'heading': 1.76477}, next_target: {'timestamp': '2026-05-10 13:40:06', 'lat': 37.9008713333, 'lon': -97.66418, 'speed': 0.00514444, 'y_offset': 0.0, 'x_offset': 0.0, 'z_offset': 0.0, 'heading': 1.76299}
2026-06-14 11:37:45,467 - INFO - <UBX(RXM-RTCM, version=2, crcFailed=0, msgUsed=2, subType=0, refStation=0, msgType=1074)>
2026-06-14 11:37:45,467 - INFO - 2026-06-14 11:37:45, current_target: {'timestamp': '2026-05-10 13:40:05', 'lat': 37.9008713333, 'lon': -97.66418, 'speed': 0.004629996, 'y_offset': 0.0, 'x_offset': 0.0, 'z_offset': 0.0, 'heading': 1.76477}, next_target: {'timestamp': '2026-05-10 13:40:06', 'lat': 37.9008713333, 'lon': -97.66418, 'speed': 0.00514444, 'y_offset': 0.0, 'x_offset': 0.0, 'z_offset': 0.0, 'heading': 1.76299}
2026-06-14 11:37:45,467 - INFO - 2026-06-14 11:37:45 [3.4 OBSERVED] current_turn_radius: infm
2026-06-14 11:37:45,467 - INFO - 2026-06-14 11:37:45 [3.4 OBSERVED] turn_direction: STRAIGHT
2026-06-14 11:37:45,467 - INFO - 2026-06-14 11:37:45 [3.4 OBSERVED] estimated left/right wheel speeds: 0.050, 0.050 rad/s
2026-06-14 11:37:45,469 - INFO - 2026-06-14 11:37:45 [STATE] Current state: NAVIGATING_TO_START
2026-06-14 11:37:45,470 - INFO - 2026-06-14 11:37:45 [NAV_TO_START] Phase: DRIVE_TO_START, Dist: 4.606m, Bearing err: 7.9°, Heading diff: 31.3°, Elapsed: 0.4s
2026-06-14 11:37:45,470 - INFO - 2026-06-14 11:37:45 [NAV_TO_START] DRIVE: bearing=41.0°, dist=4.61m, turn=RIGHT, radius=12.52m, speed=1.00
2026-06-14 11:37:45,470 - INFO - 2026-06-14 11:37:45 Turn: RIGHT, Radius: 12.52m, DLWS: 4.76 rad/s, DRWS: 4.50 rad/s
2026-06-14 11:37:45,470 - INFO - 2026-06-14 11:37:45 left_actuator_position: 787 (counts) from DLWS 4.759 rad/s
2026-06-14 11:37:45,470 - INFO - 2026-06-14 11:37:45 right_actuator_position: 804 (counts) from DRWS 4.500 rad/s
2026-06-14 11:37:45,470 - INFO - 2026-06-14 11:37:45 LAM: 24.55 mm/(rad/s), RAM: 24.55 mm/(rad/s)
2026-06-14 11:37:45,471 - INFO - 2026-06-14 11:37:45 DLAP: 116.81 mm, DRAP: 110.46 mm
2026-06-14 11:37:45,482 - INFO - Sent actuator positions to RoboClaw → M1 (left): 787, M2 (right): 804 (counts)
2026-06-14 11:37:45,482 - INFO - 2026-06-14 11:37:45 APPLY → left_pos: 787, right_pos: 804 (counts), DLAP: 116.81 mm, DRAP: 110.46 mm
2026-06-14 11:37:45,483 - INFO - <UBX(RXM-RTCM, version=2, crcFailed=0, msgUsed=2, subType=0, refStation=0, msgType=1084)>
2026-06-14 11:37:45,483 - INFO - <UBX(RXM-RTCM, version=2, crcFailed=0, msgUsed=2, subType=0, refStation=0, msgType=1094)>
2026-06-14 11:37:45,483 - INFO - <UBX(RXM-RTCM, version=2, crcFailed=0, msgUsed=2, subType=0, refStation=0, msgType=1124)>
2026-06-14 11:37:45,483 - INFO - <UBX(RXM-RTCM, version=2, crcFailed=0, msgUsed=2, subType=0, refStation=0, msgType=1230)>
2026-06-14 11:37:45,509 - INFO - <UBX(NAV-PVT, iTOW=16:37:45.400000, year=2026, month=6, day=14, hour=16, min=37, second=45, validDate=1, validTime=1, fullyResolved=1, validMag=0, tAcc=21, nano=400422331, fixType=3, gnssFixOk=1, diffSoln=1, psmState=0, headVehValid=0, carrSoln=2, confirmedAvai=1, confirmedDate=1, confirmedTime=1, numSV=27, lon=-97.6642142, lat=37.90084, height=404588, hMSL=430841, hAcc=1060, vAcc=1618, velN=8, velE=-2, velD=7, gSpeed=8, headMot=197.87992, sAcc=97, headAcc=180.0, pDOP=1.04, invalidLlh=0, lastCorrectionAge=1, reserved0=860630572, headVeh=0.0, magDec=0.0, magAcc=0.0)>
2026-06-14 11:37:45,509 - INFO - <NMEA(GNRMC, time=16:37:45.400000, status=A, lat=37.90084, NS=N, lon=-97.6642141667, EW=W, spd=0.016, cog=, date=2026-06-14, mv=, mvEW=, posMode=R, navStatus=V)>
2026-06-14 11:37:45,510 - INFO - <NMEA(GNVTG, cogt=, cogtUnit=T, cogm=, cogmUnit=M, sogn=0.016, sognUnit=N, sogk=0.03, sogkUnit=K, posMode=D)>
2026-06-14 11:37:45,510 - INFO - <NMEA(GNGGA, time=16:37:45.400000, lat=37.90084, NS=N, lon=-97.6642141667, EW=W, quality=4, numSV=12, HDOP=0.59, alt=430.8, altUnit=M, sep=-26.3, sepUnit=M, diffAge=0.2, diffStation=0)>
2026-06-14 11:37:45,511 - INFO - <NMEA(GNGSA, opMode=M, navMode=3, svid_01=5, svid_02=11, svid_03=12, svid_04=15, svid_05=20, svid_06=21, svid_07=25, svid_08=29, svid_09=, svid_10=, svid_11=, svid_12=, PDOP=1.04, HDOP=0.59, VDOP=0.85, systemId=1)>
2026-06-14 11:37:45,511 - INFO - <NMEA(GNGSA, opMode=M, navMode=3, svid_01=82, svid_02=73, svid_03=84, svid_04=83, svid_05=67, svid_06=, svid_07=, svid_08=, svid_09=, svid_10=, svid_11=, svid_12=, PDOP=1.04, HDOP=0.59, VDOP=0.85, systemId=2)>
2026-06-14 11:37:45,512 - INFO - <NMEA(GNGSA, opMode=M, navMode=3, svid_01=2, svid_02=4, svid_03=6, svid_04=9, svid_05=10, svid_06=11, svid_07=36, svid_08=, svid_09=, svid_10=, svid_11=, svid_12=, PDOP=1.04, HDOP=0.59, VDOP=0.85, systemId=3)>
2026-06-14 11:37:45,512 - INFO - <NMEA(GNGSA, opMode=M, navMode=3, svid_01=14, svid_02=21, svid_03=28, svid_04=38, svid_05=42, svid_06=34, svid_07=37, svid_08=, svid_09=, svid_10=, svid_11=, svid_12=, PDOP=1.04, HDOP=0.59, VDOP=0.85, systemId=4)>
2026-06-14 11:37:45,512 - INFO - <NMEA(GNGSA, opMode=M, navMode=3, svid_01=, svid_02=, svid_03=, svid_04=, svid_05=, svid_06=, svid_07=, svid_08=, svid_09=, svid_10=, svid_11=, svid_12=, PDOP=1.04, HDOP=0.59, VDOP=0.85, systemId=5)>
2026-06-14 11:37:45,513 - INFO - <NMEA(GPGSV, numMsg=3, msgNum=1, numSV=10, svid_01=5, elv_01=87.0, az_01=134, cno_01=44, svid_02=11, elv_02=32.0, az_02=66, cno_02=46, svid_03=12, elv_03=27.0, az_03=196, cno_03=28, svid_04=13, elv_04=23.0, az_04=200, cno_04=33, signalID=1)>
2026-06-14 11:37:45,514 - INFO - <NMEA(GPGSV, numMsg=3, msgNum=2, numSV=10, svid_01=18, elv_01=16.0, az_01=275, cno_01=29, svid_02=20, elv_02=25.0, az_02=142, cno_02=41, svid_03=21, elv_03=54.0, az_03=51, cno_03=47, svid_04=25, elv_04=39.0, az_04=239, cno_04=35, signalID=1)>
2026-06-14 11:37:45,514 - INFO - <NMEA(GPGSV, numMsg=3, msgNum=3, numSV=10, svid_01=29, elv_01=52.0, az_01=316, cno_01=48, svid_02=46, elv_02=35.0, az_02=225, cno_02=31, signalID=1)>
2026-06-14 11:37:45,515 - INFO - <NMEA(GPGSV, numMsg=3, msgNum=1, numSV=10, svid_01=5, elv_01=87.0, az_01=134, cno_01=37, svid_02=11, elv_02=32.0, az_02=66, cno_02=43, svid_03=12, elv_03=27.0, az_03=196, cno_03=24, svid_04=13, elv_04=23.0, az_04=200, cno_04=26, signalID=6)>
2026-06-14 11:37:45,515 - INFO - <NMEA(GPGSV, numMsg=3, msgNum=2, numSV=10, svid_01=15, elv_01=16.0, az_01=171, cno_01=24, svid_02=18, elv_02=16.0, az_02=275, cno_02=29, svid_03=20, elv_03=25.0, az_03=142, cno_03=39, svid_04=21, elv_04=54.0, az_04=51, cno_04=46, signalID=6)>
2026-06-14 11:37:45,516 - INFO - <NMEA(GPGSV, numMsg=3, msgNum=3, numSV=10, svid_01=25, elv_01=39.0, az_01=239, cno_01=38, svid_02=29, elv_02=52.0, az_02=316, cno_02=42, signalID=6)>
2026-06-14 11:37:45,516 - INFO - <NMEA(GPGSV, numMsg=1, msgNum=1, numSV=2, svid_01=44, elv_01=42.0, az_01=210, cno_01=, svid_02=48, elv_02=38.0, az_02=220, cno_02=, signalID=0)>
2026-06-14 11:37:45,517 - INFO - <NMEA(GLGSV, numMsg=3, msgNum=1, numSV=11, svid_01=66, elv_01=5.0, az_01=21, cno_01=46, svid_02=67, elv_02=46.0, az_02=64, cno_02=48, svid_03=68, elv_03=42.0, az_03=142, cno_03=42, svid_04=69, elv_04=6.0, az_04=177, cno_04=28, signalID=1)>
2026-06-14 11:37:45,517 - INFO - <NMEA(GLGSV, numMsg=3, msgNum=2, numSV=11, svid_01=73, elv_01=27.0, az_01=264, cno_01=36, svid_02=74, elv_02=20.0, az_02=315, cno_02=16, svid_03=80, elv_03=9.0, az_03=211, cno_03=37, svid_04=81, elv_04=3.0, az_04=93, cno_04=39, signalID=1)>
2026-06-14 11:37:45,518 - INFO - <NMEA(GLGSV, numMsg=3, msgNum=3, numSV=11, svid_01=82, elv_01=39.0, az_01=64, cno_01=47, svid_02=83, elv_02=52.0, az_02=340, cno_02=49, svid_03=84, elv_03=13.0, az_03=294, cno_03=37, signalID=1)>
2026-06-14 11:37:45,518 - INFO - <NMEA(GLGSV, numMsg=3, msgNum=1, numSV=10, svid_01=66, elv_01=5.0, az_01=21, cno_01=32, svid_02=67, elv_02=46.0, az_02=64, cno_02=45, svid_03=68, elv_03=42.0, az_03=142, cno_03=40, svid_04=69, elv_04=6.0, az_04=177, cno_04=20, signalID=3)>
2026-06-14 11:37:45,519 - INFO - <NMEA(GLGSV, numMsg=3, msgNum=2, numSV=10, svid_01=73, elv_01=27.0, az_01=264, cno_01=38, svid_02=80, elv_02=9.0, az_02=211, cno_02=22, svid_03=81, elv_03=3.0, az_03=93, cno_03=40, svid_04=82, elv_04=39.0, az_04=64, cno_04=45, signalID=3)>
2026-06-14 11:37:45,519 - INFO - <NMEA(GLGSV, numMsg=3, msgNum=3, numSV=10, svid_01=83, elv_01=52.0, az_01=340, cno_01=39, svid_02=84, elv_02=13.0, az_02=294, cno_02=32, signalID=3)>
2026-06-14 11:37:45,520 - INFO - <NMEA(GAGSV, numMsg=2, msgNum=1, numSV=8, svid_01=2, elv_01=53.0, az_01=254, cno_01=46, svid_02=4, elv_02=19.0, az_02=67, cno_02=41, svid_03=6, elv_03=23.0, az_03=94, cno_03=47, svid_04=9, elv_04=21.0, az_04=120, cno_04=42, signalID=2)>
2026-06-14 11:37:45,521 - INFO - <NMEA(GAGSV, numMsg=2, msgNum=2, numSV=8, svid_01=10, elv_01=11.0, az_01=67, cno_01=45, svid_02=11, elv_02=36.0, az_02=56, cno_02=44, svid_03=14, elv_03=41.0, az_03=129, cno_03=42, svid_04=36, elv_04=68.0, az_04=337, cno_04=47, signalID=2)>
2026-06-14 11:37:45,521 - INFO - <NMEA(GAGSV, numMsg=2, msgNum=1, numSV=8, svid_01=2, elv_01=53.0, az_01=254, cno_01=45, svid_02=4, elv_02=19.0, az_02=67, cno_02=34, svid_03=6, elv_03=23.0, az_03=94, cno_03=41, svid_04=9, elv_04=21.0, az_04=120, cno_04=37, signalID=7)>
2026-06-14 11:37:45,522 - INFO - <NMEA(GAGSV, numMsg=2, msgNum=2, numSV=8, svid_01=10, elv_01=11.0, az_01=67, cno_01=44, svid_02=11, elv_02=36.0, az_02=56, cno_02=43, svid_03=14, elv_03=41.0, az_03=129, cno_03=44, svid_04=36, elv_04=68.0, az_04=337, cno_04=40, signalID=7)>
2026-06-14 11:37:45,522 - INFO - <NMEA(GAGSV, numMsg=1, msgNum=1, numSV=1, svid_01=5, elv_01=2.0, az_01=166, cno_01=, signalID=0)>
2026-06-14 11:37:45,523 - INFO - <NMEA(GBGSV, numMsg=3, msgNum=1, numSV=9, svid_01=13, elv_01=, az_01=, cno_01=46, svid_02=14, elv_02=47.0, az_02=71, cno_02=47, svid_03=21, elv_03=29.0, az_03=48, cno_03=47, svid_04=23, elv_04=, az_04=, cno_04=30, signalID=1)>
2026-06-14 11:37:45,523 - INFO - <NMEA(GBGSV, numMsg=3, msgNum=2, numSV=9, svid_01=28, elv_01=24.0, az_01=299, cno_01=39, svid_02=34, elv_02=34.0, az_02=97, cno_02=42, svid_03=37, elv_03=13.0, az_03=294, cno_03=29, svid_04=38, elv_04=72.0, az_04=356, cno_04=33, signalID=1)>
2026-06-14 11:37:45,524 - INFO - <NMEA(GBGSV, numMsg=3, msgNum=3, numSV=9, svid_01=42, elv_01=57.0, az_01=111, cno_01=42, signalID=1)>
2026-06-14 11:37:45,524 - INFO - <NMEA(GQGSV, numMsg=1, msgNum=1, numSV=0, signalID=0)>
2026-06-14 11:37:45,524 - INFO - <NMEA(GNGLL, lat=37.90084, NS=N, lon=-97.6642141667, EW=W, time=16:37:45.400000, status=A, posMode=D)>
2026-06-14 11:37:45,525 - INFO - <UBX(NAV-RELPOSNED, version=1, reserved0=0, refStationID=0, iTOW=16:37:45.400000, relPosN=49.33, relPosE=32.1, relPosD=3.94, relPosLength=58.99, relPosHeading=33.05278, reserved1=0, accN=10.0, accE=10.0, accD=10.2, accLength=10.0, accHeading=0.9735, reserved2=0, gnssFixOK=1, diffSoln=1, relPosValid=1, carrSoln=2, isMoving=1, refPosMiss=0, refObsMiss=0, relPosHeadingValid=1, relPosNormalized=0)>
2026-06-14 11:37:45,526 - INFO - 2026-06-14 11:37:45, current_target: {'timestamp': '2026-05-10 13:40:05', 'lat': 37.9008713333, 'lon': -97.66418, 'speed': 0.004629996, 'y_offset': 0.0, 'x_offset': 0.0, 'z_offset': 0.0, 'heading': 1.76477}, next_target: {'timestamp': '2026-05-10 13:40:06', 'lat': 37.9008713333, 'lon': -97.66418, 'speed': 0.00514444, 'y_offset': 0.0, 'x_offset': 0.0, 'z_offset': 0.0, 'heading': 1.76299}
2026-06-14 11:37:45,526 - INFO - 2026-06-14 11:37:45 [3.4 OBSERVED] current_turn_radius: infm
2026-06-14 11:37:45,526 - INFO - 2026-06-14 11:37:45 [3.4 OBSERVED] turn_direction: RIGHT
2026-06-14 11:37:45,526 - INFO - 2026-06-14 11:37:45 [3.4 OBSERVED] estimated left/right wheel speeds: nan, nan rad/s
2026-06-14 11:37:45,529 - INFO - 2026-06-14 11:37:45 [STATE] Current state: NAVIGATING_TO_START
2026-06-14 11:37:45,530 - INFO - 2026-06-14 11:37:45 [NAV_TO_START] Phase: DRIVE_TO_START, Dist: 4.596m, Bearing err: 7.8°, Heading diff: 31.3°, Elapsed: 0.4s
2026-06-14 11:37:45,530 - INFO - 2026-06-14 11:37:45 [NAV_TO_START] DRIVE: bearing=40.8°, dist=4.60m, turn=RIGHT, radius=12.74m, speed=1.00
2026-06-14 11:37:45,530 - INFO - 2026-06-14 11:37:45 Turn: RIGHT, Radius: 12.74m, DLWS: 4.76 rad/s, DRWS: 4.50 rad/s
2026-06-14 11:37:45,530 - INFO - 2026-06-14 11:37:45 left_actuator_position: 787 (counts) from DLWS 4.757 rad/s
2026-06-14 11:37:45,530 - INFO - 2026-06-14 11:37:45 right_actuator_position: 804 (counts) from DRWS 4.502 rad/s
2026-06-14 11:37:45,530 - INFO - 2026-06-14 11:37:45 LAM: 24.55 mm/(rad/s), RAM: 24.55 mm/(rad/s)
2026-06-14 11:37:45,530 - INFO - 2026-06-14 11:37:45 DLAP: 116.76 mm, DRAP: 110.51 mm
2026-06-14 11:37:45,542 - INFO - Sent actuator positions to RoboClaw → M1 (left): 787, M2 (right): 804 (counts)
2026-06-14 11:37:45,543 - INFO - 2026-06-14 11:37:45 APPLY → left_pos: 787, right_pos: 804 (counts), DLAP: 116.76 mm, DRAP: 110.51 mm
2026-06-14 11:37:45,543 - INFO - <UBX(RXM-RTCM, version=2, crcFailed=0, msgUsed=2, subType=0, refStation=0, msgType=4072)>
2026-06-14 11:37:45,665 - INFO - <UBX(RXM-RTCM, version=2, crcFailed=0, msgUsed=2, subType=0, refStation=0, msgType=1074)>
2026-06-14 11:37:45,667 - INFO - <UBX(RXM-RTCM, version=2, crcFailed=0, msgUsed=2, subType=0, refStation=0, msgType=1084)>
2026-06-14 11:37:45,670 - INFO - <UBX(RXM-RTCM, version=2, crcFailed=0, msgUsed=2, subType=0, refStation=0, msgType=1094)>
2026-06-14 11:37:45,673 - INFO - <UBX(RXM-RTCM, version=2, crcFailed=0, msgUsed=2, subType=0, refStation=0, msgType=1124)>
2026-06-14 11:37:45,673 - INFO - <UBX(RXM-RTCM, version=2, crcFailed=0, msgUsed=2, subType=0, refStation=0, msgType=1230)>
2026-06-14 11:37:45,707 - INFO - <UBX(NAV-PVT, iTOW=16:37:45.600000, year=2026, month=6, day=14, hour=16, min=37, second=45, validDate=1, validTime=1, fullyResolved=1, validMag=0, tAcc=21, nano=600422288, fixType=3, gnssFixOk=1, diffSoln=1, psmState=0, headVehValid=0, carrSoln=2, confirmedAvai=1, confirmedDate=1, confirmedTime=1, numSV=27, lon=-97.6642142, lat=37.90084, height=404585, hMSL=430838, hAcc=1032, vAcc=1575, velN=-14, velE=-5, velD=11, gSpeed=15, headMot=197.87992, sAcc=84, headAcc=180.0, pDOP=1.04, invalidLlh=0, lastCorrectionAge=1, reserved0=860630572, headVeh=0.0, magDec=0.0, magAcc=0.0)>
2026-06-14 11:37:45,707 - INFO - <NMEA(GNRMC, time=16:37:45.600000, status=A, lat=37.90084, NS=N, lon=-97.6642141667, EW=W, spd=0.029, cog=, date=2026-06-14, mv=, mvEW=, posMode=R, navStatus=V)>
2026-06-14 11:37:45,708 - INFO - <NMEA(GNVTG, cogt=, cogtUnit=T, cogm=, cogmUnit=M, sogn=0.029, sognUnit=N, sogk=0.054, sogkUnit=K, posMode=D)>
2026-06-14 11:37:45,708 - INFO - <NMEA(GNGGA, time=16:37:45.600000, lat=37.90084, NS=N, lon=-97.6642141667, EW=W, quality=4, numSV=12, HDOP=0.59, alt=430.8, altUnit=M, sep=-26.3, sepUnit=M, diffAge=0.2, diffStation=0)>
2026-06-14 11:37:45,709 - INFO - <NMEA(GNGSA, opMode=M, navMode=3, svid_01=5, svid_02=11, svid_03=12, svid_04=15, svid_05=20, svid_06=21, svid_07=25, svid_08=29, svid_09=, svid_10=, svid_11=, svid_12=, PDOP=1.04, HDOP=0.59, VDOP=0.85, systemId=1)>
2026-06-14 11:37:45,709 - INFO - <NMEA(GNGSA, opMode=M, navMode=3, svid_01=82, svid_02=73, svid_03=84, svid_04=83, svid_05=67, svid_06=, svid_07=, svid_08=, svid_09=, svid_10=, svid_11=, svid_12=, PDOP=1.04, HDOP=0.59, VDOP=0.85, systemId=2)>
2026-06-14 11:37:45,710 - INFO - <NMEA(GNGSA, opMode=M, navMode=3, svid_01=2, svid_02=4, svid_03=6, svid_04=9, svid_05=10, svid_06=11, svid_07=36, svid_08=, svid_09=, svid_10=, svid_11=, svid_12=, PDOP=1.04, HDOP=0.59, VDOP=0.85, systemId=3)>
2026-06-14 11:37:45,710 - INFO - <NMEA(GNGSA, opMode=M, navMode=3, svid_01=14, svid_02=21, svid_03=28, svid_04=38, svid_05=42, svid_06=34, svid_07=37, svid_08=, svid_09=, svid_10=, svid_11=, svid_12=, PDOP=1.04, HDOP=0.59, VDOP=0.85, systemId=4)>
2026-06-14 11:37:45,711 - INFO - <NMEA(GNGSA, opMode=M, navMode=3, svid_01=, svid_02=, svid_03=, svid_04=, svid_05=, svid_06=, svid_07=, svid_08=, svid_09=, svid_10=, svid_11=, svid_12=, PDOP=1.04, HDOP=0.59, VDOP=0.85, systemId=5)>
2026-06-14 11:37:45,711 - INFO - <NMEA(GPGSV, numMsg=3, msgNum=1, numSV=10, svid_01=5, elv_01=87.0, az_01=134, cno_01=43, svid_02=11, elv_02=32.0, az_02=66, cno_02=47, svid_03=12, elv_03=27.0, az_03=196, cno_03=27, svid_04=13, elv_04=23.0, az_04=200, cno_04=29, signalID=1)>
2026-06-14 11:37:45,712 - INFO - <NMEA(GPGSV, numMsg=3, msgNum=2, numSV=10, svid_01=18, elv_01=16.0, az_01=275, cno_01=28, svid_02=20, elv_02=25.0, az_02=142, cno_02=41, svid_03=21, elv_03=54.0, az_03=51, cno_03=47, svid_04=25, elv_04=39.0, az_04=239, cno_04=35, signalID=1)>
2026-06-14 11:37:45,712 - INFO - <NMEA(GPGSV, numMsg=3, msgNum=3, numSV=10, svid_01=29, elv_01=52.0, az_01=316, cno_01=48, svid_02=46, elv_02=35.0, az_02=225, cno_02=30, signalID=1)>
2026-06-14 11:37:45,713 - INFO - <NMEA(GPGSV, numMsg=3, msgNum=1, numSV=10, svid_01=5, elv_01=87.0, az_01=134, cno_01=37, svid_02=11, elv_02=32.0, az_02=66, cno_02=44, svid_03=12, elv_03=27.0, az_03=196, cno_03=24, svid_04=13, elv_04=23.0, az_04=200, cno_04=26, signalID=6)>
2026-06-14 11:37:45,714 - INFO - <NMEA(GPGSV, numMsg=3, msgNum=2, numSV=10, svid_01=15, elv_01=16.0, az_01=171, cno_01=24, svid_02=18, elv_02=16.0, az_02=275, cno_02=29, svid_03=20, elv_03=25.0, az_03=142, cno_03=39, svid_04=21, elv_04=54.0, az_04=51, cno_04=46, signalID=6)>
2026-06-14 11:37:45,714 - INFO - <NMEA(GPGSV, numMsg=3, msgNum=3, numSV=10, svid_01=25, elv_01=39.0, az_01=239, cno_01=38, svid_02=29, elv_02=52.0, az_02=316, cno_02=42, signalID=6)>
2026-06-14 11:37:45,715 - INFO - <NMEA(GPGSV, numMsg=1, msgNum=1, numSV=2, svid_01=44, elv_01=42.0, az_01=210, cno_01=, svid_02=48, elv_02=38.0, az_02=220, cno_02=, signalID=0)>
2026-06-14 11:37:45,715 - INFO - <NMEA(GLGSV, numMsg=3, msgNum=1, numSV=11, svid_01=66, elv_01=5.0, az_01=21, cno_01=45, svid_02=67, elv_02=46.0, az_02=64, cno_02=49, svid_03=68, elv_03=42.0, az_03=142, cno_03=41, svid_04=69, elv_04=6.0, az_04=177, cno_04=28, signalID=1)>
2026-06-14 11:37:45,716 - INFO - <NMEA(GLGSV, numMsg=3, msgNum=2, numSV=11, svid_01=73, elv_01=27.0, az_01=264, cno_01=35, svid_02=74, elv_02=20.0, az_02=315, cno_02=17, svid_03=80, elv_03=9.0, az_03=211, cno_03=37, svid_04=81, elv_04=3.0, az_04=93, cno_04=39, signalID=1)>
2026-06-14 11:37:45,716 - INFO - <NMEA(GLGSV, numMsg=3, msgNum=3, numSV=11, svid_01=82, elv_01=39.0, az_01=64, cno_01=47, svid_02=83, elv_02=52.0, az_02=340, cno_02=49, svid_03=84, elv_03=13.0, az_03=294, cno_03=37, signalID=1)>
2026-06-14 11:37:45,717 - INFO - <NMEA(GLGSV, numMsg=3, msgNum=1, numSV=10, svid_01=66, elv_01=5.0, az_01=21, cno_01=32, svid_02=67, elv_02=46.0, az_02=64, cno_02=45, svid_03=68, elv_03=42.0, az_03=142, cno_03=40, svid_04=69, elv_04=6.0, az_04=177, cno_04=19, signalID=3)>
2026-06-14 11:37:45,717 - INFO - <NMEA(GLGSV, numMsg=3, msgNum=2, numSV=10, svid_01=73, elv_01=27.0, az_01=264, cno_01=38, svid_02=80, elv_02=9.0, az_02=211, cno_02=21, svid_03=81, elv_03=3.0, az_03=93, cno_03=40, svid_04=82, elv_04=39.0, az_04=64, cno_04=45, signalID=3)>
2026-06-14 11:37:45,718 - INFO - <NMEA(GLGSV, numMsg=3, msgNum=3, numSV=10, svid_01=83, elv_01=52.0, az_01=340, cno_01=39, svid_02=84, elv_02=13.0, az_02=294, cno_02=32, signalID=3)>
2026-06-14 11:37:45,718 - INFO - <NMEA(GAGSV, numMsg=2, msgNum=1, numSV=8, svid_01=2, elv_01=53.0, az_01=254, cno_01=46, svid_02=4, elv_02=19.0, az_02=67, cno_02=41, svid_03=6, elv_03=23.0, az_03=94, cno_03=47, svid_04=9, elv_04=21.0, az_04=120, cno_04=42, signalID=2)>
2026-06-14 11:37:45,719 - INFO - <NMEA(GAGSV, numMsg=2, msgNum=2, numSV=8, svid_01=10, elv_01=11.0, az_01=67, cno_01=45, svid_02=11, elv_02=36.0, az_02=56, cno_02=44, svid_03=14, elv_03=41.0, az_03=129, cno_03=43, svid_04=36, elv_04=68.0, az_04=337, cno_04=47, signalID=2)>
2026-06-14 11:37:45,720 - INFO - <NMEA(GAGSV, numMsg=2, msgNum=1, numSV=8, svid_01=2, elv_01=53.0, az_01=254, cno_01=45, svid_02=4, elv_02=19.0, az_02=67, cno_02=34, svid_03=6, elv_03=23.0, az_03=94, cno_03=41, svid_04=9, elv_04=21.0, az_04=120, cno_04=37, signalID=7)>
2026-06-14 11:37:45,720 - INFO - <NMEA(GAGSV, numMsg=2, msgNum=2, numSV=8, svid_01=10, elv_01=11.0, az_01=67, cno_01=44, svid_02=11, elv_02=36.0, az_02=56, cno_02=43, svid_03=14, elv_03=41.0, az_03=129, cno_03=44, svid_04=36, elv_04=68.0, az_04=337, cno_04=40, signalID=7)>
2026-06-14 11:37:45,721 - INFO - <NMEA(GAGSV, numMsg=1, msgNum=1, numSV=1, svid_01=5, elv_01=2.0, az_01=166, cno_01=, signalID=0)>
2026-06-14 11:37:45,721 - INFO - <NMEA(GBGSV, numMsg=3, msgNum=1, numSV=9, svid_01=13, elv_01=, az_01=, cno_01=46, svid_02=14, elv_02=47.0, az_02=71, cno_02=47, svid_03=21, elv_03=29.0, az_03=48, cno_03=46, svid_04=23, elv_04=, az_04=, cno_04=30, signalID=1)>
2026-06-14 11:37:45,722 - INFO - <NMEA(GBGSV, numMsg=3, msgNum=2, numSV=9, svid_01=28, elv_01=24.0, az_01=299, cno_01=39, svid_02=34, elv_02=34.0, az_02=97, cno_02=41, svid_03=37, elv_03=13.0, az_03=294, cno_03=30, svid_04=38, elv_04=72.0, az_04=356, cno_04=33, signalID=1)>
2026-06-14 11:37:45,722 - INFO - <NMEA(GBGSV, numMsg=3, msgNum=3, numSV=9, svid_01=42, elv_01=57.0, az_01=111, cno_01=41, signalID=1)>
2026-06-14 11:37:45,722 - INFO - <NMEA(GQGSV, numMsg=1, msgNum=1, numSV=0, signalID=0)>
2026-06-14 11:37:45,723 - INFO - <NMEA(GNGLL, lat=37.90084, NS=N, lon=-97.6642141667, EW=W, time=16:37:45.600000, status=A, posMode=D)>
2026-06-14 11:37:45,723 - INFO - <UBX(NAV-RELPOSNED, version=1, reserved0=0, refStationID=0, iTOW=16:37:45.600000, relPosN=49.19, relPosE=32.12, relPosD=3.73, relPosLength=58.86, relPosHeading=33.14419, reserved1=0, accN=10.0, accE=10.0, accD=10.0, accLength=10.0, accHeading=0.97531, reserved2=0, gnssFixOK=1, diffSoln=1, relPosValid=1, carrSoln=2, isMoving=1, refPosMiss=0, refObsMiss=0, relPosHeadingValid=1, relPosNormalized=0)>
2026-06-14 11:37:45,725 - INFO - 2026-06-14 11:37:45, current_target: {'timestamp': '2026-05-10 13:40:05', 'lat': 37.9008713333, 'lon': -97.66418, 'speed': 0.004629996, 'y_offset': 0.0, 'x_offset': 0.0, 'z_offset': 0.0, 'heading': 1.76477}, next_target: {'timestamp': '2026-05-10 13:40:06', 'lat': 37.9008713333, 'lon': -97.66418, 'speed': 0.00514444, 'y_offset': 0.0, 'x_offset': 0.0, 'z_offset': 0.0, 'heading': 1.76299}
2026-06-14 11:37:45,725 - INFO - 2026-06-14 11:37:45 [3.4 OBSERVED] current_turn_radius: infm
2026-06-14 11:37:45,725 - INFO - 2026-06-14 11:37:45 [3.4 OBSERVED] turn_direction: RIGHT
2026-06-14 11:37:45,725 - INFO - 2026-06-14 11:37:45 [3.4 OBSERVED] estimated left/right wheel speeds: nan, nan rad/s
2026-06-14 11:37:45,728 - INFO - 2026-06-14 11:37:45 [STATE] Current state: NAVIGATING_TO_START
2026-06-14 11:37:45,729 - INFO - 2026-06-14 11:37:45 [NAV_TO_START] Phase: DRIVE_TO_START, Dist: 4.596m, Bearing err: 7.7°, Heading diff: 31.4°, Elapsed: 0.6s
2026-06-14 11:37:45,729 - INFO - 2026-06-14 11:37:45 [NAV_TO_START] DRIVE: bearing=40.8°, dist=4.60m, turn=RIGHT, radius=12.89m, speed=1.00
2026-06-14 11:37:45,729 - INFO - 2026-06-14 11:37:45 Turn: RIGHT, Radius: 12.89m, DLWS: 4.76 rad/s, DRWS: 4.50 rad/s
2026-06-14 11:37:45,729 - INFO - 2026-06-14 11:37:45 left_actuator_position: 787 (counts) from DLWS 4.755 rad/s
2026-06-14 11:37:45,729 - INFO - 2026-06-14 11:37:45 right_actuator_position: 804 (counts) from DRWS 4.504 rad/s
2026-06-14 11:37:45,729 - INFO - 2026-06-14 11:37:45 LAM: 24.55 mm/(rad/s), RAM: 24.55 mm/(rad/s)
2026-06-14 11:37:45,729 - INFO - 2026-06-14 11:37:45 DLAP: 116.72 mm, DRAP: 110.55 mm
2026-06-14 11:37:45,742 - INFO - Sent actuator positions to RoboClaw → M1 (left): 787, M2 (right): 804 (counts)
2026-06-14 11:37:45,743 - INFO - 2026-06-14 11:37:45 APPLY → left_pos: 787, right_pos: 804 (counts), DLAP: 116.72 mm, DRAP: 110.55 mm
2026-06-14 11:37:45,743 - INFO - <UBX(RXM-RTCM, version=2, crcFailed=0, msgUsed=2, subType=0, refStation=0, msgType=4072)>
2026-06-14 11:37:45,865 - INFO - <UBX(RXM-RTCM, version=2, crcFailed=0, msgUsed=2, subType=0, refStation=0, msgType=1074)>
2026-06-14 11:37:45,868 - INFO - <UBX(RXM-RTCM, version=2, crcFailed=0, msgUsed=2, subType=0, refStation=0, msgType=1084)>
2026-06-14 11:37:45,872 - INFO - <UBX(RXM-RTCM, version=2, crcFailed=0, msgUsed=2, subType=0, refStation=0, msgType=1094)>
2026-06-14 11:37:45,873 - INFO - <UBX(RXM-RTCM, version=2, crcFailed=0, msgUsed=2, subType=0, refStation=0, msgType=1124)>
2026-06-14 11:37:45,874 - INFO - <UBX(RXM-RTCM, version=2, crcFailed=0, msgUsed=2, subType=0, refStation=0, msgType=1230)>
2026-06-14 11:37:45,913 - INFO - <UBX(NAV-PVT, iTOW=16:37:45.800000, year=2026, month=6, day=14, hour=16, min=37, second=45, validDate=1, validTime=1, fullyResolved=1, validMag=0, tAcc=21, nano=800422246, fixType=3, gnssFixOk=1, diffSoln=1, psmState=0, headVehValid=0, carrSoln=2, confirmedAvai=1, confirmedDate=1, confirmedTime=1, numSV=26, lon=-97.6642142, lat=37.90084, height=404586, hMSL=430839, hAcc=1035, vAcc=1580, velN=8, velE=-4, velD=9, gSpeed=9, headMot=197.87992, sAcc=99, headAcc=180.0, pDOP=1.04, invalidLlh=0, lastCorrectionAge=1, reserved0=860630572, headVeh=0.0, magDec=0.0, magAcc=0.0)>
2026-06-14 11:37:45,913 - INFO - <NMEA(GNRMC, time=16:37:45.800000, status=A, lat=37.90084, NS=N, lon=-97.6642141667, EW=W, spd=0.018, cog=, date=2026-06-14, mv=, mvEW=, posMode=R, navStatus=V)>
2026-06-14 11:37:45,914 - INFO - <NMEA(GNVTG, cogt=, cogtUnit=T, cogm=, cogmUnit=M, sogn=0.018, sognUnit=N, sogk=0.034, sogkUnit=K, posMode=D)>
2026-06-14 11:37:45,915 - INFO - <NMEA(GNGGA, time=16:37:45.800000, lat=37.90084, NS=N, lon=-97.6642141667, EW=W, quality=4, numSV=12, HDOP=0.59, alt=430.8, altUnit=M, sep=-26.3, sepUnit=M, diffAge=0.2, diffStation=0)>
2026-06-14 11:37:45,915 - INFO - <NMEA(GNGSA, opMode=M, navMode=3, svid_01=5, svid_02=11, svid_03=12, svid_04=20, svid_05=21, svid_06=25, svid_07=29, svid_08=, svid_09=, svid_10=, svid_11=, svid_12=, PDOP=1.04, HDOP=0.59, VDOP=0.85, systemId=1)>
2026-06-14 11:37:45,916 - INFO - <NMEA(GNGSA, opMode=M, navMode=3, svid_01=82, svid_02=73, svid_03=84, svid_04=83, svid_05=67, svid_06=, svid_07=, svid_08=, svid_09=, svid_10=, svid_11=, svid_12=, PDOP=1.04, HDOP=0.59, VDOP=0.85, systemId=2)>
2026-06-14 11:37:45,916 - INFO - <NMEA(GNGSA, opMode=M, navMode=3, svid_01=2, svid_02=4, svid_03=6, svid_04=9, svid_05=10, svid_06=11, svid_07=36, svid_08=, svid_09=, svid_10=, svid_11=, svid_12=, PDOP=1.04, HDOP=0.59, VDOP=0.85, systemId=3)>
2026-06-14 11:37:45,917 - INFO - <NMEA(GNGSA, opMode=M, navMode=3, svid_01=14, svid_02=21, svid_03=28, svid_04=38, svid_05=42, svid_06=34, svid_07=37, svid_08=, svid_09=, svid_10=, svid_11=, svid_12=, PDOP=1.04, HDOP=0.59, VDOP=0.85, systemId=4)>
2026-06-14 11:37:45,917 - INFO - <NMEA(GNGSA, opMode=M, navMode=3, svid_01=, svid_02=, svid_03=, svid_04=, svid_05=, svid_06=, svid_07=, svid_08=, svid_09=, svid_10=, svid_11=, svid_12=, PDOP=1.04, HDOP=0.59, VDOP=0.85, systemId=5)>
2026-06-14 11:37:45,917 - INFO - <NMEA(GPGSV, numMsg=3, msgNum=1, numSV=10, svid_01=5, elv_01=87.0, az_01=134, cno_01=43, svid_02=11, elv_02=32.0, az_02=66, cno_02=47, svid_03=12, elv_03=27.0, az_03=196, cno_03=27, svid_04=13, elv_04=23.0, az_04=200, cno_04=29, signalID=1)>
2026-06-14 11:37:45,918 - INFO - <NMEA(GPGSV, numMsg=3, msgNum=2, numSV=10, svid_01=18, elv_01=16.0, az_01=275, cno_01=28, svid_02=20, elv_02=25.0, az_02=142, cno_02=42, svid_03=21, elv_03=54.0, az_03=51, cno_03=47, svid_04=25, elv_04=39.0, az_04=239, cno_04=35, signalID=1)>
2026-06-14 11:37:45,918 - INFO - <NMEA(GPGSV, numMsg=3, msgNum=3, numSV=10, svid_01=29, elv_01=52.0, az_01=316, cno_01=48, svid_02=46, elv_02=35.0, az_02=225, cno_02=30, signalID=1)>
2026-06-14 11:37:45,919 - INFO - <NMEA(GPGSV, numMsg=3, msgNum=1, numSV=10, svid_01=5, elv_01=87.0, az_01=134, cno_01=37, svid_02=11, elv_02=32.0, az_02=66, cno_02=44, svid_03=12, elv_03=27.0, az_03=196, cno_03=24, svid_04=13, elv_04=23.0, az_04=200, cno_04=26, signalID=6)>
2026-06-14 11:37:45,919 - INFO - <NMEA(GPGSV, numMsg=3, msgNum=2, numSV=10, svid_01=15, elv_01=16.0, az_01=171, cno_01=24, svid_02=18, elv_02=16.0, az_02=275, cno_02=29, svid_03=20, elv_03=25.0, az_03=142, cno_03=39, svid_04=21, elv_04=54.0, az_04=51, cno_04=46, signalID=6)>
2026-06-14 11:37:45,920 - INFO - <UBX(RXM-RTCM, version=2, crcFailed=0, msgUsed=2, subType=0, refStation=0, msgType=4072)>
2026-06-14 11:37:45,920 - INFO - <NMEA(GPGSV, numMsg=3, msgNum=3, numSV=10, svid_01=25, elv_01=39.0, az_01=239, cno_01=38, svid_02=29, elv_02=52.0, az_02=316, cno_02=42, signalID=6)>
2026-06-14 11:37:45,921 - INFO - <NMEA(GPGSV, numMsg=1, msgNum=1, numSV=2, svid_01=44, elv_01=42.0, az_01=210, cno_01=, svid_02=48, elv_02=38.0, az_02=220, cno_02=, signalID=0)>
2026-06-14 11:37:45,921 - INFO - <NMEA(GLGSV, numMsg=3, msgNum=1, numSV=11, svid_01=66, elv_01=5.0, az_01=21, cno_01=44, svid_02=67, elv_02=46.0, az_02=64, cno_02=49, svid_03=68, elv_03=42.0, az_03=142, cno_03=41, svid_04=69, elv_04=6.0, az_04=177, cno_04=28, signalID=1)>
2026-06-14 11:37:45,922 - INFO - <NMEA(GLGSV, numMsg=3, msgNum=2, numSV=11, svid_01=73, elv_01=27.0, az_01=264, cno_01=33, svid_02=74, elv_02=20.0, az_02=315, cno_02=27, svid_03=80, elv_03=9.0, az_03=211, cno_03=35, svid_04=81, elv_04=3.0, az_04=93, cno_04=39, signalID=1)>
2026-06-14 11:37:45,922 - INFO - <NMEA(GLGSV, numMsg=3, msgNum=3, numSV=11, svid_01=82, elv_01=39.0, az_01=64, cno_01=47, svid_02=83, elv_02=52.0, az_02=340, cno_02=49, svid_03=84, elv_03=13.0, az_03=294, cno_03=35, signalID=1)>
2026-06-14 11:37:45,923 - INFO - <NMEA(GLGSV, numMsg=3, msgNum=1, numSV=10, svid_01=66, elv_01=5.0, az_01=21, cno_01=33, svid_02=67, elv_02=46.0, az_02=64, cno_02=45, svid_03=68, elv_03=42.0, az_03=142, cno_03=41, svid_04=69, elv_04=6.0, az_04=177, cno_04=19, signalID=3)>
2026-06-14 11:37:45,923 - INFO - <NMEA(GLGSV, numMsg=3, msgNum=2, numSV=10, svid_01=73, elv_01=27.0, az_01=264, cno_01=39, svid_02=80, elv_02=9.0, az_02=211, cno_02=21, svid_03=81, elv_03=3.0, az_03=93, cno_03=39, svid_04=82, elv_04=39.0, az_04=64, cno_04=45, signalID=3)>
2026-06-14 11:37:45,924 - INFO - <NMEA(GLGSV, numMsg=3, msgNum=3, numSV=10, svid_01=83, elv_01=52.0, az_01=340, cno_01=39, svid_02=84, elv_02=13.0, az_02=294, cno_02=32, signalID=3)>
2026-06-14 11:37:45,925 - INFO - <NMEA(GAGSV, numMsg=2, msgNum=1, numSV=8, svid_01=2, elv_01=53.0, az_01=254, cno_01=46, svid_02=4, elv_02=19.0, az_02=67, cno_02=41, svid_03=6, elv_03=23.0, az_03=94, cno_03=47, svid_04=9, elv_04=21.0, az_04=120, cno_04=42, signalID=2)>
2026-06-14 11:37:45,925 - INFO - <NMEA(GAGSV, numMsg=2, msgNum=2, numSV=8, svid_01=10, elv_01=11.0, az_01=67, cno_01=45, svid_02=11, elv_02=36.0, az_02=56, cno_02=44, svid_03=14, elv_03=41.0, az_03=129, cno_03=43, svid_04=36, elv_04=68.0, az_04=337, cno_04=47, signalID=2)>
2026-06-14 11:37:45,926 - INFO - <NMEA(GAGSV, numMsg=2, msgNum=1, numSV=8, svid_01=2, elv_01=53.0, az_01=254, cno_01=45, svid_02=4, elv_02=19.0, az_02=67, cno_02=34, svid_03=6, elv_03=23.0, az_03=94, cno_03=42, svid_04=9, elv_04=21.0, az_04=120, cno_04=37, signalID=7)>
2026-06-14 11:37:45,926 - INFO - <NMEA(GAGSV, numMsg=2, msgNum=2, numSV=8, svid_01=10, elv_01=11.0, az_01=67, cno_01=44, svid_02=11, elv_02=36.0, az_02=56, cno_02=43, svid_03=14, elv_03=41.0, az_03=129, cno_03=44, svid_04=36, elv_04=68.0, az_04=337, cno_04=40, signalID=7)>
2026-06-14 11:37:45,927 - INFO - <NMEA(GAGSV, numMsg=1, msgNum=1, numSV=1, svid_01=5, elv_01=2.0, az_01=166, cno_01=, signalID=0)>
2026-06-14 11:37:45,927 - INFO - <NMEA(GBGSV, numMsg=3, msgNum=1, numSV=9, svid_01=13, elv_01=, az_01=, cno_01=46, svid_02=14, elv_02=47.0, az_02=71, cno_02=47, svid_03=21, elv_03=29.0, az_03=48, cno_03=46, svid_04=23, elv_04=, az_04=, cno_04=30, signalID=1)>
2026-06-14 11:37:45,928 - INFO - <NMEA(GBGSV, numMsg=3, msgNum=2, numSV=9, svid_01=28, elv_01=24.0, az_01=299, cno_01=39, svid_02=34, elv_02=34.0, az_02=97, cno_02=41, svid_03=37, elv_03=13.0, az_03=294, cno_03=30, svid_04=38, elv_04=72.0, az_04=356, cno_04=36, signalID=1)>
2026-06-14 11:37:45,928 - INFO - <NMEA(GBGSV, numMsg=3, msgNum=3, numSV=9, svid_01=42, elv_01=57.0, az_01=111, cno_01=40, signalID=1)>
2026-06-14 11:37:45,928 - INFO - <NMEA(GQGSV, numMsg=1, msgNum=1, numSV=0, signalID=0)>
2026-06-14 11:37:45,929 - INFO - <NMEA(GNGLL, lat=37.90084, NS=N, lon=-97.6642141667, EW=W, time=16:37:45.800000, status=A, posMode=D)>
2026-06-14 11:37:45,929 - INFO - <UBX(NAV-RELPOSNED, version=1, reserved0=0, refStationID=0, iTOW=16:37:45.800000, relPosN=49.24, relPosE=31.96, relPosD=3.88, relPosLength=58.83, relPosHeading=32.98707, reserved1=0, accN=10.0, accE=10.0, accD=10.0, accLength=10.0, accHeading=0.97612, reserved2=0, gnssFixOK=1, diffSoln=1, relPosValid=1, carrSoln=2, isMoving=1, refPosMiss=0, refObsMiss=0, relPosHeadingValid=1, relPosNormalized=0)>
2026-06-14 11:37:45,931 - INFO - 2026-06-14 11:37:45, current_target: {'timestamp': '2026-05-10 13:40:05', 'lat': 37.9008713333, 'lon': -97.66418, 'speed': 0.004629996, 'y_offset': 0.0, 'x_offset': 0.0, 'z_offset': 0.0, 'heading': 1.76477}, next_target: {'timestamp': '2026-05-10 13:40:06', 'lat': 37.9008713333, 'lon': -97.66418, 'speed': 0.00514444, 'y_offset': 0.0, 'x_offset': 0.0, 'z_offset': 0.0, 'heading': 1.76299}
2026-06-14 11:37:45,931 - INFO - 2026-06-14 11:37:45 [3.4 OBSERVED] current_turn_radius: infm
2026-06-14 11:37:45,931 - INFO - 2026-06-14 11:37:45 [3.4 OBSERVED] turn_direction: LEFT
2026-06-14 11:37:45,931 - INFO - 2026-06-14 11:37:45 [3.4 OBSERVED] estimated left/right wheel speeds: nan, nan rad/s
2026-06-14 11:37:45,932 - INFO - 2026-06-14 11:37:45 [STATE] Current state: NAVIGATING_TO_START
2026-06-14 11:37:45,933 - INFO - 2026-06-14 11:37:45 [NAV_TO_START] Phase: DRIVE_TO_START, Dist: 4.596m, Bearing err: 7.8°, Heading diff: 31.2°, Elapsed: 0.8s
2026-06-14 11:37:45,933 - INFO - 2026-06-14 11:37:45 [NAV_TO_START] DRIVE: bearing=40.8°, dist=4.60m, turn=RIGHT, radius=12.63m, speed=1.00
2026-06-14 11:37:45,933 - INFO - 2026-06-14 11:37:45 Turn: RIGHT, Radius: 12.63m, DLWS: 4.76 rad/s, DRWS: 4.50 rad/s
2026-06-14 11:37:45,933 - INFO - 2026-06-14 11:37:45 left_actuator_position: 787 (counts) from DLWS 4.758 rad/s
2026-06-14 11:37:45,933 - INFO - 2026-06-14 11:37:45 right_actuator_position: 804 (counts) from DRWS 4.501 rad/s
2026-06-14 11:37:45,933 - INFO - 2026-06-14 11:37:45 LAM: 24.55 mm/(rad/s), RAM: 24.55 mm/(rad/s)
2026-06-14 11:37:45,934 - INFO - 2026-06-14 11:37:45 DLAP: 116.78 mm, DRAP: 110.49 mm
2026-06-14 11:37:45,946 - INFO - Sent actuator positions to RoboClaw → M1 (left): 787, M2 (right): 804 (counts)
2026-06-14 11:37:45,946 - INFO - 2026-06-14 11:37:45 APPLY → left_pos: 787, right_pos: 804 (counts), DLAP: 116.78 mm, DRAP: 110.49 mm
2026-06-14 11:37:46,064 - INFO - <UBX(RXM-RTCM, version=2, crcFailed=0, msgUsed=2, subType=0, refStation=0, msgType=1074)>
2026-06-14 11:37:46,067 - INFO - <UBX(RXM-RTCM, version=2, crcFailed=0, msgUsed=2, subType=0, refStation=0, msgType=1084)>
2026-06-14 11:37:46,071 - INFO - <UBX(RXM-RTCM, version=2, crcFailed=0, msgUsed=2, subType=0, refStation=0, msgType=1094)>
2026-06-14 11:37:46,073 - INFO - <UBX(RXM-RTCM, version=2, crcFailed=0, msgUsed=2, subType=0, refStation=0, msgType=1124)>
2026-06-14 11:37:46,073 - INFO - <UBX(RXM-RTCM, version=2, crcFailed=0, msgUsed=2, subType=0, refStation=0, msgType=1230)>
2026-06-14 11:37:46,119 - INFO - <UBX(NAV-PVT, iTOW=16:37:46, year=2026, month=6, day=14, hour=16, min=37, second=46, validDate=1, validTime=1, fullyResolved=1, validMag=0, tAcc=21, nano=422203, fixType=3, gnssFixOk=1, diffSoln=1, psmState=0, headVehValid=0, carrSoln=2, confirmedAvai=1, confirmedDate=1, confirmedTime=1, numSV=26, lon=-97.6642141, lat=37.9008401, height=404589, hMSL=430842, hAcc=1066, vAcc=1627, velN=6, velE=-6, velD=21, gSpeed=9, headMot=197.87992, sAcc=100, headAcc=180.0, pDOP=1.04, invalidLlh=0, lastCorrectionAge=1, reserved0=860630572, headVeh=0.0, magDec=0.0, magAcc=0.0)>
2026-06-14 11:37:46,119 - INFO - <NMEA(GNRMC, time=16:37:46, status=A, lat=37.90084, NS=N, lon=-97.664214, EW=W, spd=0.017, cog=, date=2026-06-14, mv=, mvEW=, posMode=R, navStatus=V)>
2026-06-14 11:37:46,120 - INFO - <NMEA(GNVTG, cogt=, cogtUnit=T, cogm=, cogmUnit=M, sogn=0.017, sognUnit=N, sogk=0.031, sogkUnit=K, posMode=D)>
2026-06-14 11:37:46,121 - INFO - <NMEA(GNGGA, time=16:37:46, lat=37.90084, NS=N, lon=-97.664214, EW=W, quality=4, numSV=12, HDOP=0.59, alt=430.8, altUnit=M, sep=-26.3, sepUnit=M, diffAge=0.2, diffStation=0)>
2026-06-14 11:37:46,121 - INFO - <NMEA(GNGSA, opMode=M, navMode=3, svid_01=5, svid_02=11, svid_03=12, svid_04=20, svid_05=21, svid_06=25, svid_07=29, svid_08=, svid_09=, svid_10=, svid_11=, svid_12=, PDOP=1.04, HDOP=0.59, VDOP=0.85, systemId=1)>
2026-06-14 11:37:46,122 - INFO - <NMEA(GNGSA, opMode=M, navMode=3, svid_01=82, svid_02=73, svid_03=84, svid_04=83, svid_05=67, svid_06=, svid_07=, svid_08=, svid_09=, svid_10=, svid_11=, svid_12=, PDOP=1.04, HDOP=0.59, VDOP=0.85, systemId=2)>
2026-06-14 11:37:46,122 - INFO - <NMEA(GNGSA, opMode=M, navMode=3, svid_01=2, svid_02=4, svid_03=6, svid_04=9, svid_05=10, svid_06=11, svid_07=36, svid_08=, svid_09=, svid_10=, svid_11=, svid_12=, PDOP=1.04, HDOP=0.59, VDOP=0.85, systemId=3)>
2026-06-14 11:37:46,123 - INFO - <NMEA(GNGSA, opMode=M, navMode=3, svid_01=14, svid_02=21, svid_03=28, svid_04=38, svid_05=42, svid_06=34, svid_07=37, svid_08=, svid_09=, svid_10=, svid_11=, svid_12=, PDOP=1.04, HDOP=0.59, VDOP=0.85, systemId=4)>
2026-06-14 11:37:46,123 - INFO - <NMEA(GNGSA, opMode=M, navMode=3, svid_01=, svid_02=, svid_03=, svid_04=, svid_05=, svid_06=, svid_07=, svid_08=, svid_09=, svid_10=, svid_11=, svid_12=, PDOP=1.04, HDOP=0.59, VDOP=0.85, systemId=5)>
2026-06-14 11:37:46,124 - INFO - <NMEA(GPGSV, numMsg=3, msgNum=1, numSV=10, svid_01=5, elv_01=87.0, az_01=134, cno_01=42, svid_02=11, elv_02=32.0, az_02=66, cno_02=47, svid_03=12, elv_03=27.0, az_03=196, cno_03=27, svid_04=13, elv_04=23.0, az_04=200, cno_04=30, signalID=1)>
2026-06-14 11:37:46,124 - INFO - <NMEA(GPGSV, numMsg=3, msgNum=2, numSV=10, svid_01=18, elv_01=16.0, az_01=275, cno_01=28, svid_02=20, elv_02=25.0, az_02=142, cno_02=42, svid_03=21, elv_03=54.0, az_03=51, cno_03=47, svid_04=25, elv_04=39.0, az_04=239, cno_04=34, signalID=1)>
2026-06-14 11:37:46,125 - INFO - <NMEA(GPGSV, numMsg=3, msgNum=3, numSV=10, svid_01=29, elv_01=52.0, az_01=316, cno_01=48, svid_02=46, elv_02=35.0, az_02=225, cno_02=30, signalID=1)>
2026-06-14 11:37:46,126 - INFO - <NMEA(GPGSV, numMsg=3, msgNum=1, numSV=10, svid_01=5, elv_01=87.0, az_01=134, cno_01=37, svid_02=11, elv_02=32.0, az_02=66, cno_02=44, svid_03=12, elv_03=27.0, az_03=196, cno_03=24, svid_04=13, elv_04=23.0, az_04=200, cno_04=27, signalID=6)>
2026-06-14 11:37:46,126 - INFO - <NMEA(GPGSV, numMsg=3, msgNum=2, numSV=10, svid_01=15, elv_01=16.0, az_01=171, cno_01=24, svid_02=18, elv_02=16.0, az_02=275, cno_02=29, svid_03=20, elv_03=25.0, az_03=142, cno_03=39, svid_04=21, elv_04=54.0, az_04=51, cno_04=45, signalID=6)>
2026-06-14 11:37:46,127 - INFO - <NMEA(GPGSV, numMsg=3, msgNum=3, numSV=10, svid_01=25, elv_01=39.0, az_01=239, cno_01=38, svid_02=29, elv_02=52.0, az_02=316, cno_02=42, signalID=6)>
2026-06-14 11:37:46,127 - INFO - <NMEA(GPGSV, numMsg=1, msgNum=1, numSV=2, svid_01=44, elv_01=42.0, az_01=210, cno_01=, svid_02=48, elv_02=38.0, az_02=220, cno_02=, signalID=0)>
2026-06-14 11:37:46,127 - INFO - <NMEA(GLGSV, numMsg=3, msgNum=1, numSV=11, svid_01=66, elv_01=5.0, az_01=21, cno_01=44, svid_02=67, elv_02=46.0, az_02=64, cno_02=49, svid_03=68, elv_03=42.0, az_03=142, cno_03=41, svid_04=69, elv_04=6.0, az_04=177, cno_04=27, signalID=1)>
2026-06-14 11:37:46,128 - INFO - <NMEA(GLGSV, numMsg=3, msgNum=2, numSV=11, svid_01=73, elv_01=27.0, az_01=264, cno_01=34, svid_02=74, elv_02=20.0, az_02=315, cno_02=28, svid_03=80, elv_03=9.0, az_03=211, cno_03=36, svid_04=81, elv_04=3.0, az_04=93, cno_04=39, signalID=1)>
2026-06-14 11:37:46,128 - INFO - <NMEA(GLGSV, numMsg=3, msgNum=3, numSV=11, svid_01=82, elv_01=39.0, az_01=64, cno_01=47, svid_02=83, elv_02=52.0, az_02=340, cno_02=49, svid_03=84, elv_03=13.0, az_03=294, cno_03=32, signalID=1)>
2026-06-14 11:37:46,129 - INFO - <NMEA(GLGSV, numMsg=3, msgNum=1, numSV=10, svid_01=66, elv_01=5.0, az_01=21, cno_01=33, svid_02=67, elv_02=46.0, az_02=64, cno_02=45, svid_03=68, elv_03=42.0, az_03=142, cno_03=40, svid_04=69, elv_04=6.0, az_04=177, cno_04=18, signalID=3)>
2026-06-14 11:37:46,130 - INFO - <NMEA(GLGSV, numMsg=3, msgNum=2, numSV=10, svid_01=73, elv_01=27.0, az_01=264, cno_01=39, svid_02=80, elv_02=9.0, az_02=211, cno_02=21, svid_03=81, elv_03=3.0, az_03=93, cno_03=39, svid_04=82, elv_04=39.0, az_04=64, cno_04=45, signalID=3)>
2026-06-14 11:37:46,130 - INFO - <NMEA(GLGSV, numMsg=3, msgNum=3, numSV=10, svid_01=83, elv_01=52.0, az_01=340, cno_01=39, svid_02=84, elv_02=13.0, az_02=294, cno_02=32, signalID=3)>
2026-06-14 11:37:46,131 - INFO - <NMEA(GAGSV, numMsg=2, msgNum=1, numSV=8, svid_01=2, elv_01=53.0, az_01=254, cno_01=46, svid_02=4, elv_02=19.0, az_02=67, cno_02=42, svid_03=6, elv_03=23.0, az_03=94, cno_03=47, svid_04=9, elv_04=21.0, az_04=120, cno_04=42, signalID=2)>
2026-06-14 11:37:46,131 - INFO - <NMEA(GAGSV, numMsg=2, msgNum=2, numSV=8, svid_01=10, elv_01=11.0, az_01=67, cno_01=45, svid_02=11, elv_02=36.0, az_02=56, cno_02=44, svid_03=14, elv_03=41.0, az_03=129, cno_03=43, svid_04=36, elv_04=68.0, az_04=337, cno_04=47, signalID=2)>
2026-06-14 11:37:46,132 - INFO - <NMEA(GAGSV, numMsg=2, msgNum=1, numSV=8, svid_01=2, elv_01=53.0, az_01=254, cno_01=45, svid_02=4, elv_02=19.0, az_02=67, cno_02=34, svid_03=6, elv_03=23.0, az_03=94, cno_03=42, svid_04=9, elv_04=21.0, az_04=120, cno_04=37, signalID=7)>
2026-06-14 11:37:46,132 - INFO - <NMEA(GAGSV, numMsg=2, msgNum=2, numSV=8, svid_01=10, elv_01=11.0, az_01=67, cno_01=44, svid_02=11, elv_02=36.0, az_02=56, cno_02=43, svid_03=14, elv_03=41.0, az_03=129, cno_03=44, svid_04=36, elv_04=68.0, az_04=337, cno_04=43, signalID=7)>
2026-06-14 11:37:46,133 - INFO - <NMEA(GAGSV, numMsg=1, msgNum=1, numSV=1, svid_01=5, elv_01=2.0, az_01=166, cno_01=, signalID=0)>
2026-06-14 11:37:46,133 - INFO - <NMEA(GBGSV, numMsg=3, msgNum=1, numSV=9, svid_01=13, elv_01=, az_01=, cno_01=46, svid_02=14, elv_02=47.0, az_02=71, cno_02=47, svid_03=21, elv_03=29.0, az_03=48, cno_03=47, svid_04=23, elv_04=, az_04=, cno_04=29, signalID=1)>
2026-06-14 11:37:46,134 - INFO - <NMEA(GBGSV, numMsg=3, msgNum=2, numSV=9, svid_01=28, elv_01=24.0, az_01=299, cno_01=39, svid_02=34, elv_02=34.0, az_02=97, cno_02=41, svid_03=37, elv_03=13.0, az_03=294, cno_03=31, svid_04=38, elv_04=72.0, az_04=356, cno_04=36, signalID=1)>
2026-06-14 11:37:46,134 - INFO - <NMEA(GBGSV, numMsg=3, msgNum=3, numSV=9, svid_01=42, elv_01=57.0, az_01=111, cno_01=40, signalID=1)>
2026-06-14 11:37:46,134 - INFO - <NMEA(GQGSV, numMsg=1, msgNum=1, numSV=0, signalID=0)>
2026-06-14 11:37:46,135 - INFO - <NMEA(GNGLL, lat=37.90084, NS=N, lon=-97.664214, EW=W, time=16:37:46, status=A, posMode=D)>
2026-06-14 11:37:46,135 - INFO - <UBX(NAV-RELPOSNED, version=1, reserved0=0, refStationID=0, iTOW=16:37:46, relPosN=49.51, relPosE=31.9, relPosD=4.64, relPosLength=59.08, relPosHeading=32.79908, reserved1=0, accN=10.0, accE=10.0, accD=10.0, accLength=10.0, accHeading=0.97283, reserved2=0, gnssFixOK=1, diffSoln=1, relPosValid=1, carrSoln=2, isMoving=1, refPosMiss=0, refObsMiss=0, relPosHeadingValid=1, relPosNormalized=0)>
2026-06-14 11:37:46,136 - INFO - 2026-06-14 11:37:46, current_target: {'timestamp': '2026-05-10 13:40:05', 'lat': 37.9008713333, 'lon': -97.66418, 'speed': 0.004629996, 'y_offset': 0.0, 'x_offset': 0.0, 'z_offset': 0.0, 'heading': 1.76477}, next_target: {'timestamp': '2026-05-10 13:40:06', 'lat': 37.9008713333, 'lon': -97.66418, 'speed': 0.00514444, 'y_offset': 0.0, 'x_offset': 0.0, 'z_offset': 0.0, 'heading': 1.76299}
2026-06-14 11:37:46,137 - INFO - 2026-06-14 11:37:46 [3.4 OBSERVED] current_turn_radius: infm
2026-06-14 11:37:46,137 - INFO - 2026-06-14 11:37:46 [3.4 OBSERVED] turn_direction: LEFT
2026-06-14 11:37:46,137 - INFO - 2026-06-14 11:37:46 [3.4 OBSERVED] estimated left/right wheel speeds: nan, nan rad/s
2026-06-14 11:37:46,139 - INFO - 2026-06-14 11:37:46 [STATE] Current state: NAVIGATING_TO_START
2026-06-14 11:37:46,139 - INFO - 2026-06-14 11:37:46 [NAV_TO_START] Phase: DRIVE_TO_START, Dist: 4.587m, Bearing err: 7.9°, Heading diff: 31.0°, Elapsed: 1.1s
2026-06-14 11:37:46,140 - INFO - 2026-06-14 11:37:46 [NAV_TO_START] DRIVE: bearing=40.7°, dist=4.59m, turn=RIGHT, radius=12.53m, speed=1.00
2026-06-14 11:37:46,140 - INFO - 2026-06-14 11:37:46 Turn: RIGHT, Radius: 12.53m, DLWS: 4.76 rad/s, DRWS: 4.50 rad/s
2026-06-14 11:37:46,140 - INFO - 2026-06-14 11:37:46 left_actuator_position: 787 (counts) from DLWS 4.759 rad/s
2026-06-14 11:37:46,140 - INFO - 2026-06-14 11:37:46 right_actuator_position: 804 (counts) from DRWS 4.500 rad/s
2026-06-14 11:37:46,140 - INFO - 2026-06-14 11:37:46 LAM: 24.55 mm/(rad/s), RAM: 24.55 mm/(rad/s)
2026-06-14 11:37:46,140 - INFO - 2026-06-14 11:37:46 DLAP: 116.81 mm, DRAP: 110.46 mm
2026-06-14 11:37:46,152 - INFO - Sent actuator positions to RoboClaw → M1 (left): 787, M2 (right): 804 (counts)
2026-06-14 11:37:46,152 - INFO - 2026-06-14 11:37:46 APPLY → left_pos: 787, right_pos: 804 (counts), DLAP: 116.81 mm, DRAP: 110.46 mm
2026-06-14 11:37:46,153 - INFO - <UBX(RXM-RTCM, version=2, crcFailed=0, msgUsed=2, subType=0, refStation=0, msgType=4072)>
2026-06-14 11:37:46,266 - INFO - <UBX(RXM-RTCM, version=2, crcFailed=0, msgUsed=2, subType=0, refStation=0, msgType=1074)>
2026-06-14 11:37:46,269 - INFO - <UBX(RXM-RTCM, version=2, crcFailed=0, msgUsed=2, subType=0, refStation=0, msgType=1084)>
2026-06-14 11:37:46,272 - INFO - <UBX(RXM-RTCM, version=2, crcFailed=0, msgUsed=2, subType=0, refStation=0, msgType=1094)>
2026-06-14 11:37:46,274 - INFO - <UBX(RXM-RTCM, version=2, crcFailed=0, msgUsed=2, subType=0, refStation=0, msgType=1124)>
2026-06-14 11:37:46,274 - INFO - <UBX(RXM-RTCM, version=2, crcFailed=0, msgUsed=2, subType=0, refStation=0, msgType=1230)>
2026-06-14 11:37:46,306 - INFO - <UBX(NAV-PVT, iTOW=16:37:46.200000, year=2026, month=6, day=14, hour=16, min=37, second=46, validDate=1, validTime=1, fullyResolved=1, validMag=0, tAcc=21, nano=200422160, fixType=3, gnssFixOk=1, diffSoln=1, psmState=0, headVehValid=0, carrSoln=2, confirmedAvai=1, confirmedDate=1, confirmedTime=1, numSV=27, lon=-97.664214, lat=37.9008401, height=404599, hMSL=430852, hAcc=976, vAcc=1489, velN=-1, velE=5, velD=5, gSpeed=5, headMot=197.87992, sAcc=78, headAcc=180.0, pDOP=1.04, invalidLlh=0, lastCorrectionAge=1, reserved0=860630572, headVeh=0.0, magDec=0.0, magAcc=0.0)>
2026-06-14 11:37:46,306 - INFO - <NMEA(GNRMC, time=16:37:46.200000, status=A, lat=37.90084, NS=N, lon=-97.664214, EW=W, spd=0.01, cog=, date=2026-06-14, mv=, mvEW=, posMode=R, navStatus=V)>
2026-06-14 11:37:46,307 - INFO - <NMEA(GNVTG, cogt=, cogtUnit=T, cogm=, cogmUnit=M, sogn=0.01, sognUnit=N, sogk=0.019, sogkUnit=K, posMode=D)>
2026-06-14 11:37:46,307 - INFO - <NMEA(GNGGA, time=16:37:46.200000, lat=37.90084, NS=N, lon=-97.664214, EW=W, quality=4, numSV=12, HDOP=0.59, alt=430.9, altUnit=M, sep=-26.3, sepUnit=M, diffAge=0.2, diffStation=0)>
2026-06-14 11:37:46,308 - INFO - <NMEA(GNGSA, opMode=M, navMode=3, svid_01=5, svid_02=11, svid_03=12, svid_04=15, svid_05=20, svid_06=21, svid_07=25, svid_08=29, svid_09=, svid_10=, svid_11=, svid_12=, PDOP=1.04, HDOP=0.59, VDOP=0.85, systemId=1)>
2026-06-14 11:37:46,308 - INFO - <NMEA(GNGSA, opMode=M, navMode=3, svid_01=82, svid_02=73, svid_03=84, svid_04=83, svid_05=67, svid_06=, svid_07=, svid_08=, svid_09=, svid_10=, svid_11=, svid_12=, PDOP=1.04, HDOP=0.59, VDOP=0.85, systemId=2)>
2026-06-14 11:37:46,309 - INFO - <NMEA(GNGSA, opMode=M, navMode=3, svid_01=2, svid_02=4, svid_03=6, svid_04=9, svid_05=10, svid_06=11, svid_07=36, svid_08=, svid_09=, svid_10=, svid_11=, svid_12=, PDOP=1.04, HDOP=0.59, VDOP=0.85, systemId=3)>
2026-06-14 11:37:46,309 - INFO - <NMEA(GNGSA, opMode=M, navMode=3, svid_01=14, svid_02=21, svid_03=28, svid_04=38, svid_05=42, svid_06=34, svid_07=37, svid_08=, svid_09=, svid_10=, svid_11=, svid_12=, PDOP=1.04, HDOP=0.59, VDOP=0.85, systemId=4)>
2026-06-14 11:37:46,310 - INFO - <NMEA(GNGSA, opMode=M, navMode=3, svid_01=, svid_02=, svid_03=, svid_04=, svid_05=, svid_06=, svid_07=, svid_08=, svid_09=, svid_10=, svid_11=, svid_12=, PDOP=1.04, HDOP=0.59, VDOP=0.85, systemId=5)>
2026-06-14 11:37:46,310 - INFO - <NMEA(GPGSV, numMsg=3, msgNum=1, numSV=10, svid_01=5, elv_01=87.0, az_01=134, cno_01=41, svid_02=11, elv_02=32.0, az_02=66, cno_02=47, svid_03=12, elv_03=27.0, az_03=196, cno_03=28, svid_04=13, elv_04=23.0, az_04=200, cno_04=31, signalID=1)>
2026-06-14 11:37:46,311 - INFO - <NMEA(GPGSV, numMsg=3, msgNum=2, numSV=10, svid_01=18, elv_01=16.0, az_01=275, cno_01=27, svid_02=20, elv_02=25.0, az_02=142, cno_02=42, svid_03=21, elv_03=54.0, az_03=51, cno_03=47, svid_04=25, elv_04=39.0, az_04=239, cno_04=34, signalID=1)>
2026-06-14 11:37:46,311 - INFO - <NMEA(GPGSV, numMsg=3, msgNum=3, numSV=10, svid_01=29, elv_01=52.0, az_01=316, cno_01=48, svid_02=46, elv_02=35.0, az_02=225, cno_02=32, signalID=1)>
2026-06-14 11:37:46,312 - INFO - <NMEA(GPGSV, numMsg=3, msgNum=1, numSV=10, svid_01=5, elv_01=87.0, az_01=134, cno_01=37, svid_02=11, elv_02=32.0, az_02=66, cno_02=45, svid_03=12, elv_03=27.0, az_03=196, cno_03=24, svid_04=13, elv_04=23.0, az_04=200, cno_04=27, signalID=6)>
