2026-06-07 16:47:58,733 - INFO - Logging initialized to /home/dali/Documents/ReMow-Rover-Tests/Repeat/Logs/readRecordedRun-2026-06-07_16-47-58.log
2026-06-07 16:47:58,735 - INFO - RoboClaw opened successfully on /dev/serial/by-id/usb-Basicmicro_Inc._USB_Roboclaw_2x15A-if00
2026-06-07 16:47:59,038 - INFO - Encoders reset to zero
2026-06-07 16:47:59,038 - INFO - Starting readRecordedRun with combination: 55
2026-06-07 16:47:59,038 - INFO - Selected most recent recording: 55_20260510-134004_GPSData.csv
2026-06-07 16:47:59,044 - INFO - GREEN_LED initialized on GPIO 17
2026-06-07 16:47:59,045 - INFO - Bootstrap: Initialized modifiers with estimate 73.86 mm/(rad/s)
2026-06-07 16:47:59,049 - INFO - ENU origin from first waypoint: 37.9008713333, -97.66418
2026-06-07 16:47:59,102 - INFO - goto_positions: M1=1100, M2=1100 [Startup - ensuring neutral position]
2026-06-07 16:47:59,102 - INFO - Actuators initialized to neutral (1100)
2026-06-07 16:47:59,102 - INFO - === STATE MACHINE INITIALIZED ===
2026-06-07 16:47:59,102 - INFO - Start waypoint: East=0.000m, North=0.000m, Heading=1.8°
2026-06-07 16:47:59,102 - INFO - Initial state: NAVIGATING_TO_START
2026-06-07 16:47:59,102 - INFO - Navigation timeout: 300.0s
2026-06-07 16:47:59,102 - INFO - === WAITING FOR GPS RTK FIX ===
2026-06-07 16:47:59,102 - INFO - Need: relPosValid=1, carrSoln=2, relPosHeadingValid=1 (timeout: 60.0s)
2026-06-07 16:47:59,115 - INFO - GPS status: relPosValid=1, carrSoln=2, headingValid=1 (0.0s)
2026-06-07 16:47:59,115 - INFO - === GPS RTK FIXED — ready to navigate (0.0s) ===
2026-06-07 16:47:59,206 - INFO - <UBX(RXM-RTCM, version=2, crcFailed=0, msgUsed=2, subType=0, refStation=0, msgType=1074)>
2026-06-07 16:47:59,207 - INFO - Using persisted heading from driving to work area: 5.21° (captured at 2026-06-07 16:47:41)
2026-06-07 16:47:59,208 - INFO - <UBX(RXM-RTCM, version=2, crcFailed=0, msgUsed=2, subType=0, refStation=0, msgType=1084)>
2026-06-07 16:47:59,210 - INFO - <UBX(RXM-RTCM, version=2, crcFailed=0, msgUsed=2, subType=0, refStation=0, msgType=1094)>
2026-06-07 16:47:59,213 - INFO - <UBX(RXM-RTCM, version=2, crcFailed=0, msgUsed=2, subType=0, refStation=0, msgType=1124)>
2026-06-07 16:47:59,214 - INFO - <UBX(RXM-RTCM, version=2, crcFailed=0, msgUsed=2, subType=0, refStation=0, msgType=1230)>
2026-06-07 16:47:59,262 - INFO - <UBX(RXM-RTCM, version=2, crcFailed=0, msgUsed=2, subType=0, refStation=0, msgType=4072)>
2026-06-07 16:47:59,271 - INFO - <UBX(NAV-PVT, iTOW=21:47:59.200000, year=2026, month=6, day=7, hour=21, min=47, second=59, validDate=1, validTime=1, fullyResolved=1, validMag=0, tAcc=22, nano=200365714, fixType=3, gnssFixOk=1, diffSoln=1, psmState=0, headVehValid=0, carrSoln=2, confirmedAvai=1, confirmedDate=1, confirmedTime=1, numSV=29, lon=-97.6641689, lat=37.9008396, height=409703, hMSL=435956, hAcc=16, vAcc=20, velN=-3, velE=3, velD=-8, gSpeed=4, headMot=20.45549, sAcc=70, headAcc=180.0, pDOP=0.88, invalidLlh=0, lastCorrectionAge=1, reserved0=860630572, headVeh=0.0, magDec=0.0, magAcc=0.0)>
2026-06-07 16:47:59,271 - INFO - <NMEA(GNRMC, time=21:47:59.200000, status=A, lat=37.9008396667, NS=N, lon=-97.6641688333, EW=W, spd=0.008, cog=, date=2026-06-07, mv=, mvEW=, posMode=R, navStatus=V)>
2026-06-07 16:47:59,272 - INFO - <NMEA(GNVTG, cogt=, cogtUnit=T, cogm=, cogmUnit=M, sogn=0.008, sognUnit=N, sogk=0.014, sogkUnit=K, posMode=D)>
2026-06-07 16:47:59,272 - INFO - <NMEA(GNGGA, time=21:47:59.200000, lat=37.9008396667, NS=N, lon=-97.6641688333, EW=W, quality=4, numSV=12, HDOP=0.49, alt=436.0, altUnit=M, sep=-26.3, sepUnit=M, diffAge=0.2, diffStation=0)>
2026-06-07 16:47:59,273 - INFO - <NMEA(GNGSA, opMode=M, navMode=3, svid_01=10, svid_02=15, svid_03=18, svid_04=23, svid_05=24, svid_06=8, svid_07=27, svid_08=32, svid_09=, svid_10=, svid_11=, svid_12=, PDOP=0.88, HDOP=0.49, VDOP=0.73, systemId=1)>
2026-06-07 16:47:59,274 - INFO - <NMEA(GNGSA, opMode=M, navMode=3, svid_01=70, svid_02=86, svid_03=87, svid_04=85, svid_05=71, svid_06=72, svid_07=, svid_08=, svid_09=, svid_10=, svid_11=, svid_12=, PDOP=0.88, HDOP=0.49, VDOP=0.73, systemId=2)>
2026-06-07 16:47:59,274 - INFO - <NMEA(GNGSA, opMode=M, navMode=3, svid_01=7, svid_02=3, svid_03=5, svid_04=8, svid_05=13, svid_06=15, svid_07=34, svid_08=, svid_09=, svid_10=, svid_11=, svid_12=, PDOP=0.88, HDOP=0.49, VDOP=0.73, systemId=3)>
2026-06-07 16:47:59,275 - INFO - <NMEA(GNGSA, opMode=M, navMode=3, svid_01=13, svid_02=27, svid_03=28, svid_04=30, svid_05=32, svid_06=33, svid_07=41, svid_08=25, svid_09=, svid_10=, svid_11=, svid_12=, PDOP=0.88, HDOP=0.49, VDOP=0.73, systemId=4)>
2026-06-07 16:47:59,275 - INFO - <NMEA(GNGSA, opMode=M, navMode=3, svid_01=, svid_02=, svid_03=, svid_04=, svid_05=, svid_06=, svid_07=, svid_08=, svid_09=, svid_10=, svid_11=, svid_12=, PDOP=0.88, HDOP=0.49, VDOP=0.73, systemId=5)>
2026-06-07 16:47:59,276 - INFO - <NMEA(GPGSV, numMsg=3, msgNum=1, numSV=11, svid_01=8, elv_01=15.0, az_01=308, cno_01=16, svid_02=10, elv_02=55.0, az_02=315, cno_02=50, svid_03=15, elv_03=16.0, az_03=52, cno_03=41, svid_04=18, elv_04=49.0, az_04=144, cno_04=47, signalID=1)>
2026-06-07 16:47:59,276 - INFO - <NMEA(GPGSV, numMsg=3, msgNum=2, numSV=11, svid_01=23, elv_01=63.0, az_01=35, cno_01=44, svid_02=24, elv_02=38.0, az_02=75, cno_02=45, svid_03=27, elv_03=29.0, az_03=275, cno_03=31, svid_04=32, elv_04=38.0, az_04=230, cno_04=40, signalID=1)>
2026-06-07 16:47:59,277 - INFO - <NMEA(GPGSV, numMsg=3, msgNum=3, numSV=11, svid_01=44, elv_01=42.0, az_01=210, cno_01=38, svid_02=46, elv_02=35.0, az_02=225, cno_02=39, svid_03=48, elv_03=38.0, az_03=220, cno_03=32, signalID=1)>
2026-06-07 16:47:59,277 - INFO - <NMEA(GPGSV, numMsg=2, msgNum=1, numSV=8, svid_01=8, elv_01=15.0, az_01=308, cno_01=28, svid_02=10, elv_02=55.0, az_02=315, cno_02=36, svid_03=15, elv_03=16.0, az_03=52, cno_03=40, svid_04=18, elv_04=49.0, az_04=144, cno_04=41, signalID=6)>
2026-06-07 16:47:59,278 - INFO - <NMEA(GPGSV, numMsg=2, msgNum=2, numSV=8, svid_01=23, elv_01=63.0, az_01=35, cno_01=40, svid_02=24, elv_02=38.0, az_02=75, cno_02=43, svid_03=27, elv_03=29.0, az_03=275, cno_03=37, svid_04=32, elv_04=38.0, az_04=230, cno_04=38, signalID=6)>
2026-06-07 16:47:59,279 - INFO - <NMEA(GLGSV, numMsg=3, msgNum=1, numSV=11, svid_01=70, elv_01=17.0, az_01=43, cno_01=44, svid_02=71, elv_02=65.0, az_02=345, cno_02=48, svid_03=72, elv_03=37.0, az_03=256, cno_03=38, svid_04=73, elv_04=3.0, az_04=112, cno_04=44, signalID=1)>
2026-06-07 16:47:59,279 - INFO - <NMEA(GLGSV, numMsg=3, msgNum=2, numSV=11, svid_01=79, elv_01=1.0, az_01=14, cno_01=35, svid_02=80, elv_02=9.0, az_02=62, cno_02=39, svid_03=85, elv_03=23.0, az_03=162, cno_03=43, svid_04=86, elv_04=78.0, az_04=250, cno_04=42, signalID=1)>
2026-06-07 16:47:59,280 - INFO - <NMEA(GLGSV, numMsg=3, msgNum=3, numSV=11, svid_01=87, elv_01=44.0, az_01=324, cno_01=46, svid_02=, elv_02=, az_02=, cno_02=37, svid_03=, elv_03=, az_03=, cno_03=39, signalID=1)>
2026-06-07 16:47:59,281 - INFO - <NMEA(GLGSV, numMsg=2, msgNum=1, numSV=8, svid_01=70, elv_01=17.0, az_01=43, cno_01=41, svid_02=71, elv_02=65.0, az_02=345, cno_02=41, svid_03=72, elv_03=37.0, az_03=256, cno_03=39, svid_04=73, elv_04=3.0, az_04=112, cno_04=37, signalID=3)>
2026-06-07 16:47:59,281 - INFO - <NMEA(GLGSV, numMsg=2, msgNum=2, numSV=8, svid_01=79, elv_01=1.0, az_01=14, cno_01=28, svid_02=80, elv_02=9.0, az_02=62, cno_02=42, svid_03=85, elv_03=23.0, az_03=162, cno_03=36, svid_04=86, elv_04=78.0, az_04=250, cno_04=31, signalID=3)>
2026-06-07 16:47:59,282 - INFO - <NMEA(GAGSV, numMsg=2, msgNum=1, numSV=8, svid_01=3, elv_01=61.0, az_01=52, cno_01=50, svid_02=5, elv_02=11.0, az_02=43, cno_02=42, svid_03=7, elv_03=10.0, az_03=219, cno_03=27, svid_04=8, elv_04=60.0, az_04=209, cno_04=40, signalID=2)>
2026-06-07 16:47:59,283 - INFO - <NMEA(GAGSV, numMsg=2, msgNum=2, numSV=8, svid_01=13, elv_01=46.0, az_01=318, cno_01=43, svid_02=15, elv_02=76.0, az_02=114, cno_02=49, svid_03=32, elv_03=82.0, az_03=146, cno_03=39, svid_04=34, elv_04=23.0, az_04=130, cno_04=41, signalID=2)>
2026-06-07 16:47:59,283 - INFO - <NMEA(GAGSV, numMsg=2, msgNum=1, numSV=8, svid_01=3, elv_01=61.0, az_01=52, cno_01=46, svid_02=5, elv_02=11.0, az_02=43, cno_02=45, svid_03=7, elv_03=10.0, az_03=219, cno_03=33, svid_04=8, elv_04=60.0, az_04=209, cno_04=37, signalID=7)>
2026-06-07 16:47:59,285 - INFO - <NMEA(GAGSV, numMsg=2, msgNum=2, numSV=8, svid_01=13, elv_01=46.0, az_01=318, cno_01=44, svid_02=15, elv_02=76.0, az_02=114, cno_02=47, svid_03=32, elv_03=82.0, az_03=146, cno_03=42, svid_04=34, elv_04=23.0, az_04=130, cno_04=37, signalID=7)>
2026-06-07 16:47:59,287 - INFO - <NMEA(GBGSV, numMsg=3, msgNum=1, numSV=10, svid_01=11, elv_01=3.0, az_01=325, cno_01=21, svid_02=13, elv_02=12.0, az_02=163, cno_02=39, svid_03=24, elv_03=9.0, az_03=64, cno_03=32, svid_04=25, elv_04=12.0, az_04=119, cno_04=43, signalID=1)>
2026-06-07 16:47:59,288 - INFO - <NMEA(GBGSV, numMsg=3, msgNum=2, numSV=10, svid_01=27, elv_01=61.0, az_01=241, cno_01=34, svid_02=28, elv_02=37.0, az_02=179, cno_02=37, svid_03=30, elv_03=27.0, az_03=311, cno_03=37, svid_04=32, elv_04=34.0, az_04=262, cno_04=40, signalID=1)>
2026-06-07 16:47:59,288 - INFO - <NMEA(GBGSV, numMsg=3, msgNum=3, numSV=10, svid_01=33, elv_01=30.0, az_01=54, cno_01=45, svid_02=41, elv_02=71.0, az_02=355, cno_02=46, signalID=1)>
2026-06-07 16:47:59,288 - INFO - <NMEA(GQGSV, numMsg=1, msgNum=1, numSV=0, signalID=0)>
2026-06-07 16:47:59,289 - INFO - <NMEA(GNGLL, lat=37.9008396667, NS=N, lon=-97.6641688333, EW=W, time=21:47:59.200000, status=A, posMode=D)>
2026-06-07 16:47:59,289 - INFO - <UBX(NAV-RELPOSNED, version=1, reserved0=0, refStationID=0, iTOW=21:47:59.200000, relPosN=59.21, relPosE=4.39, relPosD=-2.62, relPosLength=59.43, relPosHeading=4.23771, reserved1=0, accN=10.0, accE=10.0, accD=10.9, accLength=10.0, accHeading=0.96502, reserved2=0, gnssFixOK=1, diffSoln=1, relPosValid=1, carrSoln=2, isMoving=1, refPosMiss=0, refObsMiss=0, relPosHeadingValid=1, relPosNormalized=0)>
2026-06-07 16:47:59,290 - INFO - 2026-06-07 16:47:59 Initial Moving Baseline state: active
2026-06-07 16:47:59,290 - INFO - 2026-06-07 16:47:59 Initial carrier solution: fixed
2026-06-07 16:47:59,290 - INFO - 2026-06-07 16:47:59, current_target: {'timestamp': '2026-05-10 13:40:05', 'lat': 37.9008713333, 'lon': -97.66418, 'speed': 0.004629996, 'y_offset': 0.0, 'x_offset': 0.0, 'z_offset': 0.0, 'heading': 1.76477}, next_target: {'timestamp': '2026-05-10 13:40:06', 'lat': 37.9008713333, 'lon': -97.66418, 'speed': 0.00514444, 'y_offset': 0.0, 'x_offset': 0.0, 'z_offset': 0.0, 'heading': 1.76299}
2026-06-07 16:47:59,414 - INFO - <UBX(RXM-RTCM, version=2, crcFailed=0, msgUsed=2, subType=0, refStation=0, msgType=1074)>
2026-06-07 16:47:59,414 - INFO - 2026-06-07 16:47:59, current_target: {'timestamp': '2026-05-10 13:40:05', 'lat': 37.9008713333, 'lon': -97.66418, 'speed': 0.004629996, 'y_offset': 0.0, 'x_offset': 0.0, 'z_offset': 0.0, 'heading': 1.76477}, next_target: {'timestamp': '2026-05-10 13:40:06', 'lat': 37.9008713333, 'lon': -97.66418, 'speed': 0.00514444, 'y_offset': 0.0, 'x_offset': 0.0, 'z_offset': 0.0, 'heading': 1.76299}
2026-06-07 16:47:59,415 - INFO - 2026-06-07 16:47:59 [3.4 OBSERVED] current_turn_radius: infm
2026-06-07 16:47:59,415 - INFO - 2026-06-07 16:47:59 [3.4 OBSERVED] turn_direction: STRAIGHT
2026-06-07 16:47:59,415 - INFO - 2026-06-07 16:47:59 [3.4 OBSERVED] estimated left/right wheel speeds: 0.006, 0.006 rad/s
2026-06-07 16:47:59,419 - INFO - 2026-06-07 16:47:59 [STATE] Current state: NAVIGATING_TO_START
2026-06-07 16:47:59,419 - INFO - 2026-06-07 16:47:59 [NAV_TO_START] Phase: DRIVE_TO_START, Dist: 3.649m, Bearing err: -19.8°, Heading diff: 2.5°, Elapsed: 0.3s
2026-06-07 16:47:59,419 - INFO - 2026-06-07 16:47:59 [NAV_TO_START] DRIVE: bearing=344.4°, dist=3.65m, turn=LEFT, radius=5.37m, speed=1.00
2026-06-07 16:47:59,419 - INFO - 2026-06-07 16:47:59 Turn: LEFT, Radius: 5.37m, DLWS: 1.47 rad/s, DRWS: 1.61 rad/s
2026-06-07 16:47:59,419 - INFO - 2026-06-07 16:47:59 left_actuator_position: 810 (counts) from DLWS 1.466 rad/s
2026-06-07 16:47:59,419 - INFO - 2026-06-07 16:47:59 right_actuator_position: 781 (counts) from DRWS 1.611 rad/s
2026-06-07 16:47:59,419 - INFO - 2026-06-07 16:47:59 LAM: 73.86 mm/(rad/s), RAM: 73.86 mm/(rad/s)
2026-06-07 16:47:59,419 - INFO - 2026-06-07 16:47:59 DLAP: 108.27 mm, DRAP: 119.01 mm
2026-06-07 16:47:59,432 - INFO - Sent actuator positions to RoboClaw → M1 (left): 810, M2 (right): 781 (counts)
2026-06-07 16:47:59,432 - INFO - 2026-06-07 16:47:59 APPLY → left_pos: 810, right_pos: 781 (counts), DLAP: 108.27 mm, DRAP: 119.01 mm
2026-06-07 16:47:59,432 - INFO - <UBX(RXM-RTCM, version=2, crcFailed=0, msgUsed=2, subType=0, refStation=0, msgType=1084)>
2026-06-07 16:47:59,433 - INFO - <UBX(RXM-RTCM, version=2, crcFailed=0, msgUsed=2, subType=0, refStation=0, msgType=1094)>
2026-06-07 16:47:59,433 - INFO - <UBX(RXM-RTCM, version=2, crcFailed=0, msgUsed=2, subType=0, refStation=0, msgType=1124)>
2026-06-07 16:47:59,433 - INFO - <UBX(RXM-RTCM, version=2, crcFailed=0, msgUsed=2, subType=0, refStation=0, msgType=1230)>
2026-06-07 16:47:59,468 - INFO - <UBX(NAV-PVT, iTOW=21:47:59.400000, year=2026, month=6, day=7, hour=21, min=47, second=59, validDate=1, validTime=1, fullyResolved=1, validMag=0, tAcc=22, nano=400365675, fixType=3, gnssFixOk=1, diffSoln=1, psmState=0, headVehValid=0, carrSoln=2, confirmedAvai=1, confirmedDate=1, confirmedTime=1, numSV=29, lon=-97.6641689, lat=37.9008396, height=409706, hMSL=435959, hAcc=15, vAcc=19, velN=1, velE=-11, velD=-3, gSpeed=11, headMot=20.45549, sAcc=56, headAcc=180.0, pDOP=0.88, invalidLlh=0, lastCorrectionAge=1, reserved0=860630572, headVeh=0.0, magDec=0.0, magAcc=0.0)>
2026-06-07 16:47:59,468 - INFO - <NMEA(GNRMC, time=21:47:59.400000, status=A, lat=37.9008396667, NS=N, lon=-97.6641688333, EW=W, spd=0.021, cog=, date=2026-06-07, mv=, mvEW=, posMode=R, navStatus=V)>
2026-06-07 16:47:59,469 - INFO - <NMEA(GNVTG, cogt=, cogtUnit=T, cogm=, cogmUnit=M, sogn=0.021, sognUnit=N, sogk=0.039, sogkUnit=K, posMode=D)>
2026-06-07 16:47:59,469 - INFO - <NMEA(GNGGA, time=21:47:59.400000, lat=37.9008396667, NS=N, lon=-97.6641688333, EW=W, quality=4, numSV=12, HDOP=0.49, alt=436.0, altUnit=M, sep=-26.3, sepUnit=M, diffAge=0.2, diffStation=0)>
2026-06-07 16:47:59,470 - INFO - <NMEA(GNGSA, opMode=M, navMode=3, svid_01=10, svid_02=15, svid_03=18, svid_04=23, svid_05=24, svid_06=8, svid_07=27, svid_08=32, svid_09=, svid_10=, svid_11=, svid_12=, PDOP=0.88, HDOP=0.49, VDOP=0.73, systemId=1)>
2026-06-07 16:47:59,470 - INFO - <NMEA(GNGSA, opMode=M, navMode=3, svid_01=70, svid_02=86, svid_03=87, svid_04=85, svid_05=71, svid_06=72, svid_07=, svid_08=, svid_09=, svid_10=, svid_11=, svid_12=, PDOP=0.88, HDOP=0.49, VDOP=0.73, systemId=2)>
2026-06-07 16:47:59,471 - INFO - <NMEA(GNGSA, opMode=M, navMode=3, svid_01=7, svid_02=3, svid_03=5, svid_04=8, svid_05=13, svid_06=15, svid_07=34, svid_08=, svid_09=, svid_10=, svid_11=, svid_12=, PDOP=0.88, HDOP=0.49, VDOP=0.73, systemId=3)>
2026-06-07 16:47:59,471 - INFO - <NMEA(GNGSA, opMode=M, navMode=3, svid_01=13, svid_02=27, svid_03=28, svid_04=30, svid_05=32, svid_06=33, svid_07=41, svid_08=25, svid_09=, svid_10=, svid_11=, svid_12=, PDOP=0.88, HDOP=0.49, VDOP=0.73, systemId=4)>
2026-06-07 16:47:59,472 - INFO - <NMEA(GNGSA, opMode=M, navMode=3, svid_01=, svid_02=, svid_03=, svid_04=, svid_05=, svid_06=, svid_07=, svid_08=, svid_09=, svid_10=, svid_11=, svid_12=, PDOP=0.88, HDOP=0.49, VDOP=0.73, systemId=5)>
2026-06-07 16:47:59,472 - INFO - <NMEA(GPGSV, numMsg=3, msgNum=1, numSV=11, svid_01=8, elv_01=15.0, az_01=308, cno_01=16, svid_02=10, elv_02=55.0, az_02=315, cno_02=50, svid_03=15, elv_03=16.0, az_03=52, cno_03=41, svid_04=18, elv_04=49.0, az_04=144, cno_04=47, signalID=1)>
2026-06-07 16:47:59,473 - INFO - <NMEA(GPGSV, numMsg=3, msgNum=2, numSV=11, svid_01=23, elv_01=63.0, az_01=35, cno_01=44, svid_02=24, elv_02=38.0, az_02=75, cno_02=45, svid_03=27, elv_03=29.0, az_03=275, cno_03=31, svid_04=32, elv_04=38.0, az_04=230, cno_04=40, signalID=1)>
2026-06-07 16:47:59,474 - INFO - <NMEA(GPGSV, numMsg=3, msgNum=3, numSV=11, svid_01=44, elv_01=42.0, az_01=210, cno_01=38, svid_02=46, elv_02=35.0, az_02=225, cno_02=39, svid_03=48, elv_03=38.0, az_03=220, cno_03=32, signalID=1)>
2026-06-07 16:47:59,474 - INFO - <NMEA(GPGSV, numMsg=2, msgNum=1, numSV=8, svid_01=8, elv_01=15.0, az_01=308, cno_01=28, svid_02=10, elv_02=55.0, az_02=315, cno_02=36, svid_03=15, elv_03=16.0, az_03=52, cno_03=40, svid_04=18, elv_04=49.0, az_04=144, cno_04=41, signalID=6)>
2026-06-07 16:47:59,475 - INFO - <NMEA(GPGSV, numMsg=2, msgNum=2, numSV=8, svid_01=23, elv_01=63.0, az_01=35, cno_01=40, svid_02=24, elv_02=38.0, az_02=75, cno_02=43, svid_03=27, elv_03=29.0, az_03=275, cno_03=37, svid_04=32, elv_04=38.0, az_04=230, cno_04=38, signalID=6)>
2026-06-07 16:47:59,475 - INFO - <NMEA(GLGSV, numMsg=3, msgNum=1, numSV=11, svid_01=70, elv_01=17.0, az_01=43, cno_01=44, svid_02=71, elv_02=65.0, az_02=345, cno_02=48, svid_03=72, elv_03=37.0, az_03=256, cno_03=38, svid_04=73, elv_04=3.0, az_04=112, cno_04=44, signalID=1)>
2026-06-07 16:47:59,476 - INFO - <NMEA(GLGSV, numMsg=3, msgNum=2, numSV=11, svid_01=79, elv_01=1.0, az_01=14, cno_01=35, svid_02=80, elv_02=9.0, az_02=62, cno_02=39, svid_03=85, elv_03=23.0, az_03=162, cno_03=43, svid_04=86, elv_04=78.0, az_04=250, cno_04=42, signalID=1)>
2026-06-07 16:47:59,476 - INFO - <NMEA(GLGSV, numMsg=3, msgNum=3, numSV=11, svid_01=87, elv_01=44.0, az_01=324, cno_01=46, svid_02=, elv_02=, az_02=, cno_02=37, svid_03=, elv_03=, az_03=, cno_03=39, signalID=1)>
2026-06-07 16:47:59,477 - INFO - <NMEA(GLGSV, numMsg=2, msgNum=1, numSV=8, svid_01=70, elv_01=17.0, az_01=43, cno_01=41, svid_02=71, elv_02=65.0, az_02=345, cno_02=41, svid_03=72, elv_03=37.0, az_03=256, cno_03=38, svid_04=73, elv_04=3.0, az_04=112, cno_04=37, signalID=3)>
2026-06-07 16:47:59,478 - INFO - <NMEA(GLGSV, numMsg=2, msgNum=2, numSV=8, svid_01=79, elv_01=1.0, az_01=14, cno_01=27, svid_02=80, elv_02=9.0, az_02=62, cno_02=42, svid_03=85, elv_03=23.0, az_03=162, cno_03=36, svid_04=86, elv_04=78.0, az_04=250, cno_04=31, signalID=3)>
2026-06-07 16:47:59,478 - INFO - <NMEA(GAGSV, numMsg=2, msgNum=1, numSV=8, svid_01=3, elv_01=61.0, az_01=52, cno_01=50, svid_02=5, elv_02=11.0, az_02=43, cno_02=42, svid_03=7, elv_03=10.0, az_03=219, cno_03=27, svid_04=8, elv_04=60.0, az_04=209, cno_04=40, signalID=2)>
2026-06-07 16:47:59,479 - INFO - <NMEA(GAGSV, numMsg=2, msgNum=2, numSV=8, svid_01=13, elv_01=46.0, az_01=318, cno_01=43, svid_02=15, elv_02=76.0, az_02=114, cno_02=49, svid_03=32, elv_03=82.0, az_03=146, cno_03=39, svid_04=34, elv_04=23.0, az_04=130, cno_04=40, signalID=2)>
2026-06-07 16:47:59,479 - INFO - <NMEA(GAGSV, numMsg=2, msgNum=1, numSV=8, svid_01=3, elv_01=61.0, az_01=52, cno_01=46, svid_02=5, elv_02=11.0, az_02=43, cno_02=45, svid_03=7, elv_03=10.0, az_03=219, cno_03=33, svid_04=8, elv_04=60.0, az_04=209, cno_04=37, signalID=7)>
2026-06-07 16:47:59,480 - INFO - <NMEA(GAGSV, numMsg=2, msgNum=2, numSV=8, svid_01=13, elv_01=46.0, az_01=318, cno_01=44, svid_02=15, elv_02=76.0, az_02=114, cno_02=47, svid_03=32, elv_03=82.0, az_03=146, cno_03=42, svid_04=34, elv_04=23.0, az_04=130, cno_04=37, signalID=7)>
2026-06-07 16:47:59,481 - INFO - <NMEA(GBGSV, numMsg=3, msgNum=1, numSV=10, svid_01=11, elv_01=3.0, az_01=325, cno_01=21, svid_02=13, elv_02=12.0, az_02=163, cno_02=39, svid_03=24, elv_03=9.0, az_03=64, cno_03=31, svid_04=25, elv_04=12.0, az_04=119, cno_04=43, signalID=1)>
2026-06-07 16:47:59,481 - INFO - <NMEA(GBGSV, numMsg=3, msgNum=2, numSV=10, svid_01=27, elv_01=61.0, az_01=241, cno_01=35, svid_02=28, elv_02=37.0, az_02=179, cno_02=37, svid_03=30, elv_03=27.0, az_03=311, cno_03=37, svid_04=32, elv_04=34.0, az_04=262, cno_04=40, signalID=1)>
2026-06-07 16:47:59,482 - INFO - <NMEA(GBGSV, numMsg=3, msgNum=3, numSV=10, svid_01=33, elv_01=30.0, az_01=54, cno_01=45, svid_02=41, elv_02=71.0, az_02=355, cno_02=46, signalID=1)>
2026-06-07 16:47:59,482 - INFO - <NMEA(GQGSV, numMsg=1, msgNum=1, numSV=0, signalID=0)>
2026-06-07 16:47:59,482 - INFO - <NMEA(GNGLL, lat=37.9008396667, NS=N, lon=-97.6641688333, EW=W, time=21:47:59.400000, status=A, posMode=D)>
2026-06-07 16:47:59,483 - INFO - <UBX(NAV-RELPOSNED, version=1, reserved0=0, refStationID=0, iTOW=21:47:59.400000, relPosN=59.41, relPosE=4.24, relPosD=-2.74, relPosLength=59.62, relPosHeading=4.07825, reserved1=0, accN=10.0, accE=10.0, accD=10.5, accLength=10.0, accHeading=0.962, reserved2=0, gnssFixOK=1, diffSoln=1, relPosValid=1, carrSoln=2, isMoving=1, refPosMiss=0, refObsMiss=0, relPosHeadingValid=1, relPosNormalized=0)>
2026-06-07 16:47:59,484 - INFO - 2026-06-07 16:47:59, current_target: {'timestamp': '2026-05-10 13:40:05', 'lat': 37.9008713333, 'lon': -97.66418, 'speed': 0.004629996, 'y_offset': 0.0, 'x_offset': 0.0, 'z_offset': 0.0, 'heading': 1.76477}, next_target: {'timestamp': '2026-05-10 13:40:06', 'lat': 37.9008713333, 'lon': -97.66418, 'speed': 0.00514444, 'y_offset': 0.0, 'x_offset': 0.0, 'z_offset': 0.0, 'heading': 1.76299}
2026-06-07 16:47:59,484 - INFO - 2026-06-07 16:47:59 [3.4 OBSERVED] current_turn_radius: infm
2026-06-07 16:47:59,485 - INFO - 2026-06-07 16:47:59 [3.4 OBSERVED] turn_direction: LEFT
2026-06-07 16:47:59,485 - INFO - 2026-06-07 16:47:59 [3.4 OBSERVED] estimated left/right wheel speeds: nan, nan rad/s
2026-06-07 16:47:59,488 - INFO - 2026-06-07 16:47:59 [STATE] Current state: NAVIGATING_TO_START
2026-06-07 16:47:59,488 - INFO - 2026-06-07 16:47:59 [NAV_TO_START] Phase: DRIVE_TO_START, Dist: 3.649m, Bearing err: -19.7°, Heading diff: 2.3°, Elapsed: 0.4s
2026-06-07 16:47:59,488 - INFO - 2026-06-07 16:47:59 [NAV_TO_START] DRIVE: bearing=344.4°, dist=3.65m, turn=LEFT, radius=5.42m, speed=1.00
2026-06-07 16:47:59,488 - INFO - 2026-06-07 16:47:59 Turn: LEFT, Radius: 5.42m, DLWS: 1.47 rad/s, DRWS: 1.61 rad/s
2026-06-07 16:47:59,488 - INFO - 2026-06-07 16:47:59 left_actuator_position: 810 (counts) from DLWS 1.466 rad/s
2026-06-07 16:47:59,488 - INFO - 2026-06-07 16:47:59 right_actuator_position: 781 (counts) from DRWS 1.611 rad/s
2026-06-07 16:47:59,489 - INFO - 2026-06-07 16:47:59 LAM: 73.86 mm/(rad/s), RAM: 73.86 mm/(rad/s)
2026-06-07 16:47:59,489 - INFO - 2026-06-07 16:47:59 DLAP: 108.31 mm, DRAP: 118.97 mm
2026-06-07 16:47:59,503 - INFO - Sent actuator positions to RoboClaw → M1 (left): 810, M2 (right): 781 (counts)
2026-06-07 16:47:59,503 - INFO - 2026-06-07 16:47:59 APPLY → left_pos: 810, right_pos: 781 (counts), DLAP: 108.31 mm, DRAP: 118.97 mm
2026-06-07 16:47:59,506 - INFO - <UBX(RXM-RTCM, version=2, crcFailed=0, msgUsed=2, subType=0, refStation=0, msgType=4072)>
2026-06-07 16:47:59,609 - INFO - <UBX(RXM-RTCM, version=2, crcFailed=0, msgUsed=2, subType=0, refStation=0, msgType=1074)>
2026-06-07 16:47:59,611 - INFO - <UBX(RXM-RTCM, version=2, crcFailed=0, msgUsed=2, subType=0, refStation=0, msgType=1084)>
2026-06-07 16:47:59,614 - INFO - <UBX(RXM-RTCM, version=2, crcFailed=0, msgUsed=2, subType=0, refStation=0, msgType=1094)>
2026-06-07 16:47:59,616 - INFO - <UBX(RXM-RTCM, version=2, crcFailed=0, msgUsed=2, subType=0, refStation=0, msgType=1124)>
2026-06-07 16:47:59,617 - INFO - <UBX(RXM-RTCM, version=2, crcFailed=0, msgUsed=2, subType=0, refStation=0, msgType=1230)>
2026-06-07 16:47:59,662 - INFO - <UBX(RXM-RTCM, version=2, crcFailed=0, msgUsed=2, subType=0, refStation=0, msgType=4072)>
2026-06-07 16:47:59,671 - INFO - <UBX(NAV-PVT, iTOW=21:47:59.600000, year=2026, month=6, day=7, hour=21, min=47, second=59, validDate=1, validTime=1, fullyResolved=1, validMag=0, tAcc=22, nano=600365636, fixType=3, gnssFixOk=1, diffSoln=1, psmState=0, headVehValid=0, carrSoln=2, confirmedAvai=1, confirmedDate=1, confirmedTime=1, numSV=29, lon=-97.6641689, lat=37.9008396, height=409704, hMSL=435956, hAcc=15, vAcc=19, velN=0, velE=3, velD=-1, gSpeed=3, headMot=20.45549, sAcc=63, headAcc=180.0, pDOP=0.88, invalidLlh=0, lastCorrectionAge=1, reserved0=860630572, headVeh=0.0, magDec=0.0, magAcc=0.0)>
2026-06-07 16:47:59,671 - INFO - <NMEA(GNRMC, time=21:47:59.600000, status=A, lat=37.9008396667, NS=N, lon=-97.6641688333, EW=W, spd=0.005, cog=, date=2026-06-07, mv=, mvEW=, posMode=R, navStatus=V)>
2026-06-07 16:47:59,672 - INFO - <NMEA(GNVTG, cogt=, cogtUnit=T, cogm=, cogmUnit=M, sogn=0.005, sognUnit=N, sogk=0.009, sogkUnit=K, posMode=D)>
2026-06-07 16:47:59,673 - INFO - <NMEA(GNGGA, time=21:47:59.600000, lat=37.9008396667, NS=N, lon=-97.6641688333, EW=W, quality=4, numSV=12, HDOP=0.49, alt=436.0, altUnit=M, sep=-26.3, sepUnit=M, diffAge=0.2, diffStation=0)>
2026-06-07 16:47:59,673 - INFO - <NMEA(GNGSA, opMode=M, navMode=3, svid_01=10, svid_02=15, svid_03=18, svid_04=23, svid_05=24, svid_06=8, svid_07=27, svid_08=32, svid_09=, svid_10=, svid_11=, svid_12=, PDOP=0.88, HDOP=0.49, VDOP=0.73, systemId=1)>
2026-06-07 16:47:59,674 - INFO - <NMEA(GNGSA, opMode=M, navMode=3, svid_01=70, svid_02=86, svid_03=87, svid_04=85, svid_05=71, svid_06=72, svid_07=, svid_08=, svid_09=, svid_10=, svid_11=, svid_12=, PDOP=0.88, HDOP=0.49, VDOP=0.73, systemId=2)>
2026-06-07 16:47:59,675 - INFO - <NMEA(GNGSA, opMode=M, navMode=3, svid_01=7, svid_02=3, svid_03=5, svid_04=8, svid_05=13, svid_06=15, svid_07=34, svid_08=, svid_09=, svid_10=, svid_11=, svid_12=, PDOP=0.88, HDOP=0.49, VDOP=0.73, systemId=3)>
2026-06-07 16:47:59,675 - INFO - <NMEA(GNGSA, opMode=M, navMode=3, svid_01=13, svid_02=27, svid_03=28, svid_04=30, svid_05=32, svid_06=33, svid_07=41, svid_08=25, svid_09=, svid_10=, svid_11=, svid_12=, PDOP=0.88, HDOP=0.49, VDOP=0.73, systemId=4)>
2026-06-07 16:47:59,676 - INFO - <NMEA(GNGSA, opMode=M, navMode=3, svid_01=, svid_02=, svid_03=, svid_04=, svid_05=, svid_06=, svid_07=, svid_08=, svid_09=, svid_10=, svid_11=, svid_12=, PDOP=0.88, HDOP=0.49, VDOP=0.73, systemId=5)>
2026-06-07 16:47:59,677 - INFO - <NMEA(GPGSV, numMsg=3, msgNum=1, numSV=11, svid_01=8, elv_01=15.0, az_01=308, cno_01=16, svid_02=10, elv_02=55.0, az_02=315, cno_02=50, svid_03=15, elv_03=16.0, az_03=52, cno_03=41, svid_04=18, elv_04=49.0, az_04=144, cno_04=47, signalID=1)>
2026-06-07 16:47:59,678 - INFO - <NMEA(GPGSV, numMsg=3, msgNum=2, numSV=11, svid_01=23, elv_01=63.0, az_01=35, cno_01=43, svid_02=24, elv_02=38.0, az_02=75, cno_02=45, svid_03=27, elv_03=29.0, az_03=275, cno_03=31, svid_04=32, elv_04=38.0, az_04=230, cno_04=40, signalID=1)>
2026-06-07 16:47:59,678 - INFO - <NMEA(GPGSV, numMsg=3, msgNum=3, numSV=11, svid_01=44, elv_01=42.0, az_01=210, cno_01=39, svid_02=46, elv_02=35.0, az_02=225, cno_02=39, svid_03=48, elv_03=38.0, az_03=220, cno_03=32, signalID=1)>
2026-06-07 16:47:59,679 - INFO - <NMEA(GPGSV, numMsg=2, msgNum=1, numSV=8, svid_01=8, elv_01=15.0, az_01=308, cno_01=28, svid_02=10, elv_02=55.0, az_02=315, cno_02=36, svid_03=15, elv_03=16.0, az_03=52, cno_03=40, svid_04=18, elv_04=49.0, az_04=144, cno_04=41, signalID=6)>
2026-06-07 16:47:59,680 - INFO - <NMEA(GPGSV, numMsg=2, msgNum=2, numSV=8, svid_01=23, elv_01=63.0, az_01=35, cno_01=40, svid_02=24, elv_02=38.0, az_02=75, cno_02=43, svid_03=27, elv_03=29.0, az_03=275, cno_03=38, svid_04=32, elv_04=38.0, az_04=230, cno_04=38, signalID=6)>
2026-06-07 16:47:59,680 - INFO - <NMEA(GLGSV, numMsg=3, msgNum=1, numSV=11, svid_01=70, elv_01=17.0, az_01=43, cno_01=44, svid_02=71, elv_02=65.0, az_02=345, cno_02=48, svid_03=72, elv_03=37.0, az_03=256, cno_03=38, svid_04=73, elv_04=3.0, az_04=112, cno_04=44, signalID=1)>
2026-06-07 16:47:59,681 - INFO - <NMEA(GLGSV, numMsg=3, msgNum=2, numSV=11, svid_01=79, elv_01=1.0, az_01=14, cno_01=34, svid_02=80, elv_02=9.0, az_02=62, cno_02=39, svid_03=85, elv_03=23.0, az_03=162, cno_03=43, svid_04=86, elv_04=78.0, az_04=250, cno_04=42, signalID=1)>
2026-06-07 16:47:59,681 - INFO - <NMEA(GLGSV, numMsg=3, msgNum=3, numSV=11, svid_01=87, elv_01=44.0, az_01=324, cno_01=46, svid_02=, elv_02=, az_02=, cno_02=36, svid_03=, elv_03=, az_03=, cno_03=40, signalID=1)>
2026-06-07 16:47:59,682 - INFO - <NMEA(GLGSV, numMsg=2, msgNum=1, numSV=8, svid_01=70, elv_01=17.0, az_01=43, cno_01=41, svid_02=71, elv_02=65.0, az_02=345, cno_02=40, svid_03=72, elv_03=37.0, az_03=256, cno_03=38, svid_04=73, elv_04=3.0, az_04=112, cno_04=37, signalID=3)>
2026-06-07 16:47:59,682 - INFO - <NMEA(GLGSV, numMsg=2, msgNum=2, numSV=8, svid_01=79, elv_01=1.0, az_01=14, cno_01=27, svid_02=80, elv_02=9.0, az_02=62, cno_02=42, svid_03=85, elv_03=23.0, az_03=162, cno_03=36, svid_04=86, elv_04=78.0, az_04=250, cno_04=31, signalID=3)>
2026-06-07 16:47:59,683 - INFO - <NMEA(GAGSV, numMsg=2, msgNum=1, numSV=8, svid_01=3, elv_01=61.0, az_01=52, cno_01=50, svid_02=5, elv_02=11.0, az_02=43, cno_02=42, svid_03=7, elv_03=10.0, az_03=219, cno_03=27, svid_04=8, elv_04=60.0, az_04=209, cno_04=40, signalID=2)>
2026-06-07 16:47:59,684 - INFO - <NMEA(GAGSV, numMsg=2, msgNum=2, numSV=8, svid_01=13, elv_01=46.0, az_01=318, cno_01=43, svid_02=15, elv_02=76.0, az_02=114, cno_02=49, svid_03=32, elv_03=82.0, az_03=146, cno_03=39, svid_04=34, elv_04=23.0, az_04=130, cno_04=40, signalID=2)>
2026-06-07 16:47:59,684 - INFO - <NMEA(GAGSV, numMsg=2, msgNum=1, numSV=8, svid_01=3, elv_01=61.0, az_01=52, cno_01=46, svid_02=5, elv_02=11.0, az_02=43, cno_02=45, svid_03=7, elv_03=10.0, az_03=219, cno_03=34, svid_04=8, elv_04=60.0, az_04=209, cno_04=37, signalID=7)>
2026-06-07 16:47:59,685 - INFO - <NMEA(GAGSV, numMsg=2, msgNum=2, numSV=8, svid_01=13, elv_01=46.0, az_01=318, cno_01=44, svid_02=15, elv_02=76.0, az_02=114, cno_02=47, svid_03=32, elv_03=82.0, az_03=146, cno_03=42, svid_04=34, elv_04=23.0, az_04=130, cno_04=37, signalID=7)>
2026-06-07 16:47:59,685 - INFO - <NMEA(GBGSV, numMsg=3, msgNum=1, numSV=10, svid_01=11, elv_01=3.0, az_01=325, cno_01=21, svid_02=13, elv_02=12.0, az_02=163, cno_02=39, svid_03=24, elv_03=9.0, az_03=64, cno_03=31, svid_04=25, elv_04=12.0, az_04=119, cno_04=43, signalID=1)>
2026-06-07 16:47:59,686 - INFO - <NMEA(GBGSV, numMsg=3, msgNum=2, numSV=10, svid_01=27, elv_01=61.0, az_01=241, cno_01=35, svid_02=28, elv_02=37.0, az_02=179, cno_02=36, svid_03=30, elv_03=27.0, az_03=311, cno_03=37, svid_04=32, elv_04=34.0, az_04=262, cno_04=39, signalID=1)>
2026-06-07 16:47:59,686 - INFO - <NMEA(GBGSV, numMsg=3, msgNum=3, numSV=10, svid_01=33, elv_01=30.0, az_01=54, cno_01=45, svid_02=41, elv_02=71.0, az_02=355, cno_02=46, signalID=1)>
2026-06-07 16:47:59,687 - INFO - <NMEA(GQGSV, numMsg=1, msgNum=1, numSV=0, signalID=0)>
2026-06-07 16:47:59,687 - INFO - <NMEA(GNGLL, lat=37.9008396667, NS=N, lon=-97.6641688333, EW=W, time=21:47:59.600000, status=A, posMode=D)>
2026-06-07 16:47:59,688 - INFO - <UBX(NAV-RELPOSNED, version=1, reserved0=0, refStationID=0, iTOW=21:47:59.600000, relPosN=59.19, relPosE=4.26, relPosD=-2.83, relPosLength=59.41, relPosHeading=4.12048, reserved1=0, accN=10.0, accE=10.0, accD=10.6, accLength=10.0, accHeading=0.96557, reserved2=0, gnssFixOK=1, diffSoln=1, relPosValid=1, carrSoln=2, isMoving=1, refPosMiss=0, refObsMiss=0, relPosHeadingValid=1, relPosNormalized=0)>
2026-06-07 16:47:59,689 - INFO - 2026-06-07 16:47:59, current_target: {'timestamp': '2026-05-10 13:40:05', 'lat': 37.9008713333, 'lon': -97.66418, 'speed': 0.004629996, 'y_offset': 0.0, 'x_offset': 0.0, 'z_offset': 0.0, 'heading': 1.76477}, next_target: {'timestamp': '2026-05-10 13:40:06', 'lat': 37.9008713333, 'lon': -97.66418, 'speed': 0.00514444, 'y_offset': 0.0, 'x_offset': 0.0, 'z_offset': 0.0, 'heading': 1.76299}
2026-06-07 16:47:59,689 - INFO - 2026-06-07 16:47:59 [3.4 OBSERVED] current_turn_radius: infm
2026-06-07 16:47:59,690 - INFO - 2026-06-07 16:47:59 [3.4 OBSERVED] turn_direction: RIGHT
2026-06-07 16:47:59,690 - INFO - 2026-06-07 16:47:59 [3.4 OBSERVED] estimated left/right wheel speeds: nan, nan rad/s
2026-06-07 16:47:59,692 - INFO - 2026-06-07 16:47:59 [STATE] Current state: NAVIGATING_TO_START
2026-06-07 16:47:59,692 - INFO - 2026-06-07 16:47:59 [NAV_TO_START] Phase: DRIVE_TO_START, Dist: 3.649m, Bearing err: -19.7°, Heading diff: 2.4°, Elapsed: 0.6s
2026-06-07 16:47:59,692 - INFO - 2026-06-07 16:47:59 [NAV_TO_START] DRIVE: bearing=344.4°, dist=3.65m, turn=LEFT, radius=5.40m, speed=1.00
2026-06-07 16:47:59,692 - INFO - 2026-06-07 16:47:59 Turn: LEFT, Radius: 5.40m, DLWS: 1.47 rad/s, DRWS: 1.61 rad/s
2026-06-07 16:47:59,692 - INFO - 2026-06-07 16:47:59 left_actuator_position: 810 (counts) from DLWS 1.466 rad/s
2026-06-07 16:47:59,692 - INFO - 2026-06-07 16:47:59 right_actuator_position: 781 (counts) from DRWS 1.611 rad/s
2026-06-07 16:47:59,692 - INFO - 2026-06-07 16:47:59 LAM: 73.86 mm/(rad/s), RAM: 73.86 mm/(rad/s)
2026-06-07 16:47:59,692 - INFO - 2026-06-07 16:47:59 DLAP: 108.30 mm, DRAP: 118.98 mm
2026-06-07 16:47:59,706 - INFO - Sent actuator positions to RoboClaw → M1 (left): 810, M2 (right): 781 (counts)
2026-06-07 16:47:59,706 - INFO - 2026-06-07 16:47:59 APPLY → left_pos: 810, right_pos: 781 (counts), DLAP: 108.30 mm, DRAP: 118.98 mm
2026-06-07 16:47:59,809 - INFO - <UBX(RXM-RTCM, version=2, crcFailed=0, msgUsed=2, subType=0, refStation=0, msgType=1074)>
2026-06-07 16:47:59,810 - INFO - <UBX(RXM-RTCM, version=2, crcFailed=0, msgUsed=2, subType=0, refStation=0, msgType=1084)>
2026-06-07 16:47:59,815 - INFO - <UBX(RXM-RTCM, version=2, crcFailed=0, msgUsed=2, subType=0, refStation=0, msgType=1094)>
2026-06-07 16:47:59,817 - INFO - <UBX(RXM-RTCM, version=2, crcFailed=0, msgUsed=2, subType=0, refStation=0, msgType=1124)>
2026-06-07 16:47:59,818 - INFO - <UBX(RXM-RTCM, version=2, crcFailed=0, msgUsed=2, subType=0, refStation=0, msgType=1230)>
2026-06-07 16:47:59,864 - INFO - <UBX(RXM-RTCM, version=2, crcFailed=0, msgUsed=2, subType=0, refStation=0, msgType=4072)>
2026-06-07 16:47:59,868 - INFO - <UBX(NAV-PVT, iTOW=21:47:59.800000, year=2026, month=6, day=7, hour=21, min=47, second=59, validDate=1, validTime=1, fullyResolved=1, validMag=0, tAcc=22, nano=800365597, fixType=3, gnssFixOk=1, diffSoln=1, psmState=0, headVehValid=0, carrSoln=2, confirmedAvai=1, confirmedDate=1, confirmedTime=1, numSV=29, lon=-97.6641689, lat=37.9008396, height=409704, hMSL=435956, hAcc=15, vAcc=18, velN=4, velE=4, velD=-9, gSpeed=5, headMot=20.45549, sAcc=70, headAcc=180.0, pDOP=0.88, invalidLlh=0, lastCorrectionAge=1, reserved0=860630572, headVeh=0.0, magDec=0.0, magAcc=0.0)>
2026-06-07 16:47:59,870 - INFO - <NMEA(GNRMC, time=21:47:59.800000, status=A, lat=37.9008396667, NS=N, lon=-97.6641688333, EW=W, spd=0.01, cog=, date=2026-06-07, mv=, mvEW=, posMode=R, navStatus=V)>
2026-06-07 16:47:59,870 - INFO - <NMEA(GNVTG, cogt=, cogtUnit=T, cogm=, cogmUnit=M, sogn=0.01, sognUnit=N, sogk=0.019, sogkUnit=K, posMode=D)>
2026-06-07 16:47:59,871 - INFO - <NMEA(GNGGA, time=21:47:59.800000, lat=37.9008396667, NS=N, lon=-97.6641688333, EW=W, quality=4, numSV=12, HDOP=0.49, alt=436.0, altUnit=M, sep=-26.3, sepUnit=M, diffAge=0.2, diffStation=0)>
2026-06-07 16:47:59,872 - INFO - <NMEA(GNGSA, opMode=M, navMode=3, svid_01=10, svid_02=15, svid_03=18, svid_04=23, svid_05=24, svid_06=8, svid_07=27, svid_08=32, svid_09=, svid_10=, svid_11=, svid_12=, PDOP=0.88, HDOP=0.49, VDOP=0.73, systemId=1)>
2026-06-07 16:47:59,872 - INFO - <NMEA(GNGSA, opMode=M, navMode=3, svid_01=70, svid_02=86, svid_03=87, svid_04=85, svid_05=71, svid_06=72, svid_07=, svid_08=, svid_09=, svid_10=, svid_11=, svid_12=, PDOP=0.88, HDOP=0.49, VDOP=0.73, systemId=2)>
2026-06-07 16:47:59,873 - INFO - <NMEA(GNGSA, opMode=M, navMode=3, svid_01=7, svid_02=3, svid_03=5, svid_04=8, svid_05=13, svid_06=15, svid_07=34, svid_08=, svid_09=, svid_10=, svid_11=, svid_12=, PDOP=0.88, HDOP=0.49, VDOP=0.73, systemId=3)>
2026-06-07 16:47:59,873 - INFO - <NMEA(GNGSA, opMode=M, navMode=3, svid_01=13, svid_02=27, svid_03=28, svid_04=30, svid_05=32, svid_06=33, svid_07=41, svid_08=25, svid_09=, svid_10=, svid_11=, svid_12=, PDOP=0.88, HDOP=0.49, VDOP=0.73, systemId=4)>
2026-06-07 16:47:59,874 - INFO - <NMEA(GNGSA, opMode=M, navMode=3, svid_01=, svid_02=, svid_03=, svid_04=, svid_05=, svid_06=, svid_07=, svid_08=, svid_09=, svid_10=, svid_11=, svid_12=, PDOP=0.88, HDOP=0.49, VDOP=0.73, systemId=5)>
2026-06-07 16:47:59,874 - INFO - <NMEA(GPGSV, numMsg=3, msgNum=1, numSV=11, svid_01=8, elv_01=15.0, az_01=308, cno_01=16, svid_02=10, elv_02=55.0, az_02=315, cno_02=50, svid_03=15, elv_03=16.0, az_03=52, cno_03=41, svid_04=18, elv_04=49.0, az_04=144, cno_04=47, signalID=1)>
2026-06-07 16:47:59,875 - INFO - <NMEA(GPGSV, numMsg=3, msgNum=2, numSV=11, svid_01=23, elv_01=63.0, az_01=35, cno_01=43, svid_02=24, elv_02=38.0, az_02=75, cno_02=45, svid_03=27, elv_03=29.0, az_03=275, cno_03=31, svid_04=32, elv_04=38.0, az_04=230, cno_04=40, signalID=1)>
2026-06-07 16:47:59,876 - INFO - <NMEA(GPGSV, numMsg=3, msgNum=3, numSV=11, svid_01=44, elv_01=42.0, az_01=210, cno_01=39, svid_02=46, elv_02=35.0, az_02=225, cno_02=39, svid_03=48, elv_03=38.0, az_03=220, cno_03=32, signalID=1)>
2026-06-07 16:47:59,876 - INFO - <NMEA(GPGSV, numMsg=2, msgNum=1, numSV=8, svid_01=8, elv_01=15.0, az_01=308, cno_01=28, svid_02=10, elv_02=55.0, az_02=315, cno_02=36, svid_03=15, elv_03=16.0, az_03=52, cno_03=40, svid_04=18, elv_04=49.0, az_04=144, cno_04=41, signalID=6)>
2026-06-07 16:47:59,877 - INFO - <NMEA(GPGSV, numMsg=2, msgNum=2, numSV=8, svid_01=23, elv_01=63.0, az_01=35, cno_01=40, svid_02=24, elv_02=38.0, az_02=75, cno_02=43, svid_03=27, elv_03=29.0, az_03=275, cno_03=38, svid_04=32, elv_04=38.0, az_04=230, cno_04=38, signalID=6)>
2026-06-07 16:47:59,877 - INFO - <NMEA(GLGSV, numMsg=3, msgNum=1, numSV=11, svid_01=70, elv_01=17.0, az_01=43, cno_01=44, svid_02=71, elv_02=65.0, az_02=345, cno_02=48, svid_03=72, elv_03=37.0, az_03=256, cno_03=38, svid_04=73, elv_04=3.0, az_04=112, cno_04=44, signalID=1)>
2026-06-07 16:47:59,878 - INFO - <NMEA(GLGSV, numMsg=3, msgNum=2, numSV=11, svid_01=79, elv_01=1.0, az_01=14, cno_01=34, svid_02=80, elv_02=9.0, az_02=62, cno_02=39, svid_03=85, elv_03=23.0, az_03=162, cno_03=43, svid_04=86, elv_04=78.0, az_04=250, cno_04=41, signalID=1)>
2026-06-07 16:47:59,878 - INFO - <NMEA(GLGSV, numMsg=3, msgNum=3, numSV=11, svid_01=87, elv_01=44.0, az_01=324, cno_01=46, svid_02=, elv_02=, az_02=, cno_02=36, svid_03=, elv_03=, az_03=, cno_03=40, signalID=1)>
2026-06-07 16:47:59,879 - INFO - <NMEA(GLGSV, numMsg=2, msgNum=1, numSV=8, svid_01=70, elv_01=17.0, az_01=43, cno_01=41, svid_02=71, elv_02=65.0, az_02=345, cno_02=41, svid_03=72, elv_03=37.0, az_03=256, cno_03=38, svid_04=73, elv_04=3.0, az_04=112, cno_04=36, signalID=3)>
2026-06-07 16:47:59,879 - INFO - <NMEA(GLGSV, numMsg=2, msgNum=2, numSV=8, svid_01=79, elv_01=1.0, az_01=14, cno_01=27, svid_02=80, elv_02=9.0, az_02=62, cno_02=42, svid_03=85, elv_03=23.0, az_03=162, cno_03=36, svid_04=86, elv_04=78.0, az_04=250, cno_04=31, signalID=3)>
2026-06-07 16:47:59,880 - INFO - <NMEA(GAGSV, numMsg=2, msgNum=1, numSV=8, svid_01=3, elv_01=61.0, az_01=52, cno_01=50, svid_02=5, elv_02=11.0, az_02=43, cno_02=42, svid_03=7, elv_03=10.0, az_03=219, cno_03=27, svid_04=8, elv_04=60.0, az_04=209, cno_04=41, signalID=2)>
2026-06-07 16:47:59,881 - INFO - <NMEA(GAGSV, numMsg=2, msgNum=2, numSV=8, svid_01=13, elv_01=46.0, az_01=318, cno_01=43, svid_02=15, elv_02=76.0, az_02=114, cno_02=49, svid_03=32, elv_03=82.0, az_03=146, cno_03=39, svid_04=34, elv_04=23.0, az_04=130, cno_04=40, signalID=2)>
2026-06-07 16:47:59,881 - INFO - <NMEA(GAGSV, numMsg=2, msgNum=1, numSV=8, svid_01=3, elv_01=61.0, az_01=52, cno_01=46, svid_02=5, elv_02=11.0, az_02=43, cno_02=45, svid_03=7, elv_03=10.0, az_03=219, cno_03=34, svid_04=8, elv_04=60.0, az_04=209, cno_04=37, signalID=7)>
2026-06-07 16:47:59,882 - INFO - <NMEA(GAGSV, numMsg=2, msgNum=2, numSV=8, svid_01=13, elv_01=46.0, az_01=318, cno_01=44, svid_02=15, elv_02=76.0, az_02=114, cno_02=47, svid_03=32, elv_03=82.0, az_03=146, cno_03=42, svid_04=34, elv_04=23.0, az_04=130, cno_04=37, signalID=7)>
2026-06-07 16:47:59,883 - INFO - <NMEA(GBGSV, numMsg=3, msgNum=1, numSV=10, svid_01=11, elv_01=3.0, az_01=325, cno_01=21, svid_02=13, elv_02=12.0, az_02=163, cno_02=39, svid_03=24, elv_03=9.0, az_03=64, cno_03=31, svid_04=25, elv_04=12.0, az_04=119, cno_04=43, signalID=1)>
2026-06-07 16:47:59,883 - INFO - <NMEA(GBGSV, numMsg=3, msgNum=2, numSV=10, svid_01=27, elv_01=61.0, az_01=241, cno_01=35, svid_02=28, elv_02=37.0, az_02=179, cno_02=36, svid_03=30, elv_03=27.0, az_03=311, cno_03=37, svid_04=32, elv_04=34.0, az_04=262, cno_04=39, signalID=1)>
2026-06-07 16:47:59,884 - INFO - <NMEA(GBGSV, numMsg=3, msgNum=3, numSV=10, svid_01=33, elv_01=30.0, az_01=54, cno_01=45, svid_02=41, elv_02=71.0, az_02=355, cno_02=46, signalID=1)>
2026-06-07 16:47:59,884 - INFO - <NMEA(GQGSV, numMsg=1, msgNum=1, numSV=0, signalID=0)>
2026-06-07 16:47:59,884 - INFO - <NMEA(GNGLL, lat=37.9008396667, NS=N, lon=-97.6641688333, EW=W, time=21:47:59.800000, status=A, posMode=D)>
2026-06-07 16:47:59,885 - INFO - <UBX(NAV-RELPOSNED, version=1, reserved0=0, refStationID=0, iTOW=21:47:59.800000, relPosN=59.24, relPosE=4.21, relPosD=-2.52, relPosLength=59.44, relPosHeading=4.06321, reserved1=0, accN=10.0, accE=10.0, accD=10.2, accLength=10.0, accHeading=0.96474, reserved2=0, gnssFixOK=1, diffSoln=1, relPosValid=1, carrSoln=2, isMoving=1, refPosMiss=0, refObsMiss=0, relPosHeadingValid=1, relPosNormalized=0)>
2026-06-07 16:47:59,886 - INFO - 2026-06-07 16:47:59, current_target: {'timestamp': '2026-05-10 13:40:05', 'lat': 37.9008713333, 'lon': -97.66418, 'speed': 0.004629996, 'y_offset': 0.0, 'x_offset': 0.0, 'z_offset': 0.0, 'heading': 1.76477}, next_target: {'timestamp': '2026-05-10 13:40:06', 'lat': 37.9008713333, 'lon': -97.66418, 'speed': 0.00514444, 'y_offset': 0.0, 'x_offset': 0.0, 'z_offset': 0.0, 'heading': 1.76299}
2026-06-07 16:47:59,886 - INFO - 2026-06-07 16:47:59 [3.4 OBSERVED] current_turn_radius: infm
2026-06-07 16:47:59,886 - INFO - 2026-06-07 16:47:59 [3.4 OBSERVED] turn_direction: LEFT
2026-06-07 16:47:59,887 - INFO - 2026-06-07 16:47:59 [3.4 OBSERVED] estimated left/right wheel speeds: nan, nan rad/s
2026-06-07 16:47:59,888 - INFO - 2026-06-07 16:47:59 [STATE] Current state: NAVIGATING_TO_START
2026-06-07 16:47:59,888 - INFO - 2026-06-07 16:47:59 [NAV_TO_START] Phase: DRIVE_TO_START, Dist: 3.649m, Bearing err: -19.7°, Heading diff: 2.3°, Elapsed: 0.8s
2026-06-07 16:47:59,888 - INFO - 2026-06-07 16:47:59 [NAV_TO_START] DRIVE: bearing=344.4°, dist=3.65m, turn=LEFT, radius=5.42m, speed=1.00
2026-06-07 16:47:59,888 - INFO - 2026-06-07 16:47:59 Turn: LEFT, Radius: 5.42m, DLWS: 1.47 rad/s, DRWS: 1.61 rad/s
2026-06-07 16:47:59,888 - INFO - 2026-06-07 16:47:59 left_actuator_position: 810 (counts) from DLWS 1.466 rad/s
2026-06-07 16:47:59,888 - INFO - 2026-06-07 16:47:59 right_actuator_position: 781 (counts) from DRWS 1.611 rad/s
2026-06-07 16:47:59,889 - INFO - 2026-06-07 16:47:59 LAM: 73.86 mm/(rad/s), RAM: 73.86 mm/(rad/s)
2026-06-07 16:47:59,889 - INFO - 2026-06-07 16:47:59 DLAP: 108.31 mm, DRAP: 118.96 mm
2026-06-07 16:47:59,902 - INFO - Sent actuator positions to RoboClaw → M1 (left): 810, M2 (right): 781 (counts)
2026-06-07 16:47:59,902 - INFO - 2026-06-07 16:47:59 APPLY → left_pos: 810, right_pos: 781 (counts), DLAP: 108.31 mm, DRAP: 118.96 mm
2026-06-07 16:48:00,009 - INFO - <UBX(RXM-RTCM, version=2, crcFailed=0, msgUsed=2, subType=0, refStation=0, msgType=1074)>
2026-06-07 16:48:00,010 - INFO - <UBX(RXM-RTCM, version=2, crcFailed=0, msgUsed=2, subType=0, refStation=0, msgType=1084)>
2026-06-07 16:48:00,014 - INFO - <UBX(RXM-RTCM, version=2, crcFailed=0, msgUsed=2, subType=0, refStation=0, msgType=1094)>
2026-06-07 16:48:00,017 - INFO - <UBX(RXM-RTCM, version=2, crcFailed=0, msgUsed=2, subType=0, refStation=0, msgType=1124)>
2026-06-07 16:48:00,018 - INFO - <UBX(RXM-RTCM, version=2, crcFailed=0, msgUsed=2, subType=0, refStation=0, msgType=1230)>
2026-06-07 16:48:00,076 - INFO - <UBX(RXM-RTCM, version=2, crcFailed=0, msgUsed=2, subType=0, refStation=0, msgType=4072)>
2026-06-07 16:48:00,086 - INFO - <UBX(NAV-PVT, iTOW=21:48:00, year=2026, month=6, day=7, hour=21, min=48, second=0, validDate=1, validTime=1, fullyResolved=1, validMag=0, tAcc=22, nano=365558, fixType=3, gnssFixOk=1, diffSoln=1, psmState=0, headVehValid=0, carrSoln=2, confirmedAvai=1, confirmedDate=1, confirmedTime=1, numSV=29, lon=-97.6641689, lat=37.9008396, height=409707, hMSL=435960, hAcc=15, vAcc=18, velN=-11, velE=-2, velD=1, gSpeed=11, headMot=20.45549, sAcc=63, headAcc=180.0, pDOP=0.88, invalidLlh=0, lastCorrectionAge=1, reserved0=860630572, headVeh=0.0, magDec=0.0, magAcc=0.0)>
2026-06-07 16:48:00,087 - INFO - <NMEA(GNRMC, time=21:48:00, status=A, lat=37.9008396667, NS=N, lon=-97.6641688333, EW=W, spd=0.021, cog=, date=2026-06-07, mv=, mvEW=, posMode=R, navStatus=V)>
2026-06-07 16:48:00,087 - INFO - <NMEA(GNVTG, cogt=, cogtUnit=T, cogm=, cogmUnit=M, sogn=0.021, sognUnit=N, sogk=0.039, sogkUnit=K, posMode=D)>
2026-06-07 16:48:00,088 - INFO - <NMEA(GNGGA, time=21:48:00, lat=37.9008396667, NS=N, lon=-97.6641688333, EW=W, quality=4, numSV=12, HDOP=0.49, alt=436.0, altUnit=M, sep=-26.3, sepUnit=M, diffAge=0.2, diffStation=0)>
2026-06-07 16:48:00,089 - INFO - <NMEA(GNGSA, opMode=M, navMode=3, svid_01=10, svid_02=15, svid_03=18, svid_04=23, svid_05=24, svid_06=8, svid_07=27, svid_08=32, svid_09=, svid_10=, svid_11=, svid_12=, PDOP=0.88, HDOP=0.49, VDOP=0.73, systemId=1)>
2026-06-07 16:48:00,089 - INFO - <NMEA(GNGSA, opMode=M, navMode=3, svid_01=70, svid_02=86, svid_03=87, svid_04=85, svid_05=71, svid_06=72, svid_07=, svid_08=, svid_09=, svid_10=, svid_11=, svid_12=, PDOP=0.88, HDOP=0.49, VDOP=0.73, systemId=2)>
2026-06-07 16:48:00,090 - INFO - <NMEA(GNGSA, opMode=M, navMode=3, svid_01=7, svid_02=3, svid_03=5, svid_04=8, svid_05=13, svid_06=15, svid_07=34, svid_08=, svid_09=, svid_10=, svid_11=, svid_12=, PDOP=0.88, HDOP=0.49, VDOP=0.73, systemId=3)>
2026-06-07 16:48:00,091 - INFO - <NMEA(GNGSA, opMode=M, navMode=3, svid_01=13, svid_02=27, svid_03=28, svid_04=30, svid_05=32, svid_06=33, svid_07=41, svid_08=25, svid_09=, svid_10=, svid_11=, svid_12=, PDOP=0.88, HDOP=0.49, VDOP=0.73, systemId=4)>
2026-06-07 16:48:00,091 - INFO - <NMEA(GNGSA, opMode=M, navMode=3, svid_01=, svid_02=, svid_03=, svid_04=, svid_05=, svid_06=, svid_07=, svid_08=, svid_09=, svid_10=, svid_11=, svid_12=, PDOP=0.88, HDOP=0.49, VDOP=0.73, systemId=5)>
2026-06-07 16:48:00,092 - INFO - <NMEA(GPGSV, numMsg=3, msgNum=1, numSV=11, svid_01=8, elv_01=15.0, az_01=308, cno_01=16, svid_02=10, elv_02=55.0, az_02=315, cno_02=50, svid_03=15, elv_03=16.0, az_03=52, cno_03=41, svid_04=18, elv_04=49.0, az_04=144, cno_04=47, signalID=1)>
2026-06-07 16:48:00,092 - INFO - <NMEA(GPGSV, numMsg=3, msgNum=2, numSV=11, svid_01=23, elv_01=63.0, az_01=35, cno_01=43, svid_02=24, elv_02=38.0, az_02=75, cno_02=45, svid_03=27, elv_03=29.0, az_03=275, cno_03=31, svid_04=32, elv_04=38.0, az_04=230, cno_04=40, signalID=1)>
2026-06-07 16:48:00,093 - INFO - <NMEA(GPGSV, numMsg=3, msgNum=3, numSV=11, svid_01=44, elv_01=42.0, az_01=210, cno_01=39, svid_02=46, elv_02=35.0, az_02=225, cno_02=40, svid_03=48, elv_03=38.0, az_03=220, cno_03=31, signalID=1)>
2026-06-07 16:48:00,093 - INFO - <NMEA(GPGSV, numMsg=2, msgNum=1, numSV=8, svid_01=8, elv_01=15.0, az_01=308, cno_01=28, svid_02=10, elv_02=55.0, az_02=315, cno_02=36, svid_03=15, elv_03=16.0, az_03=52, cno_03=40, svid_04=18, elv_04=49.0, az_04=144, cno_04=41, signalID=6)>
2026-06-07 16:48:00,094 - INFO - <NMEA(GPGSV, numMsg=2, msgNum=2, numSV=8, svid_01=23, elv_01=63.0, az_01=35, cno_01=40, svid_02=24, elv_02=38.0, az_02=75, cno_02=43, svid_03=27, elv_03=29.0, az_03=275, cno_03=38, svid_04=32, elv_04=38.0, az_04=230, cno_04=38, signalID=6)>
2026-06-07 16:48:00,094 - INFO - <NMEA(GLGSV, numMsg=3, msgNum=1, numSV=11, svid_01=70, elv_01=17.0, az_01=43, cno_01=44, svid_02=71, elv_02=65.0, az_02=345, cno_02=48, svid_03=72, elv_03=37.0, az_03=256, cno_03=38, svid_04=73, elv_04=3.0, az_04=112, cno_04=44, signalID=1)>
2026-06-07 16:48:00,095 - INFO - <NMEA(GLGSV, numMsg=3, msgNum=2, numSV=11, svid_01=79, elv_01=1.0, az_01=14, cno_01=33, svid_02=80, elv_02=9.0, az_02=62, cno_02=41, svid_03=85, elv_03=23.0, az_03=162, cno_03=43, svid_04=86, elv_04=78.0, az_04=250, cno_04=41, signalID=1)>
2026-06-07 16:48:00,095 - INFO - <NMEA(GLGSV, numMsg=3, msgNum=3, numSV=11, svid_01=87, elv_01=44.0, az_01=324, cno_01=46, svid_02=, elv_02=, az_02=, cno_02=36, svid_03=, elv_03=, az_03=, cno_03=40, signalID=1)>
2026-06-07 16:48:00,096 - INFO - <NMEA(GLGSV, numMsg=2, msgNum=1, numSV=8, svid_01=70, elv_01=17.0, az_01=43, cno_01=41, svid_02=71, elv_02=65.0, az_02=345, cno_02=41, svid_03=72, elv_03=37.0, az_03=256, cno_03=38, svid_04=73, elv_04=3.0, az_04=112, cno_04=36, signalID=3)>
2026-06-07 16:48:00,096 - INFO - <NMEA(GLGSV, numMsg=2, msgNum=2, numSV=8, svid_01=79, elv_01=1.0, az_01=14, cno_01=27, svid_02=80, elv_02=9.0, az_02=62, cno_02=42, svid_03=85, elv_03=23.0, az_03=162, cno_03=36, svid_04=86, elv_04=78.0, az_04=250, cno_04=31, signalID=3)>
2026-06-07 16:48:00,097 - INFO - <NMEA(GAGSV, numMsg=2, msgNum=1, numSV=8, svid_01=3, elv_01=61.0, az_01=52, cno_01=50, svid_02=5, elv_02=11.0, az_02=43, cno_02=42, svid_03=7, elv_03=10.0, az_03=219, cno_03=27, svid_04=8, elv_04=60.0, az_04=209, cno_04=41, signalID=2)>
2026-06-07 16:48:00,098 - INFO - <NMEA(GAGSV, numMsg=2, msgNum=2, numSV=8, svid_01=13, elv_01=46.0, az_01=318, cno_01=43, svid_02=15, elv_02=76.0, az_02=114, cno_02=49, svid_03=32, elv_03=82.0, az_03=146, cno_03=39, svid_04=34, elv_04=23.0, az_04=130, cno_04=40, signalID=2)>
2026-06-07 16:48:00,098 - INFO - <NMEA(GAGSV, numMsg=2, msgNum=1, numSV=8, svid_01=3, elv_01=61.0, az_01=52, cno_01=46, svid_02=5, elv_02=11.0, az_02=43, cno_02=45, svid_03=7, elv_03=10.0, az_03=219, cno_03=34, svid_04=8, elv_04=60.0, az_04=209, cno_04=37, signalID=7)>
2026-06-07 16:48:00,099 - INFO - <NMEA(GAGSV, numMsg=2, msgNum=2, numSV=8, svid_01=13, elv_01=46.0, az_01=318, cno_01=44, svid_02=15, elv_02=76.0, az_02=114, cno_02=47, svid_03=32, elv_03=82.0, az_03=146, cno_03=42, svid_04=34, elv_04=23.0, az_04=130, cno_04=36, signalID=7)>
2026-06-07 16:48:00,099 - INFO - <NMEA(GBGSV, numMsg=3, msgNum=1, numSV=10, svid_01=11, elv_01=3.0, az_01=325, cno_01=20, svid_02=13, elv_02=12.0, az_02=163, cno_02=39, svid_03=24, elv_03=9.0, az_03=64, cno_03=31, svid_04=25, elv_04=12.0, az_04=119, cno_04=43, signalID=1)>
2026-06-07 16:48:00,100 - INFO - <NMEA(GBGSV, numMsg=3, msgNum=2, numSV=10, svid_01=27, elv_01=61.0, az_01=241, cno_01=35, svid_02=28, elv_02=37.0, az_02=179, cno_02=36, svid_03=30, elv_03=27.0, az_03=311, cno_03=37, svid_04=32, elv_04=34.0, az_04=262, cno_04=39, signalID=1)>
2026-06-07 16:48:00,100 - INFO - <NMEA(GBGSV, numMsg=3, msgNum=3, numSV=10, svid_01=33, elv_01=30.0, az_01=54, cno_01=44, svid_02=41, elv_02=71.0, az_02=355, cno_02=46, signalID=1)>
2026-06-07 16:48:00,100 - INFO - <NMEA(GQGSV, numMsg=1, msgNum=1, numSV=0, signalID=0)>
2026-06-07 16:48:00,101 - INFO - <NMEA(GNGLL, lat=37.9008396667, NS=N, lon=-97.6641688333, EW=W, time=21:48:00, status=A, posMode=D)>
2026-06-07 16:48:00,101 - INFO - <UBX(NAV-RELPOSNED, version=1, reserved0=0, refStationID=0, iTOW=21:48:00, relPosN=59.24, relPosE=4.56, relPosD=-3.18, relPosLength=59.5, relPosHeading=4.40314, reserved1=0, accN=10.0, accE=10.0, accD=10.0, accLength=10.0, accHeading=0.96436, reserved2=0, gnssFixOK=1, diffSoln=1, relPosValid=1, carrSoln=2, isMoving=1, refPosMiss=0, refObsMiss=0, relPosHeadingValid=1, relPosNormalized=0)>
2026-06-07 16:48:00,102 - INFO - 2026-06-07 16:48:00, current_target: {'timestamp': '2026-05-10 13:40:05', 'lat': 37.9008713333, 'lon': -97.66418, 'speed': 0.004629996, 'y_offset': 0.0, 'x_offset': 0.0, 'z_offset': 0.0, 'heading': 1.76477}, next_target: {'timestamp': '2026-05-10 13:40:06', 'lat': 37.9008713333, 'lon': -97.66418, 'speed': 0.00514444, 'y_offset': 0.0, 'x_offset': 0.0, 'z_offset': 0.0, 'heading': 1.76299}
2026-06-07 16:48:00,102 - INFO - 2026-06-07 16:48:00 [3.4 OBSERVED] current_turn_radius: infm
2026-06-07 16:48:00,102 - INFO - 2026-06-07 16:48:00 [3.4 OBSERVED] turn_direction: RIGHT
2026-06-07 16:48:00,102 - INFO - 2026-06-07 16:48:00 [3.4 OBSERVED] estimated left/right wheel speeds: nan, nan rad/s
2026-06-07 16:48:00,105 - INFO - 2026-06-07 16:48:00 [STATE] Current state: NAVIGATING_TO_START
2026-06-07 16:48:00,105 - INFO - 2026-06-07 16:48:00 [NAV_TO_START] Phase: DRIVE_TO_START, Dist: 3.649m, Bearing err: -20.0°, Heading diff: 2.6°, Elapsed: 1.0s
2026-06-07 16:48:00,105 - INFO - 2026-06-07 16:48:00 [NAV_TO_START] DRIVE: bearing=344.4°, dist=3.65m, turn=LEFT, radius=5.33m, speed=1.00
2026-06-07 16:48:00,105 - INFO - 2026-06-07 16:48:00 Turn: LEFT, Radius: 5.33m, DLWS: 1.47 rad/s, DRWS: 1.61 rad/s
2026-06-07 16:48:00,105 - INFO - 2026-06-07 16:48:00 left_actuator_position: 810 (counts) from DLWS 1.465 rad/s
2026-06-07 16:48:00,105 - INFO - 2026-06-07 16:48:00 right_actuator_position: 781 (counts) from DRWS 1.612 rad/s
2026-06-07 16:48:00,105 - INFO - 2026-06-07 16:48:00 LAM: 73.86 mm/(rad/s), RAM: 73.86 mm/(rad/s)
2026-06-07 16:48:00,105 - INFO - 2026-06-07 16:48:00 DLAP: 108.22 mm, DRAP: 119.05 mm
2026-06-07 16:48:00,118 - INFO - Sent actuator positions to RoboClaw → M1 (left): 810, M2 (right): 781 (counts)
2026-06-07 16:48:00,118 - INFO - 2026-06-07 16:48:00 APPLY → left_pos: 810, right_pos: 781 (counts), DLAP: 108.22 mm, DRAP: 119.05 mm
2026-06-07 16:48:00,210 - INFO - <UBX(RXM-RTCM, version=2, crcFailed=0, msgUsed=2, subType=0, refStation=0, msgType=1074)>
2026-06-07 16:48:00,212 - INFO - <UBX(RXM-RTCM, version=2, crcFailed=0, msgUsed=2, subType=0, refStation=0, msgType=1084)>
2026-06-07 16:48:00,217 - INFO - <UBX(RXM-RTCM, version=2, crcFailed=0, msgUsed=2, subType=0, refStation=0, msgType=1094)>
2026-06-07 16:48:00,217 - INFO - <UBX(RXM-RTCM, version=2, crcFailed=0, msgUsed=2, subType=0, refStation=0, msgType=1124)>
2026-06-07 16:48:00,218 - INFO - <UBX(RXM-RTCM, version=2, crcFailed=0, msgUsed=2, subType=0, refStation=0, msgType=1230)>
2026-06-07 16:48:00,267 - INFO - <UBX(RXM-RTCM, version=2, crcFailed=0, msgUsed=2, subType=0, refStation=0, msgType=4072)>
2026-06-07 16:48:00,268 - INFO - <UBX(NAV-PVT, iTOW=21:48:00.200000, year=2026, month=6, day=7, hour=21, min=48, second=0, validDate=1, validTime=1, fullyResolved=1, validMag=0, tAcc=22, nano=200365520, fixType=3, gnssFixOk=1, diffSoln=1, psmState=0, headVehValid=0, carrSoln=2, confirmedAvai=1, confirmedDate=1, confirmedTime=1, numSV=29, lon=-97.6641689, lat=37.9008397, height=409700, hMSL=435952, hAcc=15, vAcc=18, velN=50, velE=-7, velD=-4, gSpeed=51, headMot=20.45549, sAcc=61, headAcc=66.19986, pDOP=0.9, invalidLlh=0, lastCorrectionAge=1, reserved0=860630572, headVeh=0.0, magDec=0.0, magAcc=0.0)>
2026-06-07 16:48:00,268 - INFO - <NMEA(GNRMC, time=21:48:00.200000, status=A, lat=37.9008396667, NS=N, lon=-97.6641688333, EW=W, spd=0.099, cog=, date=2026-06-07, mv=, mvEW=, posMode=R, navStatus=V)>
2026-06-07 16:48:00,269 - INFO - <NMEA(GNVTG, cogt=, cogtUnit=T, cogm=, cogmUnit=M, sogn=0.099, sognUnit=N, sogk=0.183, sogkUnit=K, posMode=D)>
2026-06-07 16:48:00,271 - INFO - <NMEA(GNGGA, time=21:48:00.200000, lat=37.9008396667, NS=N, lon=-97.6641688333, EW=W, quality=4, numSV=12, HDOP=0.51, alt=436.0, altUnit=M, sep=-26.3, sepUnit=M, diffAge=0.2, diffStation=0)>
2026-06-07 16:48:00,271 - INFO - <NMEA(GNGSA, opMode=M, navMode=3, svid_01=10, svid_02=15, svid_03=18, svid_04=23, svid_05=24, svid_06=8, svid_07=27, svid_08=32, svid_09=, svid_10=, svid_11=, svid_12=, PDOP=0.9, HDOP=0.51, VDOP=0.74, systemId=1)>
2026-06-07 16:48:00,272 - INFO - <NMEA(GNGSA, opMode=M, navMode=3, svid_01=70, svid_02=86, svid_03=87, svid_04=85, svid_05=71, svid_06=72, svid_07=, svid_08=, svid_09=, svid_10=, svid_11=, svid_12=, PDOP=0.9, HDOP=0.51, VDOP=0.74, systemId=2)>
2026-06-07 16:48:00,272 - INFO - <NMEA(GNGSA, opMode=M, navMode=3, svid_01=7, svid_02=3, svid_03=5, svid_04=8, svid_05=13, svid_06=15, svid_07=34, svid_08=, svid_09=, svid_10=, svid_11=, svid_12=, PDOP=0.9, HDOP=0.51, VDOP=0.74, systemId=3)>
2026-06-07 16:48:00,273 - INFO - <NMEA(GNGSA, opMode=M, navMode=3, svid_01=13, svid_02=27, svid_03=28, svid_04=30, svid_05=32, svid_06=33, svid_07=41, svid_08=25, svid_09=, svid_10=, svid_11=, svid_12=, PDOP=0.9, HDOP=0.51, VDOP=0.74, systemId=4)>
2026-06-07 16:48:00,273 - INFO - <NMEA(GNGSA, opMode=M, navMode=3, svid_01=, svid_02=, svid_03=, svid_04=, svid_05=, svid_06=, svid_07=, svid_08=, svid_09=, svid_10=, svid_11=, svid_12=, PDOP=0.9, HDOP=0.51, VDOP=0.74, systemId=5)>
2026-06-07 16:48:00,274 - INFO - <NMEA(GPGSV, numMsg=3, msgNum=1, numSV=11, svid_01=8, elv_01=15.0, az_01=308, cno_01=16, svid_02=10, elv_02=55.0, az_02=315, cno_02=50, svid_03=15, elv_03=16.0, az_03=52, cno_03=41, svid_04=18, elv_04=49.0, az_04=144, cno_04=47, signalID=1)>
2026-06-07 16:48:00,274 - INFO - <NMEA(GPGSV, numMsg=3, msgNum=2, numSV=11, svid_01=23, elv_01=63.0, az_01=35, cno_01=43, svid_02=24, elv_02=38.0, az_02=75, cno_02=45, svid_03=27, elv_03=29.0, az_03=275, cno_03=31, svid_04=32, elv_04=39.0, az_04=230, cno_04=41, signalID=1)>
2026-06-07 16:48:00,275 - INFO - <NMEA(GPGSV, numMsg=3, msgNum=3, numSV=11, svid_01=44, elv_01=42.0, az_01=210, cno_01=38, svid_02=46, elv_02=35.0, az_02=225, cno_02=40, svid_03=48, elv_03=38.0, az_03=220, cno_03=31, signalID=1)>
2026-06-07 16:48:00,275 - INFO - <NMEA(GPGSV, numMsg=2, msgNum=1, numSV=8, svid_01=8, elv_01=15.0, az_01=308, cno_01=28, svid_02=10, elv_02=55.0, az_02=315, cno_02=37, svid_03=15, elv_03=16.0, az_03=52, cno_03=39, svid_04=18, elv_04=49.0, az_04=144, cno_04=41, signalID=6)>
2026-06-07 16:48:00,276 - INFO - <NMEA(GPGSV, numMsg=2, msgNum=2, numSV=8, svid_01=23, elv_01=63.0, az_01=35, cno_01=41, svid_02=24, elv_02=38.0, az_02=75, cno_02=43, svid_03=27, elv_03=29.0, az_03=275, cno_03=38, svid_04=32, elv_04=39.0, az_04=230, cno_04=38, signalID=6)>
2026-06-07 16:48:00,276 - INFO - <NMEA(GLGSV, numMsg=3, msgNum=1, numSV=11, svid_01=70, elv_01=17.0, az_01=43, cno_01=43, svid_02=71, elv_02=65.0, az_02=345, cno_02=48, svid_03=72, elv_03=37.0, az_03=256, cno_03=38, svid_04=73, elv_04=3.0, az_04=112, cno_04=43, signalID=1)>
2026-06-07 16:48:00,277 - INFO - <NMEA(GLGSV, numMsg=3, msgNum=2, numSV=11, svid_01=79, elv_01=1.0, az_01=14, cno_01=33, svid_02=80, elv_02=9.0, az_02=62, cno_02=42, svid_03=85, elv_03=23.0, az_03=162, cno_03=43, svid_04=86, elv_04=78.0, az_04=250, cno_04=41, signalID=1)>
2026-06-07 16:48:00,278 - INFO - <NMEA(GLGSV, numMsg=3, msgNum=3, numSV=11, svid_01=87, elv_01=44.0, az_01=324, cno_01=46, svid_02=, elv_02=, az_02=, cno_02=36, svid_03=, elv_03=, az_03=, cno_03=40, signalID=1)>
2026-06-07 16:48:00,278 - INFO - <NMEA(GLGSV, numMsg=2, msgNum=1, numSV=8, svid_01=70, elv_01=17.0, az_01=43, cno_01=41, svid_02=71, elv_02=65.0, az_02=345, cno_02=41, svid_03=72, elv_03=37.0, az_03=256, cno_03=38, svid_04=73, elv_04=3.0, az_04=112, cno_04=36, signalID=3)>
2026-06-07 16:48:00,279 - INFO - <NMEA(GLGSV, numMsg=2, msgNum=2, numSV=8, svid_01=79, elv_01=1.0, az_01=14, cno_01=27, svid_02=80, elv_02=9.0, az_02=62, cno_02=41, svid_03=85, elv_03=23.0, az_03=162, cno_03=36, svid_04=86, elv_04=78.0, az_04=250, cno_04=31, signalID=3)>
2026-06-07 16:48:00,279 - INFO - <NMEA(GAGSV, numMsg=2, msgNum=1, numSV=8, svid_01=3, elv_01=61.0, az_01=52, cno_01=50, svid_02=5, elv_02=11.0, az_02=43, cno_02=42, svid_03=7, elv_03=10.0, az_03=219, cno_03=28, svid_04=8, elv_04=60.0, az_04=209, cno_04=41, signalID=2)>
2026-06-07 16:48:00,280 - INFO - <NMEA(GAGSV, numMsg=2, msgNum=2, numSV=8, svid_01=13, elv_01=46.0, az_01=318, cno_01=43, svid_02=15, elv_02=76.0, az_02=114, cno_02=49, svid_03=32, elv_03=82.0, az_03=146, cno_03=39, svid_04=34, elv_04=23.0, az_04=130, cno_04=40, signalID=2)>
2026-06-07 16:48:00,280 - INFO - <NMEA(GAGSV, numMsg=2, msgNum=1, numSV=8, svid_01=3, elv_01=61.0, az_01=52, cno_01=45, svid_02=5, elv_02=11.0, az_02=43, cno_02=45, svid_03=7, elv_03=10.0, az_03=219, cno_03=34, svid_04=8, elv_04=60.0, az_04=209, cno_04=36, signalID=7)>
2026-06-07 16:48:00,281 - INFO - <NMEA(GAGSV, numMsg=2, msgNum=2, numSV=8, svid_01=13, elv_01=46.0, az_01=318, cno_01=44, svid_02=15, elv_02=76.0, az_02=114, cno_02=47, svid_03=32, elv_03=82.0, az_03=146, cno_03=42, svid_04=34, elv_04=23.0, az_04=130, cno_04=36, signalID=7)>
