2026-07-18 11:03:01,201 - INFO - Logging initialized to /home/dali/Documents/ReMow-Rover-Tests/Repeat/Logs/readRecordedRun-2026-07-18_11-03-01.log
2026-07-18 11:03:01,201 - INFO - RoboClaw opened successfully on /dev/serial/by-id/usb-Basicmicro_Inc._USB_Roboclaw_2x15A-if00
2026-07-18 11:03:01,505 - INFO - Encoders reset to zero
2026-07-18 11:03:01,505 - INFO - Starting readRecordedRun with combination: 55
2026-07-18 11:03:01,505 - INFO - Selected most recent recording: 55_20260510-134004_GPSData.csv
2026-07-18 11:03:01,509 - INFO - GREEN_LED initialized on GPIO 17
2026-07-18 11:03:01,514 - INFO - ENU origin from first waypoint: 37.9008713333, -97.66418
2026-07-18 11:03:01,594 - INFO - Path model: 42 rows -> 37 points -> 36 segments, 40.7m total, leading dwell 3.0s
2026-07-18 11:03:01,606 - INFO - goto_positions: M1=1100, M2=1100 [Startup - ensuring neutral position]
2026-07-18 11:03:01,606 - INFO - Actuators initialized to neutral (1100)
2026-07-18 11:03:01,606 - INFO - === UNIFIED PATH FOLLOWER INITIALIZED ===
2026-07-18 11:03:01,606 - INFO - First segment: heading 3.8°, length 0.67m; path ends at (2.81E, 0.81N)
2026-07-18 11:03:01,607 - INFO - Initial state: FOLLOWING_PATH (follower mode ACQUIRE)
2026-07-18 11:03:01,607 - INFO - Acquire timeout: 300.0s
2026-07-18 11:03:01,607 - INFO - === WAITING FOR GPS RTK FIX ===
2026-07-18 11:03:01,607 - INFO - Need: relPosValid=1, carrSoln=2, relPosHeadingValid=1 (timeout: 60.0s)
2026-07-18 11:03:01,691 - INFO - GPS status: relPosValid=1, carrSoln=1, headingValid=1 (0.1s)
2026-07-18 11:03:01,887 - INFO - GPS status: relPosValid=1, carrSoln=1, headingValid=1 (0.3s)
2026-07-18 11:03:02,099 - INFO - GPS status: relPosValid=1, carrSoln=1, headingValid=1 (0.5s)
2026-07-18 11:03:02,288 - INFO - GPS status: relPosValid=1, carrSoln=1, headingValid=1 (0.7s)
2026-07-18 11:03:02,484 - INFO - GPS status: relPosValid=1, carrSoln=1, headingValid=1 (0.9s)
2026-07-18 11:03:02,685 - INFO - GPS status: relPosValid=1, carrSoln=2, headingValid=1 (1.1s)
2026-07-18 11:03:02,685 - INFO - === GPS RTK FIXED — ready to navigate (1.1s) ===
2026-07-18 11:03:02,703 - INFO - <UBX(RXM-RTCM, version=2, crcFailed=0, msgUsed=2, subType=0, refStation=0, msgType=4072)>
2026-07-18 11:03:02,703 - INFO - Using persisted heading from driving to work area: 87.71° (captured at 2026-07-18 11:02:08)
2026-07-18 11:03:02,703 - WARNING - Epoch timeout (1.2s) - GNRMC=False, RELPOSNED=False - holding neutral
2026-07-18 11:03:02,715 - INFO - goto_positions: M1=1100, M2=1100 [Incomplete GPS epoch - waiting]
2026-07-18 11:03:02,850 - INFO - <UBX(RXM-RTCM, version=2, crcFailed=0, msgUsed=2, subType=0, refStation=0, msgType=1074)>
2026-07-18 11:03:02,852 - INFO - <UBX(RXM-RTCM, version=2, crcFailed=0, msgUsed=2, subType=0, refStation=0, msgType=1084)>
2026-07-18 11:03:02,860 - INFO - <UBX(RXM-RTCM, version=2, crcFailed=0, msgUsed=2, subType=0, refStation=0, msgType=1094)>
2026-07-18 11:03:02,860 - INFO - <UBX(RXM-RTCM, version=2, crcFailed=0, msgUsed=2, subType=0, refStation=0, msgType=1124)>
2026-07-18 11:03:02,860 - INFO - <UBX(RXM-RTCM, version=2, crcFailed=0, msgUsed=2, subType=0, refStation=0, msgType=1230)>
2026-07-18 11:03:02,873 - INFO - <UBX(NAV-PVT, iTOW=16:03:02.800000, year=2026, month=7, day=18, hour=16, min=3, second=2, validDate=1, validTime=1, fullyResolved=1, validMag=0, tAcc=1001, nano=799903925, fixType=3, gnssFixOk=1, diffSoln=1, psmState=0, headVehValid=0, carrSoln=2, confirmedAvai=1, confirmedDate=1, confirmedTime=1, numSV=20, lon=-97.6642286, lat=37.9008402, height=411692, hMSL=437944, hAcc=225, vAcc=437, velN=3, velE=4, velD=-30, gSpeed=5, headMot=97.74082, sAcc=107, headAcc=180.0, pDOP=1.31, invalidLlh=0, lastCorrectionAge=1, reserved0=860630572, headVeh=0.0, magDec=0.0, magAcc=0.0)>
2026-07-18 11:03:02,874 - INFO - <NMEA(GNRMC, time=16:03:02.800000, status=A, lat=37.9008401667, NS=N, lon=-97.6642286667, EW=W, spd=0.009, cog=, date=2026-07-18, mv=, mvEW=, posMode=R, navStatus=V)>
2026-07-18 11:03:02,874 - INFO - <NMEA(GNVTG, cogt=, cogtUnit=T, cogm=, cogmUnit=M, sogn=0.009, sognUnit=N, sogk=0.017, sogkUnit=K, posMode=D)>
2026-07-18 11:03:02,875 - INFO - <NMEA(GNGGA, time=16:03:02.800000, lat=37.9008401667, NS=N, lon=-97.6642286667, EW=W, quality=4, numSV=12, HDOP=0.71, alt=437.9, altUnit=M, sep=-26.3, sepUnit=M, diffAge=0.2, diffStation=0)>
2026-07-18 11:03:02,875 - INFO - <NMEA(GNGSA, opMode=M, navMode=3, svid_01=5, svid_02=21, svid_03=26, svid_04=15, svid_05=29, svid_06=20, svid_07=44, svid_08=46, svid_09=48, svid_10=23, svid_11=, svid_12=, PDOP=1.31, HDOP=0.71, VDOP=1.1, systemId=1)>
2026-07-18 11:03:02,876 - INFO - <NMEA(GNGSA, opMode=M, navMode=3, svid_01=71, svid_02=70, svid_03=85, svid_04=86, svid_05=, svid_06=, svid_07=, svid_08=, svid_09=, svid_10=, svid_11=, svid_12=, PDOP=1.31, HDOP=0.71, VDOP=1.1, systemId=2)>
2026-07-18 11:03:02,876 - INFO - <NMEA(GNGSA, opMode=M, navMode=3, svid_01=4, svid_02=25, svid_03=9, svid_04=16, svid_05=36, svid_06=19, svid_07=, svid_08=, svid_09=, svid_10=, svid_11=, svid_12=, PDOP=1.31, HDOP=0.71, VDOP=1.1, systemId=3)>
2026-07-18 11:03:02,877 - INFO - <NMEA(GNGSA, opMode=M, navMode=3, svid_01=, svid_02=, svid_03=, svid_04=, svid_05=, svid_06=, svid_07=, svid_08=, svid_09=, svid_10=, svid_11=, svid_12=, PDOP=1.31, HDOP=0.71, VDOP=1.1, systemId=4)>
2026-07-18 11:03:02,877 - INFO - <NMEA(GNGSA, opMode=M, navMode=3, svid_01=, svid_02=, svid_03=, svid_04=, svid_05=, svid_06=, svid_07=, svid_08=, svid_09=, svid_10=, svid_11=, svid_12=, PDOP=1.31, HDOP=0.71, VDOP=1.1, systemId=5)>
2026-07-18 11:03:02,877 - INFO - <NMEA(GPGSV, numMsg=3, msgNum=1, numSV=12, svid_01=5, elv_01=43.0, az_01=45, cno_01=48, svid_02=11, elv_02=1.0, az_02=101, cno_02=41, svid_03=15, elv_03=60.0, az_03=146, cno_03=39, svid_04=20, elv_04=51.0, az_04=84, cno_04=44, signalID=1)>
2026-07-18 11:03:02,878 - INFO - <NMEA(GPGSV, numMsg=3, msgNum=2, numSV=12, svid_01=21, elv_01=11.0, az_01=54, cno_01=39, svid_02=23, elv_02=34.0, az_02=249, cno_02=41, svid_03=25, elv_03=4.0, az_03=206, cno_03=25, svid_04=26, elv_04=10.0, az_04=290, cno_04=28, signalID=1)>
2026-07-18 11:03:02,878 - INFO - <NMEA(GPGSV, numMsg=3, msgNum=3, numSV=12, svid_01=29, elv_01=71.0, az_01=196, cno_01=43, svid_02=44, elv_02=42.0, az_02=210, cno_02=40, svid_03=46, elv_03=35.0, az_03=225, cno_03=38, svid_04=48, elv_04=38.0, az_04=220, cno_04=42, signalID=1)>
2026-07-18 11:03:02,879 - INFO - <NMEA(GPGSV, numMsg=3, msgNum=1, numSV=9, svid_01=5, elv_01=43.0, az_01=45, cno_01=40, svid_02=11, elv_02=1.0, az_02=101, cno_02=39, svid_03=15, elv_03=60.0, az_03=146, cno_03=36, svid_04=20, elv_04=51.0, az_04=84, cno_04=44, signalID=6)>
2026-07-18 11:03:02,879 - INFO - <NMEA(GPGSV, numMsg=3, msgNum=2, numSV=9, svid_01=21, elv_01=11.0, az_01=54, cno_01=39, svid_02=23, elv_02=34.0, az_02=249, cno_02=35, svid_03=25, elv_03=4.0, az_03=206, cno_03=20, svid_04=26, elv_04=10.0, az_04=290, cno_04=27, signalID=6)>
2026-07-18 11:03:02,880 - INFO - <NMEA(GPGSV, numMsg=3, msgNum=3, numSV=9, svid_01=29, elv_01=71.0, az_01=196, cno_01=36, signalID=6)>
2026-07-18 11:03:02,880 - INFO - <NMEA(GLGSV, numMsg=3, msgNum=1, numSV=10, svid_01=69, elv_01=3.0, az_01=26, cno_01=43, svid_02=70, elv_02=50.0, az_02=40, cno_02=49, svid_03=71, elv_03=60.0, az_03=181, cno_03=43, svid_04=72, elv_04=9.0, az_04=200, cno_04=27, signalID=1)>
2026-07-18 11:03:02,880 - INFO - <NMEA(GLGSV, numMsg=3, msgNum=2, numSV=10, svid_01=76, elv_01=5.0, az_01=266, cno_01=28, svid_02=77, elv_02=7.0, az_02=310, cno_02=27, svid_03=84, elv_03=10.0, az_03=115, cno_03=27, svid_04=85, elv_04=49.0, az_04=92, cno_04=46, signalID=1)>
2026-07-18 11:03:02,881 - INFO - <NMEA(GLGSV, numMsg=3, msgNum=3, numSV=10, svid_01=86, elv_01=48.0, az_01=334, cno_01=47, svid_02=87, elv_02=12.0, az_02=314, cno_02=27, signalID=1)>
2026-07-18 11:03:02,881 - INFO - <NMEA(GLGSV, numMsg=2, msgNum=1, numSV=8, svid_01=69, elv_01=3.0, az_01=26, cno_01=32, svid_02=70, elv_02=50.0, az_02=40, cno_02=40, svid_03=71, elv_03=60.0, az_03=181, cno_03=26, svid_04=72, elv_04=9.0, az_04=200, cno_04=22, signalID=3)>
2026-07-18 11:03:02,882 - INFO - <NMEA(GLGSV, numMsg=2, msgNum=2, numSV=8, svid_01=76, elv_01=5.0, az_01=266, cno_01=22, svid_02=84, elv_02=10.0, az_02=115, cno_02=39, svid_03=85, elv_03=49.0, az_03=92, cno_03=40, svid_04=86, elv_04=48.0, az_04=334, cno_04=43, signalID=3)>
2026-07-18 11:03:02,882 - INFO - <NMEA(GAGSV, numMsg=2, msgNum=1, numSV=8, svid_01=4, elv_01=45.0, az_01=124, cno_01=43, svid_02=9, elv_02=17.0, az_02=176, cno_02=31, svid_03=10, elv_03=59.0, az_03=50, cno_03=43, svid_04=16, elv_04=13.0, az_04=201, cno_04=30, signalID=2)>
2026-07-18 11:03:02,883 - INFO - <NMEA(GAGSV, numMsg=2, msgNum=2, numSV=8, svid_01=19, elv_01=29.0, az_01=55, cno_01=37, svid_02=25, elv_02=30.0, az_02=249, cno_02=38, svid_03=28, elv_03=42.0, az_03=88, cno_03=46, svid_04=36, elv_04=25.0, az_04=292, cno_04=42, signalID=2)>
2026-07-18 11:03:02,883 - INFO - <NMEA(GAGSV, numMsg=2, msgNum=1, numSV=8, svid_01=4, elv_01=45.0, az_01=124, cno_01=37, svid_02=9, elv_02=17.0, az_02=176, cno_02=27, svid_03=10, elv_03=59.0, az_03=50, cno_03=44, svid_04=16, elv_04=13.0, az_04=201, cno_04=36, signalID=7)>
2026-07-18 11:03:02,884 - INFO - <NMEA(GAGSV, numMsg=2, msgNum=2, numSV=8, svid_01=19, elv_01=29.0, az_01=55, cno_01=41, svid_02=25, elv_02=30.0, az_02=249, cno_02=36, svid_03=28, elv_03=42.0, az_03=88, cno_03=45, svid_04=36, elv_04=25.0, az_04=292, cno_04=39, signalID=7)>
2026-07-18 11:03:02,884 - INFO - <NMEA(GBGSV, numMsg=1, msgNum=1, numSV=0, signalID=0)>
2026-07-18 11:03:02,884 - INFO - <NMEA(GQGSV, numMsg=1, msgNum=1, numSV=0, signalID=0)>
2026-07-18 11:03:02,884 - INFO - <NMEA(GNGLL, lat=37.9008401667, NS=N, lon=-97.6642286667, EW=W, time=16:03:02.800000, status=A, posMode=D)>
2026-07-18 11:03:02,885 - INFO - <UBX(NAV-RELPOSNED, version=1, reserved0=0, refStationID=0, iTOW=16:03:02.800000, relPosN=-113.24, relPosE=31.52, relPosD=-173.01, relPosLength=209.16, relPosHeading=164.4436, reserved1=0, accN=10.0, accE=10.0, accD=13.6, accLength=12.5, accHeading=0.48745, reserved2=0, gnssFixOK=1, diffSoln=1, relPosValid=1, carrSoln=2, isMoving=1, refPosMiss=0, refObsMiss=0, relPosHeadingValid=1, relPosNormalized=0)>
2026-07-18 11:03:02,886 - INFO - 2026-07-18 11:03:02 Initial Moving Baseline state: active
2026-07-18 11:03:02,886 - INFO - 2026-07-18 11:03:02 Initial carrier solution: fixed
2026-07-18 11:03:02,910 - INFO - <UBX(RXM-RTCM, version=2, crcFailed=0, msgUsed=2, subType=0, refStation=0, msgType=4072)>
2026-07-18 11:03:02,910 - INFO - 2026-07-18 11:03:02 [3.4 OBSERVED] current_turn_radius: infm
2026-07-18 11:03:02,910 - INFO - 2026-07-18 11:03:02 [3.4 OBSERVED] turn_direction: STRAIGHT
2026-07-18 11:03:02,910 - INFO - 2026-07-18 11:03:02 [3.4 OBSERVED] estimated left/right wheel speeds: 0.005, 0.005 m/s
2026-07-18 11:03:02,912 - INFO - 2026-07-18 11:03:02 [STATE] Current state: FOLLOWING_PATH
2026-07-18 11:03:02,913 - INFO - 2026-07-18 11:03:02 [FOLLOW] ACQUIRE: progress=0.00m/40.7m seg=0 cross=5.50m alpha=-125.4° target=(0.14,1.99) R=1.00 LEFT v=1.07 dwell=0.0s
2026-07-18 11:03:02,913 - INFO - 2026-07-18 11:03:02 Turn: LEFT, R: 1.00m, v_L: 0.70 m/s, v_R: 1.44 m/s
2026-07-18 11:03:02,913 - INFO - 2026-07-18 11:03:02 left_actuator_position: 752 (counts) from v_L 0.696 m/s
2026-07-18 11:03:02,913 - INFO - 2026-07-18 11:03:02 right_actuator_position: 420 (counts) from v_R 1.445 m/s
2026-07-18 11:03:02,925 - INFO - Sent actuator positions to RoboClaw → M1 (left): 752, M2 (right): 420 (counts)
2026-07-18 11:03:02,925 - INFO - 2026-07-18 11:03:02 APPLY → left_pos: 752, right_pos: 420 (counts), v_L: 0.70 m/s, v_R: 1.44 m/s
2026-07-18 11:03:02,926 - INFO - 2026-07-18 11:03:02 Path tracking needs correction: heading_ok=False (alpha=125.4deg), distance_ok=False (cross=5.503m)
2026-07-18 11:03:03,048 - INFO - <UBX(RXM-RTCM, version=2, crcFailed=0, msgUsed=2, subType=0, refStation=0, msgType=1074)>
2026-07-18 11:03:03,050 - INFO - <UBX(RXM-RTCM, version=2, crcFailed=0, msgUsed=2, subType=0, refStation=0, msgType=1084)>
2026-07-18 11:03:03,055 - INFO - <UBX(RXM-RTCM, version=2, crcFailed=0, msgUsed=2, subType=0, refStation=0, msgType=1094)>
2026-07-18 11:03:03,058 - INFO - <UBX(RXM-RTCM, version=2, crcFailed=0, msgUsed=2, subType=0, refStation=0, msgType=1124)>
2026-07-18 11:03:03,058 - INFO - <UBX(RXM-RTCM, version=2, crcFailed=0, msgUsed=2, subType=0, refStation=0, msgType=1230)>
2026-07-18 11:03:03,080 - INFO - <UBX(NAV-PVT, iTOW=16:03:03, year=2026, month=7, day=18, hour=16, min=3, second=3, validDate=1, validTime=1, fullyResolved=1, validMag=0, tAcc=1001, nano=-96118, fixType=3, gnssFixOk=1, diffSoln=1, psmState=0, headVehValid=0, carrSoln=2, confirmedAvai=1, confirmedDate=1, confirmedTime=1, numSV=20, lon=-97.6642286, lat=37.9008402, height=411705, hMSL=437957, hAcc=225, vAcc=437, velN=3, velE=-1, velD=-10, gSpeed=3, headMot=97.74082, sAcc=102, headAcc=180.0, pDOP=1.31, invalidLlh=0, lastCorrectionAge=1, reserved0=860630572, headVeh=0.0, magDec=0.0, magAcc=0.0)>
2026-07-18 11:03:03,081 - INFO - <NMEA(GNRMC, time=16:03:03, status=A, lat=37.9008401667, NS=N, lon=-97.6642286667, EW=W, spd=0.006, cog=, date=2026-07-18, mv=, mvEW=, posMode=R, navStatus=V)>
2026-07-18 11:03:03,081 - INFO - <NMEA(GNVTG, cogt=, cogtUnit=T, cogm=, cogmUnit=M, sogn=0.006, sognUnit=N, sogk=0.011, sogkUnit=K, posMode=D)>
2026-07-18 11:03:03,081 - INFO - <NMEA(GNGGA, time=16:03:03, lat=37.9008401667, NS=N, lon=-97.6642286667, EW=W, quality=4, numSV=12, HDOP=0.71, alt=438.0, altUnit=M, sep=-26.3, sepUnit=M, diffAge=0.2, diffStation=0)>
2026-07-18 11:03:03,082 - INFO - <NMEA(GNGSA, opMode=M, navMode=3, svid_01=5, svid_02=21, svid_03=26, svid_04=15, svid_05=29, svid_06=20, svid_07=44, svid_08=46, svid_09=48, svid_10=23, svid_11=, svid_12=, PDOP=1.31, HDOP=0.71, VDOP=1.1, systemId=1)>
2026-07-18 11:03:03,082 - INFO - <NMEA(GNGSA, opMode=M, navMode=3, svid_01=71, svid_02=70, svid_03=85, svid_04=86, svid_05=, svid_06=, svid_07=, svid_08=, svid_09=, svid_10=, svid_11=, svid_12=, PDOP=1.31, HDOP=0.71, VDOP=1.1, systemId=2)>
2026-07-18 11:03:03,083 - INFO - <NMEA(GNGSA, opMode=M, navMode=3, svid_01=4, svid_02=25, svid_03=9, svid_04=16, svid_05=36, svid_06=19, svid_07=, svid_08=, svid_09=, svid_10=, svid_11=, svid_12=, PDOP=1.31, HDOP=0.71, VDOP=1.1, systemId=3)>
2026-07-18 11:03:03,083 - INFO - <NMEA(GNGSA, opMode=M, navMode=3, svid_01=, svid_02=, svid_03=, svid_04=, svid_05=, svid_06=, svid_07=, svid_08=, svid_09=, svid_10=, svid_11=, svid_12=, PDOP=1.31, HDOP=0.71, VDOP=1.1, systemId=4)>
2026-07-18 11:03:03,083 - INFO - <NMEA(GNGSA, opMode=M, navMode=3, svid_01=, svid_02=, svid_03=, svid_04=, svid_05=, svid_06=, svid_07=, svid_08=, svid_09=, svid_10=, svid_11=, svid_12=, PDOP=1.31, HDOP=0.71, VDOP=1.1, systemId=5)>
2026-07-18 11:03:03,084 - INFO - <NMEA(GPGSV, numMsg=3, msgNum=1, numSV=12, svid_01=5, elv_01=43.0, az_01=45, cno_01=48, svid_02=11, elv_02=1.0, az_02=101, cno_02=41, svid_03=15, elv_03=60.0, az_03=146, cno_03=39, svid_04=20, elv_04=51.0, az_04=84, cno_04=44, signalID=1)>
2026-07-18 11:03:03,084 - INFO - <NMEA(GPGSV, numMsg=3, msgNum=2, numSV=12, svid_01=21, elv_01=11.0, az_01=54, cno_01=39, svid_02=23, elv_02=34.0, az_02=249, cno_02=41, svid_03=25, elv_03=4.0, az_03=206, cno_03=25, svid_04=26, elv_04=10.0, az_04=290, cno_04=28, signalID=1)>
2026-07-18 11:03:03,085 - INFO - <NMEA(GPGSV, numMsg=3, msgNum=3, numSV=12, svid_01=29, elv_01=71.0, az_01=196, cno_01=43, svid_02=44, elv_02=42.0, az_02=210, cno_02=39, svid_03=46, elv_03=35.0, az_03=225, cno_03=38, svid_04=48, elv_04=38.0, az_04=220, cno_04=42, signalID=1)>
2026-07-18 11:03:03,085 - INFO - <NMEA(GPGSV, numMsg=3, msgNum=1, numSV=9, svid_01=5, elv_01=43.0, az_01=45, cno_01=40, svid_02=11, elv_02=1.0, az_02=101, cno_02=39, svid_03=15, elv_03=60.0, az_03=146, cno_03=36, svid_04=20, elv_04=51.0, az_04=84, cno_04=44, signalID=6)>
2026-07-18 11:03:03,086 - INFO - <NMEA(GPGSV, numMsg=3, msgNum=2, numSV=9, svid_01=21, elv_01=11.0, az_01=54, cno_01=39, svid_02=23, elv_02=34.0, az_02=249, cno_02=35, svid_03=25, elv_03=4.0, az_03=206, cno_03=19, svid_04=26, elv_04=10.0, az_04=290, cno_04=28, signalID=6)>
2026-07-18 11:03:03,086 - INFO - <NMEA(GPGSV, numMsg=3, msgNum=3, numSV=9, svid_01=29, elv_01=71.0, az_01=196, cno_01=36, signalID=6)>
2026-07-18 11:03:03,086 - INFO - <NMEA(GLGSV, numMsg=3, msgNum=1, numSV=10, svid_01=69, elv_01=3.0, az_01=26, cno_01=43, svid_02=70, elv_02=50.0, az_02=40, cno_02=49, svid_03=71, elv_03=60.0, az_03=181, cno_03=43, svid_04=72, elv_04=9.0, az_04=200, cno_04=27, signalID=1)>
2026-07-18 11:03:03,087 - INFO - <NMEA(GLGSV, numMsg=3, msgNum=2, numSV=10, svid_01=76, elv_01=5.0, az_01=266, cno_01=28, svid_02=77, elv_02=7.0, az_02=310, cno_02=27, svid_03=84, elv_03=10.0, az_03=115, cno_03=28, svid_04=85, elv_04=49.0, az_04=92, cno_04=46, signalID=1)>
2026-07-18 11:03:03,087 - INFO - <NMEA(GLGSV, numMsg=3, msgNum=3, numSV=10, svid_01=86, elv_01=48.0, az_01=334, cno_01=47, svid_02=87, elv_02=12.0, az_02=314, cno_02=27, signalID=1)>
2026-07-18 11:03:03,088 - INFO - <NMEA(GLGSV, numMsg=2, msgNum=1, numSV=8, svid_01=69, elv_01=3.0, az_01=26, cno_01=32, svid_02=70, elv_02=50.0, az_02=40, cno_02=40, svid_03=71, elv_03=60.0, az_03=181, cno_03=26, svid_04=72, elv_04=9.0, az_04=200, cno_04=22, signalID=3)>
2026-07-18 11:03:03,088 - INFO - <NMEA(GLGSV, numMsg=2, msgNum=2, numSV=8, svid_01=76, elv_01=5.0, az_01=266, cno_01=22, svid_02=84, elv_02=10.0, az_02=115, cno_02=39, svid_03=85, elv_03=49.0, az_03=92, cno_03=40, svid_04=86, elv_04=48.0, az_04=334, cno_04=43, signalID=3)>
2026-07-18 11:03:03,089 - INFO - <NMEA(GAGSV, numMsg=2, msgNum=1, numSV=8, svid_01=4, elv_01=45.0, az_01=124, cno_01=43, svid_02=9, elv_02=17.0, az_02=176, cno_02=31, svid_03=10, elv_03=59.0, az_03=50, cno_03=43, svid_04=16, elv_04=13.0, az_04=201, cno_04=30, signalID=2)>
2026-07-18 11:03:03,089 - INFO - <NMEA(GAGSV, numMsg=2, msgNum=2, numSV=8, svid_01=19, elv_01=29.0, az_01=55, cno_01=37, svid_02=25, elv_02=30.0, az_02=249, cno_02=38, svid_03=28, elv_03=42.0, az_03=88, cno_03=46, svid_04=36, elv_04=25.0, az_04=292, cno_04=42, signalID=2)>
2026-07-18 11:03:03,090 - INFO - <NMEA(GAGSV, numMsg=2, msgNum=1, numSV=8, svid_01=4, elv_01=45.0, az_01=124, cno_01=37, svid_02=9, elv_02=17.0, az_02=176, cno_02=27, svid_03=10, elv_03=59.0, az_03=50, cno_03=45, svid_04=16, elv_04=13.0, az_04=201, cno_04=35, signalID=7)>
2026-07-18 11:03:03,090 - INFO - <NMEA(GAGSV, numMsg=2, msgNum=2, numSV=8, svid_01=19, elv_01=29.0, az_01=55, cno_01=41, svid_02=25, elv_02=30.0, az_02=249, cno_02=36, svid_03=28, elv_03=42.0, az_03=88, cno_03=45, svid_04=36, elv_04=25.0, az_04=292, cno_04=39, signalID=7)>
2026-07-18 11:03:03,090 - INFO - <NMEA(GBGSV, numMsg=1, msgNum=1, numSV=0, signalID=0)>
2026-07-18 11:03:03,090 - INFO - <NMEA(GQGSV, numMsg=1, msgNum=1, numSV=0, signalID=0)>
2026-07-18 11:03:03,091 - INFO - <NMEA(GNGLL, lat=37.9008401667, NS=N, lon=-97.6642286667, EW=W, time=16:03:03, status=A, posMode=D)>
2026-07-18 11:03:03,091 - INFO - <UBX(NAV-RELPOSNED, version=1, reserved0=0, refStationID=0, iTOW=16:03:03, relPosN=-113.01, relPosE=31.49, relPosD=-174.07, relPosLength=209.91, relPosHeading=164.42924, reserved1=0, accN=10.0, accE=10.0, accD=14.3, accLength=13.1, accHeading=0.4884, reserved2=0, gnssFixOK=1, diffSoln=1, relPosValid=1, carrSoln=2, isMoving=1, refPosMiss=0, refObsMiss=0, relPosHeadingValid=1, relPosNormalized=0)>
2026-07-18 11:03:03,092 - INFO - 2026-07-18 11:03:03 [3.4 OBSERVED] current_turn_radius: infm
2026-07-18 11:03:03,092 - INFO - 2026-07-18 11:03:03 [3.4 OBSERVED] turn_direction: LEFT
2026-07-18 11:03:03,092 - INFO - 2026-07-18 11:03:03 [3.4 OBSERVED] estimated left/right wheel speeds: nan, nan m/s
2026-07-18 11:03:03,095 - INFO - 2026-07-18 11:03:03 [STATE] Current state: FOLLOWING_PATH
2026-07-18 11:03:03,095 - INFO - 2026-07-18 11:03:03 [FOLLOW] ACQUIRE: progress=0.00m/40.7m seg=0 cross=5.50m alpha=-125.4° target=(0.14,1.99) R=1.00 LEFT v=1.07 dwell=0.0s
2026-07-18 11:03:03,095 - INFO - 2026-07-18 11:03:03 Turn: LEFT, R: 1.00m, v_L: 0.70 m/s, v_R: 1.44 m/s
2026-07-18 11:03:03,095 - INFO - 2026-07-18 11:03:03 left_actuator_position: 752 (counts) from v_L 0.696 m/s
2026-07-18 11:03:03,095 - INFO - 2026-07-18 11:03:03 right_actuator_position: 420 (counts) from v_R 1.445 m/s
2026-07-18 11:03:03,109 - INFO - Sent actuator positions to RoboClaw → M1 (left): 752, M2 (right): 420 (counts)
2026-07-18 11:03:03,109 - INFO - 2026-07-18 11:03:03 APPLY → left_pos: 752, right_pos: 420 (counts), v_L: 0.70 m/s, v_R: 1.44 m/s
2026-07-18 11:03:03,110 - INFO - 2026-07-18 11:03:03 Path tracking needs correction: heading_ok=False (alpha=125.4deg), distance_ok=False (cross=5.503m)
2026-07-18 11:03:03,115 - INFO - <UBX(RXM-RTCM, version=2, crcFailed=0, msgUsed=2, subType=0, refStation=0, msgType=4072)>
2026-07-18 11:03:03,248 - INFO - <UBX(RXM-RTCM, version=2, crcFailed=0, msgUsed=2, subType=0, refStation=0, msgType=1074)>
2026-07-18 11:03:03,250 - INFO - <UBX(RXM-RTCM, version=2, crcFailed=0, msgUsed=2, subType=0, refStation=0, msgType=1084)>
2026-07-18 11:03:03,255 - INFO - <UBX(RXM-RTCM, version=2, crcFailed=0, msgUsed=2, subType=0, refStation=0, msgType=1094)>
2026-07-18 11:03:03,257 - INFO - <UBX(RXM-RTCM, version=2, crcFailed=0, msgUsed=2, subType=0, refStation=0, msgType=1124)>
2026-07-18 11:03:03,257 - INFO - <UBX(RXM-RTCM, version=2, crcFailed=0, msgUsed=2, subType=0, refStation=0, msgType=1230)>
2026-07-18 11:03:03,272 - INFO - <UBX(NAV-PVT, iTOW=16:03:03.200000, year=2026, month=7, day=18, hour=16, min=3, second=3, validDate=1, validTime=1, fullyResolved=1, validMag=0, tAcc=1001, nano=199903837, fixType=3, gnssFixOk=1, diffSoln=1, psmState=0, headVehValid=0, carrSoln=2, confirmedAvai=1, confirmedDate=1, confirmedTime=1, numSV=20, lon=-97.6642286, lat=37.9008402, height=411705, hMSL=437957, hAcc=225, vAcc=437, velN=10, velE=-9, velD=-7, gSpeed=13, headMot=97.74082, sAcc=100, headAcc=180.0, pDOP=1.31, invalidLlh=0, lastCorrectionAge=1, reserved0=860630572, headVeh=0.0, magDec=0.0, magAcc=0.0)>
2026-07-18 11:03:03,273 - INFO - <NMEA(GNRMC, time=16:03:03.200000, status=A, lat=37.9008401667, NS=N, lon=-97.6642285, EW=W, spd=0.026, cog=, date=2026-07-18, mv=, mvEW=, posMode=R, navStatus=V)>
2026-07-18 11:03:03,273 - INFO - <NMEA(GNVTG, cogt=, cogtUnit=T, cogm=, cogmUnit=M, sogn=0.026, sognUnit=N, sogk=0.048, sogkUnit=K, posMode=D)>
2026-07-18 11:03:03,273 - INFO - <NMEA(GNGGA, time=16:03:03.200000, lat=37.9008401667, NS=N, lon=-97.6642285, EW=W, quality=4, numSV=12, HDOP=0.71, alt=438.0, altUnit=M, sep=-26.3, sepUnit=M, diffAge=0.2, diffStation=0)>
2026-07-18 11:03:03,274 - INFO - <NMEA(GNGSA, opMode=M, navMode=3, svid_01=5, svid_02=21, svid_03=26, svid_04=15, svid_05=29, svid_06=20, svid_07=44, svid_08=46, svid_09=48, svid_10=23, svid_11=, svid_12=, PDOP=1.31, HDOP=0.71, VDOP=1.1, systemId=1)>
2026-07-18 11:03:03,274 - INFO - <NMEA(GNGSA, opMode=M, navMode=3, svid_01=71, svid_02=70, svid_03=85, svid_04=86, svid_05=, svid_06=, svid_07=, svid_08=, svid_09=, svid_10=, svid_11=, svid_12=, PDOP=1.31, HDOP=0.71, VDOP=1.1, systemId=2)>
2026-07-18 11:03:03,275 - INFO - <NMEA(GNGSA, opMode=M, navMode=3, svid_01=4, svid_02=25, svid_03=9, svid_04=16, svid_05=36, svid_06=19, svid_07=, svid_08=, svid_09=, svid_10=, svid_11=, svid_12=, PDOP=1.31, HDOP=0.71, VDOP=1.1, systemId=3)>
2026-07-18 11:03:03,275 - INFO - <NMEA(GNGSA, opMode=M, navMode=3, svid_01=, svid_02=, svid_03=, svid_04=, svid_05=, svid_06=, svid_07=, svid_08=, svid_09=, svid_10=, svid_11=, svid_12=, PDOP=1.31, HDOP=0.71, VDOP=1.1, systemId=4)>
2026-07-18 11:03:03,275 - INFO - <NMEA(GNGSA, opMode=M, navMode=3, svid_01=, svid_02=, svid_03=, svid_04=, svid_05=, svid_06=, svid_07=, svid_08=, svid_09=, svid_10=, svid_11=, svid_12=, PDOP=1.31, HDOP=0.71, VDOP=1.1, systemId=5)>
2026-07-18 11:03:03,276 - INFO - <NMEA(GPGSV, numMsg=3, msgNum=1, numSV=12, svid_01=5, elv_01=43.0, az_01=45, cno_01=48, svid_02=11, elv_02=1.0, az_02=101, cno_02=41, svid_03=15, elv_03=61.0, az_03=145, cno_03=39, svid_04=20, elv_04=51.0, az_04=84, cno_04=44, signalID=1)>
2026-07-18 11:03:03,276 - INFO - <NMEA(GPGSV, numMsg=3, msgNum=2, numSV=12, svid_01=21, elv_01=11.0, az_01=54, cno_01=39, svid_02=23, elv_02=34.0, az_02=249, cno_02=41, svid_03=25, elv_03=4.0, az_03=206, cno_03=25, svid_04=26, elv_04=10.0, az_04=290, cno_04=28, signalID=1)>
2026-07-18 11:03:03,277 - INFO - <NMEA(GPGSV, numMsg=3, msgNum=3, numSV=12, svid_01=29, elv_01=71.0, az_01=196, cno_01=43, svid_02=44, elv_02=42.0, az_02=210, cno_02=39, svid_03=46, elv_03=35.0, az_03=225, cno_03=38, svid_04=48, elv_04=38.0, az_04=220, cno_04=42, signalID=1)>
2026-07-18 11:03:03,277 - INFO - <NMEA(GPGSV, numMsg=3, msgNum=1, numSV=9, svid_01=5, elv_01=43.0, az_01=45, cno_01=40, svid_02=11, elv_02=1.0, az_02=101, cno_02=39, svid_03=15, elv_03=61.0, az_03=145, cno_03=36, svid_04=20, elv_04=51.0, az_04=84, cno_04=44, signalID=6)>
2026-07-18 11:03:03,278 - INFO - <NMEA(GPGSV, numMsg=3, msgNum=2, numSV=9, svid_01=21, elv_01=11.0, az_01=54, cno_01=39, svid_02=23, elv_02=34.0, az_02=249, cno_02=35, svid_03=25, elv_03=4.0, az_03=206, cno_03=20, svid_04=26, elv_04=10.0, az_04=290, cno_04=28, signalID=6)>
2026-07-18 11:03:03,278 - INFO - <NMEA(GPGSV, numMsg=3, msgNum=3, numSV=9, svid_01=29, elv_01=71.0, az_01=196, cno_01=36, signalID=6)>
2026-07-18 11:03:03,278 - INFO - <NMEA(GLGSV, numMsg=3, msgNum=1, numSV=10, svid_01=69, elv_01=3.0, az_01=26, cno_01=43, svid_02=70, elv_02=50.0, az_02=40, cno_02=49, svid_03=71, elv_03=60.0, az_03=181, cno_03=43, svid_04=72, elv_04=9.0, az_04=200, cno_04=27, signalID=1)>
2026-07-18 11:03:03,279 - INFO - <NMEA(GLGSV, numMsg=3, msgNum=2, numSV=10, svid_01=76, elv_01=5.0, az_01=266, cno_01=27, svid_02=77, elv_02=7.0, az_02=310, cno_02=27, svid_03=84, elv_03=10.0, az_03=115, cno_03=27, svid_04=85, elv_04=49.0, az_04=92, cno_04=46, signalID=1)>
2026-07-18 11:03:03,279 - INFO - <NMEA(GLGSV, numMsg=3, msgNum=3, numSV=10, svid_01=86, elv_01=48.0, az_01=334, cno_01=47, svid_02=87, elv_02=12.0, az_02=314, cno_02=27, signalID=1)>
2026-07-18 11:03:03,280 - INFO - <NMEA(GLGSV, numMsg=2, msgNum=1, numSV=8, svid_01=69, elv_01=3.0, az_01=26, cno_01=32, svid_02=70, elv_02=50.0, az_02=40, cno_02=40, svid_03=71, elv_03=60.0, az_03=181, cno_03=25, svid_04=72, elv_04=9.0, az_04=200, cno_04=22, signalID=3)>
2026-07-18 11:03:03,280 - INFO - <NMEA(GLGSV, numMsg=2, msgNum=2, numSV=8, svid_01=76, elv_01=5.0, az_01=266, cno_01=22, svid_02=84, elv_02=10.0, az_02=115, cno_02=39, svid_03=85, elv_03=49.0, az_03=92, cno_03=40, svid_04=86, elv_04=48.0, az_04=334, cno_04=43, signalID=3)>
2026-07-18 11:03:03,281 - INFO - <NMEA(GAGSV, numMsg=2, msgNum=1, numSV=8, svid_01=4, elv_01=45.0, az_01=124, cno_01=43, svid_02=9, elv_02=17.0, az_02=176, cno_02=31, svid_03=10, elv_03=59.0, az_03=50, cno_03=43, svid_04=16, elv_04=13.0, az_04=201, cno_04=30, signalID=2)>
2026-07-18 11:03:03,281 - INFO - <NMEA(GAGSV, numMsg=2, msgNum=2, numSV=8, svid_01=19, elv_01=29.0, az_01=55, cno_01=37, svid_02=25, elv_02=30.0, az_02=249, cno_02=38, svid_03=28, elv_03=42.0, az_03=88, cno_03=46, svid_04=36, elv_04=25.0, az_04=292, cno_04=42, signalID=2)>
2026-07-18 11:03:03,282 - INFO - <NMEA(GAGSV, numMsg=2, msgNum=1, numSV=8, svid_01=4, elv_01=45.0, az_01=124, cno_01=37, svid_02=9, elv_02=17.0, az_02=176, cno_02=27, svid_03=10, elv_03=59.0, az_03=50, cno_03=45, svid_04=16, elv_04=13.0, az_04=201, cno_04=36, signalID=7)>
2026-07-18 11:03:03,282 - INFO - <NMEA(GAGSV, numMsg=2, msgNum=2, numSV=8, svid_01=19, elv_01=29.0, az_01=55, cno_01=41, svid_02=25, elv_02=30.0, az_02=249, cno_02=36, svid_03=28, elv_03=42.0, az_03=88, cno_03=45, svid_04=36, elv_04=25.0, az_04=292, cno_04=39, signalID=7)>
2026-07-18 11:03:03,282 - INFO - <NMEA(GBGSV, numMsg=1, msgNum=1, numSV=0, signalID=0)>
2026-07-18 11:03:03,282 - INFO - <NMEA(GQGSV, numMsg=1, msgNum=1, numSV=0, signalID=0)>
2026-07-18 11:03:03,283 - INFO - <NMEA(GNGLL, lat=37.9008401667, NS=N, lon=-97.6642285, EW=W, time=16:03:03.200000, status=A, posMode=D)>
2026-07-18 11:03:03,283 - INFO - <UBX(NAV-RELPOSNED, version=1, reserved0=0, refStationID=0, iTOW=16:03:03.200000, relPosN=-112.86, relPosE=31.34, relPosD=-173.61, relPosLength=209.43, relPosHeading=164.47998, reserved1=0, accN=10.0, accE=10.0, accD=14.3, accLength=13.1, accHeading=0.48914, reserved2=0, gnssFixOK=1, diffSoln=1, relPosValid=1, carrSoln=2, isMoving=1, refPosMiss=0, refObsMiss=0, relPosHeadingValid=1, relPosNormalized=0)>
2026-07-18 11:03:03,284 - INFO - 2026-07-18 11:03:03 [3.4 OBSERVED] current_turn_radius: infm
2026-07-18 11:03:03,284 - INFO - 2026-07-18 11:03:03 [3.4 OBSERVED] turn_direction: RIGHT
2026-07-18 11:03:03,284 - INFO - 2026-07-18 11:03:03 [3.4 OBSERVED] estimated left/right wheel speeds: nan, nan m/s
2026-07-18 11:03:03,286 - INFO - 2026-07-18 11:03:03 [STATE] Current state: FOLLOWING_PATH
2026-07-18 11:03:03,286 - INFO - 2026-07-18 11:03:03 [FOLLOW] ACQUIRE: progress=0.00m/40.7m seg=0 cross=5.49m alpha=-125.5° target=(0.14,1.99) R=1.00 LEFT v=1.07 dwell=0.0s
2026-07-18 11:03:03,286 - INFO - 2026-07-18 11:03:03 Turn: LEFT, R: 1.00m, v_L: 0.70 m/s, v_R: 1.44 m/s
2026-07-18 11:03:03,286 - INFO - 2026-07-18 11:03:03 left_actuator_position: 752 (counts) from v_L 0.696 m/s
2026-07-18 11:03:03,286 - INFO - 2026-07-18 11:03:03 right_actuator_position: 420 (counts) from v_R 1.445 m/s
2026-07-18 11:03:03,301 - INFO - Sent actuator positions to RoboClaw → M1 (left): 752, M2 (right): 420 (counts)
2026-07-18 11:03:03,302 - INFO - 2026-07-18 11:03:03 APPLY → left_pos: 752, right_pos: 420 (counts), v_L: 0.70 m/s, v_R: 1.44 m/s
2026-07-18 11:03:03,302 - INFO - 2026-07-18 11:03:03 Path tracking needs correction: heading_ok=False (alpha=125.5deg), distance_ok=False (cross=5.492m)
2026-07-18 11:03:03,303 - INFO - <UBX(RXM-RTCM, version=2, crcFailed=0, msgUsed=2, subType=0, refStation=0, msgType=4072)>
2026-07-18 11:03:03,448 - INFO - <UBX(RXM-RTCM, version=2, crcFailed=0, msgUsed=2, subType=0, refStation=0, msgType=1074)>
2026-07-18 11:03:03,452 - INFO - <UBX(RXM-RTCM, version=2, crcFailed=0, msgUsed=2, subType=0, refStation=0, msgType=1084)>
2026-07-18 11:03:03,457 - INFO - <UBX(RXM-RTCM, version=2, crcFailed=0, msgUsed=2, subType=0, refStation=0, msgType=1094)>
2026-07-18 11:03:03,457 - INFO - <UBX(RXM-RTCM, version=2, crcFailed=0, msgUsed=2, subType=0, refStation=0, msgType=1124)>
2026-07-18 11:03:03,457 - INFO - <UBX(RXM-RTCM, version=2, crcFailed=0, msgUsed=2, subType=0, refStation=0, msgType=1230)>
2026-07-18 11:03:03,483 - INFO - <UBX(NAV-PVT, iTOW=16:03:03.400000, year=2026, month=7, day=18, hour=16, min=3, second=3, validDate=1, validTime=1, fullyResolved=1, validMag=0, tAcc=1001, nano=399903793, fixType=3, gnssFixOk=1, diffSoln=1, psmState=0, headVehValid=0, carrSoln=2, confirmedAvai=1, confirmedDate=1, confirmedTime=1, numSV=20, lon=-97.6642286, lat=37.9008403, height=411712, hMSL=437965, hAcc=225, vAcc=436, velN=22, velE=6, velD=-14, gSpeed=22, headMot=97.74082, sAcc=87, headAcc=180.0, pDOP=1.31, invalidLlh=0, lastCorrectionAge=1, reserved0=860630572, headVeh=0.0, magDec=0.0, magAcc=0.0)>
2026-07-18 11:03:03,484 - INFO - <NMEA(GNRMC, time=16:03:03.400000, status=A, lat=37.9008403333, NS=N, lon=-97.6642286667, EW=W, spd=0.043, cog=, date=2026-07-18, mv=, mvEW=, posMode=R, navStatus=V)>
2026-07-18 11:03:03,484 - INFO - <NMEA(GNVTG, cogt=, cogtUnit=T, cogm=, cogmUnit=M, sogn=0.043, sognUnit=N, sogk=0.08, sogkUnit=K, posMode=D)>
2026-07-18 11:03:03,484 - INFO - <NMEA(GNGGA, time=16:03:03.400000, lat=37.9008403333, NS=N, lon=-97.6642286667, EW=W, quality=4, numSV=12, HDOP=0.71, alt=438.0, altUnit=M, sep=-26.3, sepUnit=M, diffAge=0.2, diffStation=0)>
2026-07-18 11:03:03,485 - INFO - <NMEA(GNGSA, opMode=M, navMode=3, svid_01=5, svid_02=21, svid_03=26, svid_04=15, svid_05=29, svid_06=20, svid_07=44, svid_08=46, svid_09=48, svid_10=23, svid_11=, svid_12=, PDOP=1.31, HDOP=0.71, VDOP=1.1, systemId=1)>
2026-07-18 11:03:03,485 - INFO - <NMEA(GNGSA, opMode=M, navMode=3, svid_01=71, svid_02=70, svid_03=85, svid_04=86, svid_05=, svid_06=, svid_07=, svid_08=, svid_09=, svid_10=, svid_11=, svid_12=, PDOP=1.31, HDOP=0.71, VDOP=1.1, systemId=2)>
2026-07-18 11:03:03,486 - INFO - <NMEA(GNGSA, opMode=M, navMode=3, svid_01=4, svid_02=25, svid_03=9, svid_04=16, svid_05=36, svid_06=19, svid_07=, svid_08=, svid_09=, svid_10=, svid_11=, svid_12=, PDOP=1.31, HDOP=0.71, VDOP=1.1, systemId=3)>
2026-07-18 11:03:03,486 - INFO - <NMEA(GNGSA, opMode=M, navMode=3, svid_01=, svid_02=, svid_03=, svid_04=, svid_05=, svid_06=, svid_07=, svid_08=, svid_09=, svid_10=, svid_11=, svid_12=, PDOP=1.31, HDOP=0.71, VDOP=1.1, systemId=4)>
2026-07-18 11:03:03,486 - INFO - <NMEA(GNGSA, opMode=M, navMode=3, svid_01=, svid_02=, svid_03=, svid_04=, svid_05=, svid_06=, svid_07=, svid_08=, svid_09=, svid_10=, svid_11=, svid_12=, PDOP=1.31, HDOP=0.71, VDOP=1.1, systemId=5)>
2026-07-18 11:03:03,487 - INFO - <NMEA(GPGSV, numMsg=3, msgNum=1, numSV=12, svid_01=5, elv_01=43.0, az_01=45, cno_01=48, svid_02=11, elv_02=1.0, az_02=101, cno_02=41, svid_03=15, elv_03=61.0, az_03=145, cno_03=39, svid_04=20, elv_04=51.0, az_04=84, cno_04=44, signalID=1)>
2026-07-18 11:03:03,487 - INFO - <NMEA(GPGSV, numMsg=3, msgNum=2, numSV=12, svid_01=21, elv_01=11.0, az_01=54, cno_01=39, svid_02=23, elv_02=34.0, az_02=249, cno_02=41, svid_03=25, elv_03=4.0, az_03=206, cno_03=25, svid_04=26, elv_04=10.0, az_04=290, cno_04=28, signalID=1)>
2026-07-18 11:03:03,488 - INFO - <NMEA(GPGSV, numMsg=3, msgNum=3, numSV=12, svid_01=29, elv_01=71.0, az_01=196, cno_01=43, svid_02=44, elv_02=42.0, az_02=210, cno_02=39, svid_03=46, elv_03=35.0, az_03=225, cno_03=39, svid_04=48, elv_04=38.0, az_04=220, cno_04=42, signalID=1)>
2026-07-18 11:03:03,488 - INFO - <NMEA(GPGSV, numMsg=3, msgNum=1, numSV=9, svid_01=5, elv_01=43.0, az_01=45, cno_01=40, svid_02=11, elv_02=1.0, az_02=101, cno_02=39, svid_03=15, elv_03=61.0, az_03=145, cno_03=36, svid_04=20, elv_04=51.0, az_04=84, cno_04=44, signalID=6)>
2026-07-18 11:03:03,489 - INFO - <NMEA(GPGSV, numMsg=3, msgNum=2, numSV=9, svid_01=21, elv_01=11.0, az_01=54, cno_01=39, svid_02=23, elv_02=34.0, az_02=249, cno_02=35, svid_03=25, elv_03=4.0, az_03=206, cno_03=19, svid_04=26, elv_04=10.0, az_04=290, cno_04=28, signalID=6)>
2026-07-18 11:03:03,489 - INFO - <NMEA(GPGSV, numMsg=3, msgNum=3, numSV=9, svid_01=29, elv_01=71.0, az_01=196, cno_01=36, signalID=6)>
2026-07-18 11:03:03,489 - INFO - <NMEA(GLGSV, numMsg=3, msgNum=1, numSV=10, svid_01=69, elv_01=3.0, az_01=26, cno_01=43, svid_02=70, elv_02=50.0, az_02=40, cno_02=49, svid_03=71, elv_03=60.0, az_03=181, cno_03=43, svid_04=72, elv_04=9.0, az_04=200, cno_04=28, signalID=1)>
2026-07-18 11:03:03,490 - INFO - <NMEA(GLGSV, numMsg=3, msgNum=2, numSV=10, svid_01=76, elv_01=5.0, az_01=266, cno_01=27, svid_02=77, elv_02=7.0, az_02=310, cno_02=27, svid_03=84, elv_03=10.0, az_03=115, cno_03=27, svid_04=85, elv_04=49.0, az_04=92, cno_04=46, signalID=1)>
2026-07-18 11:03:03,490 - INFO - <NMEA(GLGSV, numMsg=3, msgNum=3, numSV=10, svid_01=86, elv_01=48.0, az_01=334, cno_01=47, svid_02=87, elv_02=12.0, az_02=314, cno_02=28, signalID=1)>
2026-07-18 11:03:03,491 - INFO - <NMEA(GLGSV, numMsg=2, msgNum=1, numSV=8, svid_01=69, elv_01=3.0, az_01=26, cno_01=32, svid_02=70, elv_02=50.0, az_02=40, cno_02=40, svid_03=71, elv_03=60.0, az_03=181, cno_03=25, svid_04=72, elv_04=9.0, az_04=200, cno_04=22, signalID=3)>
2026-07-18 11:03:03,491 - INFO - <NMEA(GLGSV, numMsg=2, msgNum=2, numSV=8, svid_01=76, elv_01=5.0, az_01=266, cno_01=22, svid_02=84, elv_02=10.0, az_02=115, cno_02=39, svid_03=85, elv_03=49.0, az_03=92, cno_03=40, svid_04=86, elv_04=48.0, az_04=334, cno_04=43, signalID=3)>
2026-07-18 11:03:03,492 - INFO - <NMEA(GAGSV, numMsg=2, msgNum=1, numSV=8, svid_01=4, elv_01=45.0, az_01=124, cno_01=43, svid_02=9, elv_02=17.0, az_02=176, cno_02=31, svid_03=10, elv_03=59.0, az_03=50, cno_03=43, svid_04=16, elv_04=13.0, az_04=201, cno_04=30, signalID=2)>
2026-07-18 11:03:03,492 - INFO - <NMEA(GAGSV, numMsg=2, msgNum=2, numSV=8, svid_01=19, elv_01=29.0, az_01=55, cno_01=37, svid_02=25, elv_02=30.0, az_02=249, cno_02=38, svid_03=28, elv_03=42.0, az_03=88, cno_03=46, svid_04=36, elv_04=25.0, az_04=292, cno_04=42, signalID=2)>
2026-07-18 11:03:03,492 - INFO - <NMEA(GAGSV, numMsg=2, msgNum=1, numSV=8, svid_01=4, elv_01=45.0, az_01=124, cno_01=38, svid_02=9, elv_02=17.0, az_02=176, cno_02=28, svid_03=10, elv_03=59.0, az_03=50, cno_03=45, svid_04=16, elv_04=13.0, az_04=201, cno_04=36, signalID=7)>
2026-07-18 11:03:03,493 - INFO - <NMEA(GAGSV, numMsg=2, msgNum=2, numSV=8, svid_01=19, elv_01=29.0, az_01=55, cno_01=41, svid_02=25, elv_02=30.0, az_02=249, cno_02=36, svid_03=28, elv_03=42.0, az_03=88, cno_03=45, svid_04=36, elv_04=25.0, az_04=292, cno_04=39, signalID=7)>
2026-07-18 11:03:03,493 - INFO - <NMEA(GBGSV, numMsg=1, msgNum=1, numSV=0, signalID=0)>
2026-07-18 11:03:03,493 - INFO - <NMEA(GQGSV, numMsg=1, msgNum=1, numSV=0, signalID=0)>
2026-07-18 11:03:03,494 - INFO - <NMEA(GNGLL, lat=37.9008403333, NS=N, lon=-97.6642286667, EW=W, time=16:03:03.400000, status=A, posMode=D)>
2026-07-18 11:03:03,494 - INFO - <UBX(NAV-RELPOSNED, version=1, reserved0=0, refStationID=0, iTOW=16:03:03.400000, relPosN=-112.8, relPosE=31.34, relPosD=-174.17, relPosLength=209.86, relPosHeading=164.4711, reserved1=0, accN=10.0, accE=10.0, accD=14.4, accLength=13.2, accHeading=0.48939, reserved2=0, gnssFixOK=1, diffSoln=1, relPosValid=1, carrSoln=2, isMoving=1, refPosMiss=0, refObsMiss=0, relPosHeadingValid=1, relPosNormalized=0)>
2026-07-18 11:03:03,495 - INFO - 2026-07-18 11:03:03 [3.4 OBSERVED] current_turn_radius: infm
2026-07-18 11:03:03,495 - INFO - 2026-07-18 11:03:03 [3.4 OBSERVED] turn_direction: LEFT
2026-07-18 11:03:03,495 - INFO - 2026-07-18 11:03:03 [3.4 OBSERVED] estimated left/right wheel speeds: nan, nan m/s
2026-07-18 11:03:03,498 - INFO - 2026-07-18 11:03:03 [STATE] Current state: FOLLOWING_PATH
2026-07-18 11:03:03,499 - INFO - 2026-07-18 11:03:03 [FOLLOW] ACQUIRE: progress=0.00m/40.7m seg=0 cross=5.49m alpha=-125.3° target=(0.14,1.99) R=1.00 LEFT v=1.07 dwell=0.0s
2026-07-18 11:03:03,499 - INFO - 2026-07-18 11:03:03 Turn: LEFT, R: 1.00m, v_L: 0.70 m/s, v_R: 1.44 m/s
2026-07-18 11:03:03,499 - INFO - 2026-07-18 11:03:03 left_actuator_position: 752 (counts) from v_L 0.696 m/s
2026-07-18 11:03:03,499 - INFO - 2026-07-18 11:03:03 right_actuator_position: 420 (counts) from v_R 1.445 m/s
2026-07-18 11:03:03,512 - INFO - Sent actuator positions to RoboClaw → M1 (left): 752, M2 (right): 420 (counts)
2026-07-18 11:03:03,512 - INFO - 2026-07-18 11:03:03 APPLY → left_pos: 752, right_pos: 420 (counts), v_L: 0.70 m/s, v_R: 1.44 m/s
2026-07-18 11:03:03,513 - INFO - 2026-07-18 11:03:03 Path tracking needs correction: heading_ok=False (alpha=125.3deg), distance_ok=False (cross=5.492m)
2026-07-18 11:03:03,513 - INFO - <UBX(RXM-RTCM, version=2, crcFailed=0, msgUsed=2, subType=0, refStation=0, msgType=4072)>
2026-07-18 11:03:03,648 - INFO - <UBX(RXM-RTCM, version=2, crcFailed=0, msgUsed=2, subType=0, refStation=0, msgType=1074)>
2026-07-18 11:03:03,652 - INFO - <UBX(RXM-RTCM, version=2, crcFailed=0, msgUsed=2, subType=0, refStation=0, msgType=1084)>
2026-07-18 11:03:03,655 - INFO - <UBX(RXM-RTCM, version=2, crcFailed=0, msgUsed=2, subType=0, refStation=0, msgType=1094)>
2026-07-18 11:03:03,658 - INFO - <UBX(RXM-RTCM, version=2, crcFailed=0, msgUsed=2, subType=0, refStation=0, msgType=1124)>
2026-07-18 11:03:03,658 - INFO - <UBX(RXM-RTCM, version=2, crcFailed=0, msgUsed=2, subType=0, refStation=0, msgType=1230)>
2026-07-18 11:03:03,673 - INFO - <UBX(NAV-PVT, iTOW=16:03:03.600000, year=2026, month=7, day=18, hour=16, min=3, second=3, validDate=1, validTime=1, fullyResolved=1, validMag=0, tAcc=1001, nano=599903749, fixType=3, gnssFixOk=1, diffSoln=1, psmState=0, headVehValid=0, carrSoln=2, confirmedAvai=1, confirmedDate=1, confirmedTime=1, numSV=20, lon=-97.6642284, lat=37.9008404, height=411698, hMSL=437950, hAcc=225, vAcc=436, velN=48, velE=42, velD=-1, gSpeed=63, headMot=97.74082, sAcc=66, headAcc=80.57031, pDOP=1.31, invalidLlh=0, lastCorrectionAge=1, reserved0=860630572, headVeh=0.0, magDec=0.0, magAcc=0.0)>
2026-07-18 11:03:03,673 - INFO - <NMEA(GNRMC, time=16:03:03.600000, status=A, lat=37.9008405, NS=N, lon=-97.6642285, EW=W, spd=0.123, cog=, date=2026-07-18, mv=, mvEW=, posMode=R, navStatus=V)>
2026-07-18 11:03:03,674 - INFO - <NMEA(GNVTG, cogt=, cogtUnit=T, cogm=, cogmUnit=M, sogn=0.123, sognUnit=N, sogk=0.228, sogkUnit=K, posMode=D)>
2026-07-18 11:03:03,674 - INFO - <NMEA(GNGGA, time=16:03:03.600000, lat=37.9008405, NS=N, lon=-97.6642285, EW=W, quality=4, numSV=12, HDOP=0.71, alt=438.0, altUnit=M, sep=-26.3, sepUnit=M, diffAge=0.2, diffStation=0)>
2026-07-18 11:03:03,675 - INFO - <NMEA(GNGSA, opMode=M, navMode=3, svid_01=5, svid_02=21, svid_03=26, svid_04=15, svid_05=29, svid_06=20, svid_07=44, svid_08=46, svid_09=48, svid_10=23, svid_11=, svid_12=, PDOP=1.31, HDOP=0.71, VDOP=1.1, systemId=1)>
2026-07-18 11:03:03,675 - INFO - <NMEA(GNGSA, opMode=M, navMode=3, svid_01=71, svid_02=70, svid_03=85, svid_04=86, svid_05=, svid_06=, svid_07=, svid_08=, svid_09=, svid_10=, svid_11=, svid_12=, PDOP=1.31, HDOP=0.71, VDOP=1.1, systemId=2)>
2026-07-18 11:03:03,676 - INFO - <NMEA(GNGSA, opMode=M, navMode=3, svid_01=4, svid_02=25, svid_03=9, svid_04=16, svid_05=36, svid_06=19, svid_07=, svid_08=, svid_09=, svid_10=, svid_11=, svid_12=, PDOP=1.31, HDOP=0.71, VDOP=1.1, systemId=3)>
2026-07-18 11:03:03,676 - INFO - <NMEA(GNGSA, opMode=M, navMode=3, svid_01=, svid_02=, svid_03=, svid_04=, svid_05=, svid_06=, svid_07=, svid_08=, svid_09=, svid_10=, svid_11=, svid_12=, PDOP=1.31, HDOP=0.71, VDOP=1.1, systemId=4)>
2026-07-18 11:03:03,676 - INFO - <NMEA(GNGSA, opMode=M, navMode=3, svid_01=, svid_02=, svid_03=, svid_04=, svid_05=, svid_06=, svid_07=, svid_08=, svid_09=, svid_10=, svid_11=, svid_12=, PDOP=1.31, HDOP=0.71, VDOP=1.1, systemId=5)>
2026-07-18 11:03:03,677 - INFO - <NMEA(GPGSV, numMsg=3, msgNum=1, numSV=12, svid_01=5, elv_01=43.0, az_01=45, cno_01=48, svid_02=11, elv_02=1.0, az_02=101, cno_02=41, svid_03=15, elv_03=61.0, az_03=145, cno_03=39, svid_04=20, elv_04=51.0, az_04=84, cno_04=45, signalID=1)>
2026-07-18 11:03:03,677 - INFO - <NMEA(GPGSV, numMsg=3, msgNum=2, numSV=12, svid_01=21, elv_01=11.0, az_01=54, cno_01=37, svid_02=23, elv_02=34.0, az_02=249, cno_02=41, svid_03=25, elv_03=4.0, az_03=206, cno_03=25, svid_04=26, elv_04=10.0, az_04=290, cno_04=28, signalID=1)>
2026-07-18 11:03:03,678 - INFO - <NMEA(GPGSV, numMsg=3, msgNum=3, numSV=12, svid_01=29, elv_01=71.0, az_01=196, cno_01=43, svid_02=44, elv_02=42.0, az_02=210, cno_02=39, svid_03=46, elv_03=35.0, az_03=225, cno_03=40, svid_04=48, elv_04=38.0, az_04=220, cno_04=42, signalID=1)>
2026-07-18 11:03:03,678 - INFO - <NMEA(GPGSV, numMsg=3, msgNum=1, numSV=9, svid_01=5, elv_01=43.0, az_01=45, cno_01=40, svid_02=11, elv_02=1.0, az_02=101, cno_02=39, svid_03=15, elv_03=61.0, az_03=145, cno_03=35, svid_04=20, elv_04=51.0, az_04=84, cno_04=44, signalID=6)>
2026-07-18 11:03:03,679 - INFO - <NMEA(GPGSV, numMsg=3, msgNum=2, numSV=9, svid_01=21, elv_01=11.0, az_01=54, cno_01=39, svid_02=23, elv_02=34.0, az_02=249, cno_02=35, svid_03=25, elv_03=4.0, az_03=206, cno_03=19, svid_04=26, elv_04=10.0, az_04=290, cno_04=28, signalID=6)>
2026-07-18 11:03:03,679 - INFO - <NMEA(GPGSV, numMsg=3, msgNum=3, numSV=9, svid_01=29, elv_01=71.0, az_01=196, cno_01=36, signalID=6)>
2026-07-18 11:03:03,679 - INFO - <NMEA(GLGSV, numMsg=3, msgNum=1, numSV=10, svid_01=69, elv_01=3.0, az_01=26, cno_01=36, svid_02=70, elv_02=50.0, az_02=40, cno_02=50, svid_03=71, elv_03=60.0, az_03=181, cno_03=43, svid_04=72, elv_04=9.0, az_04=200, cno_04=28, signalID=1)>
2026-07-18 11:03:03,680 - INFO - <NMEA(GLGSV, numMsg=3, msgNum=2, numSV=10, svid_01=76, elv_01=5.0, az_01=266, cno_01=28, svid_02=77, elv_02=7.0, az_02=310, cno_02=27, svid_03=84, elv_03=10.0, az_03=115, cno_03=28, svid_04=85, elv_04=49.0, az_04=92, cno_04=46, signalID=1)>
2026-07-18 11:03:03,680 - INFO - <NMEA(GLGSV, numMsg=3, msgNum=3, numSV=10, svid_01=86, elv_01=48.0, az_01=334, cno_01=46, svid_02=87, elv_02=12.0, az_02=314, cno_02=28, signalID=1)>
2026-07-18 11:03:03,681 - INFO - <NMEA(GLGSV, numMsg=2, msgNum=1, numSV=8, svid_01=69, elv_01=3.0, az_01=26, cno_01=32, svid_02=70, elv_02=50.0, az_02=40, cno_02=40, svid_03=71, elv_03=60.0, az_03=181, cno_03=25, svid_04=72, elv_04=9.0, az_04=200, cno_04=21, signalID=3)>
2026-07-18 11:03:03,681 - INFO - <NMEA(GLGSV, numMsg=2, msgNum=2, numSV=8, svid_01=76, elv_01=5.0, az_01=266, cno_01=22, svid_02=84, elv_02=10.0, az_02=115, cno_02=37, svid_03=85, elv_03=49.0, az_03=92, cno_03=40, svid_04=86, elv_04=48.0, az_04=334, cno_04=43, signalID=3)>
2026-07-18 11:03:03,681 - INFO - <NMEA(GAGSV, numMsg=2, msgNum=1, numSV=8, svid_01=4, elv_01=45.0, az_01=124, cno_01=43, svid_02=9, elv_02=17.0, az_02=176, cno_02=31, svid_03=10, elv_03=59.0, az_03=50, cno_03=43, svid_04=16, elv_04=13.0, az_04=201, cno_04=31, signalID=2)>
2026-07-18 11:03:03,682 - INFO - <NMEA(GAGSV, numMsg=2, msgNum=2, numSV=8, svid_01=19, elv_01=29.0, az_01=55, cno_01=37, svid_02=25, elv_02=30.0, az_02=249, cno_02=38, svid_03=28, elv_03=42.0, az_03=88, cno_03=46, svid_04=36, elv_04=25.0, az_04=292, cno_04=43, signalID=2)>
2026-07-18 11:03:03,682 - INFO - <NMEA(GAGSV, numMsg=2, msgNum=1, numSV=8, svid_01=4, elv_01=45.0, az_01=124, cno_01=38, svid_02=9, elv_02=17.0, az_02=176, cno_02=28, svid_03=10, elv_03=59.0, az_03=50, cno_03=45, svid_04=16, elv_04=13.0, az_04=201, cno_04=35, signalID=7)>
2026-07-18 11:03:03,683 - INFO - <NMEA(GAGSV, numMsg=2, msgNum=2, numSV=8, svid_01=19, elv_01=29.0, az_01=55, cno_01=41, svid_02=25, elv_02=30.0, az_02=249, cno_02=36, svid_03=28, elv_03=42.0, az_03=88, cno_03=45, svid_04=36, elv_04=25.0, az_04=292, cno_04=39, signalID=7)>
2026-07-18 11:03:03,683 - INFO - <NMEA(GBGSV, numMsg=1, msgNum=1, numSV=0, signalID=0)>
2026-07-18 11:03:03,683 - INFO - <NMEA(GQGSV, numMsg=1, msgNum=1, numSV=0, signalID=0)>
2026-07-18 11:03:03,684 - INFO - <NMEA(GNGLL, lat=37.9008405, NS=N, lon=-97.6642285, EW=W, time=16:03:03.600000, status=A, posMode=D)>
2026-07-18 11:03:03,684 - INFO - <UBX(NAV-RELPOSNED, version=1, reserved0=0, refStationID=0, iTOW=16:03:03.600000, relPosN=-113.07, relPosE=32.02, relPosD=-174.53, relPosLength=210.4, relPosHeading=164.18658, reserved1=0, accN=10.0, accE=10.0, accD=13.7, accLength=12.6, accHeading=0.48756, reserved2=0, gnssFixOK=1, diffSoln=1, relPosValid=1, carrSoln=2, isMoving=1, refPosMiss=0, refObsMiss=0, relPosHeadingValid=1, relPosNormalized=0)>
2026-07-18 11:03:03,685 - INFO - 2026-07-18 11:03:03 [3.4 OBSERVED] current_turn_radius: infm
2026-07-18 11:03:03,685 - INFO - 2026-07-18 11:03:03 [3.4 OBSERVED] turn_direction: LEFT
2026-07-18 11:03:03,685 - INFO - 2026-07-18 11:03:03 [3.4 OBSERVED] estimated left/right wheel speeds: nan, nan m/s
2026-07-18 11:03:03,688 - INFO - 2026-07-18 11:03:03 [STATE] Current state: FOLLOWING_PATH
2026-07-18 11:03:03,689 - INFO - 2026-07-18 11:03:03 [FOLLOW] ACQUIRE: progress=0.00m/40.7m seg=0 cross=5.47m alpha=-125.1° target=(0.14,1.99) R=1.00 LEFT v=1.07 dwell=0.0s
2026-07-18 11:03:03,689 - INFO - 2026-07-18 11:03:03 Turn: LEFT, R: 1.00m, v_L: 0.70 m/s, v_R: 1.44 m/s
2026-07-18 11:03:03,689 - INFO - 2026-07-18 11:03:03 left_actuator_position: 752 (counts) from v_L 0.696 m/s
2026-07-18 11:03:03,689 - INFO - 2026-07-18 11:03:03 right_actuator_position: 420 (counts) from v_R 1.445 m/s
2026-07-18 11:03:03,701 - INFO - Sent actuator positions to RoboClaw → M1 (left): 752, M2 (right): 420 (counts)
2026-07-18 11:03:03,702 - INFO - 2026-07-18 11:03:03 APPLY → left_pos: 752, right_pos: 420 (counts), v_L: 0.70 m/s, v_R: 1.44 m/s
2026-07-18 11:03:03,702 - INFO - 2026-07-18 11:03:03 Path tracking needs correction: heading_ok=False (alpha=125.1deg), distance_ok=False (cross=5.469m)
2026-07-18 11:03:03,705 - INFO - <UBX(RXM-RTCM, version=2, crcFailed=0, msgUsed=2, subType=0, refStation=0, msgType=4072)>
2026-07-18 11:03:03,850 - INFO - <UBX(RXM-RTCM, version=2, crcFailed=0, msgUsed=2, subType=0, refStation=0, msgType=1074)>
2026-07-18 11:03:03,853 - INFO - <UBX(RXM-RTCM, version=2, crcFailed=0, msgUsed=2, subType=0, refStation=0, msgType=1084)>
2026-07-18 11:03:03,860 - INFO - <UBX(RXM-RTCM, version=2, crcFailed=0, msgUsed=2, subType=0, refStation=0, msgType=1094)>
2026-07-18 11:03:03,860 - INFO - <UBX(RXM-RTCM, version=2, crcFailed=0, msgUsed=2, subType=0, refStation=0, msgType=1124)>
2026-07-18 11:03:03,860 - INFO - <UBX(RXM-RTCM, version=2, crcFailed=0, msgUsed=2, subType=0, refStation=0, msgType=1230)>
2026-07-18 11:03:03,879 - INFO - <UBX(NAV-PVT, iTOW=16:03:03.800000, year=2026, month=7, day=18, hour=16, min=3, second=3, validDate=1, validTime=1, fullyResolved=1, validMag=0, tAcc=1001, nano=799903705, fixType=3, gnssFixOk=1, diffSoln=1, psmState=0, headVehValid=0, carrSoln=2, confirmedAvai=1, confirmedDate=1, confirmedTime=1, numSV=20, lon=-97.6642276, lat=37.9008406, height=411647, hMSL=437900, hAcc=240, vAcc=466, velN=124, velE=319, velD=55, gSpeed=342, headMot=68.78929, sAcc=69, headAcc=13.82479, pDOP=1.31, invalidLlh=0, lastCorrectionAge=1, reserved0=860630572, headVeh=0.0, magDec=0.0, magAcc=0.0)>
2026-07-18 11:03:03,880 - INFO - <NMEA(GNRMC, time=16:03:03.800000, status=A, lat=37.9008405, NS=N, lon=-97.6642276667, EW=W, spd=0.665, cog=68.79, date=2026-07-18, mv=, mvEW=, posMode=R, navStatus=V)>
2026-07-18 11:03:03,880 - INFO - <NMEA(GNVTG, cogt=68.79, cogtUnit=T, cogm=, cogmUnit=M, sogn=0.665, sognUnit=N, sogk=1.231, sogkUnit=K, posMode=D)>
2026-07-18 11:03:03,880 - INFO - <NMEA(GNGGA, time=16:03:03.800000, lat=37.9008405, NS=N, lon=-97.6642276667, EW=W, quality=4, numSV=12, HDOP=0.71, alt=437.9, altUnit=M, sep=-26.3, sepUnit=M, diffAge=0.2, diffStation=0)>
2026-07-18 11:03:03,881 - INFO - <NMEA(GNGSA, opMode=M, navMode=3, svid_01=5, svid_02=21, svid_03=26, svid_04=15, svid_05=29, svid_06=20, svid_07=44, svid_08=46, svid_09=48, svid_10=23, svid_11=, svid_12=, PDOP=1.31, HDOP=0.71, VDOP=1.1, systemId=1)>
2026-07-18 11:03:03,881 - INFO - <NMEA(GNGSA, opMode=M, navMode=3, svid_01=71, svid_02=70, svid_03=85, svid_04=86, svid_05=, svid_06=, svid_07=, svid_08=, svid_09=, svid_10=, svid_11=, svid_12=, PDOP=1.31, HDOP=0.71, VDOP=1.1, systemId=2)>
2026-07-18 11:03:03,882 - INFO - <NMEA(GNGSA, opMode=M, navMode=3, svid_01=4, svid_02=25, svid_03=9, svid_04=16, svid_05=36, svid_06=19, svid_07=, svid_08=, svid_09=, svid_10=, svid_11=, svid_12=, PDOP=1.31, HDOP=0.71, VDOP=1.1, systemId=3)>
2026-07-18 11:03:03,882 - INFO - <NMEA(GNGSA, opMode=M, navMode=3, svid_01=, svid_02=, svid_03=, svid_04=, svid_05=, svid_06=, svid_07=, svid_08=, svid_09=, svid_10=, svid_11=, svid_12=, PDOP=1.31, HDOP=0.71, VDOP=1.1, systemId=4)>
2026-07-18 11:03:03,882 - INFO - <NMEA(GNGSA, opMode=M, navMode=3, svid_01=, svid_02=, svid_03=, svid_04=, svid_05=, svid_06=, svid_07=, svid_08=, svid_09=, svid_10=, svid_11=, svid_12=, PDOP=1.31, HDOP=0.71, VDOP=1.1, systemId=5)>
2026-07-18 11:03:03,883 - INFO - <NMEA(GPGSV, numMsg=3, msgNum=1, numSV=12, svid_01=5, elv_01=43.0, az_01=45, cno_01=49, svid_02=11, elv_02=1.0, az_02=101, cno_02=40, svid_03=15, elv_03=61.0, az_03=145, cno_03=42, svid_04=20, elv_04=51.0, az_04=84, cno_04=48, signalID=1)>
2026-07-18 11:03:03,883 - INFO - <NMEA(GPGSV, numMsg=3, msgNum=2, numSV=12, svid_01=21, elv_01=11.0, az_01=54, cno_01=41, svid_02=23, elv_02=34.0, az_02=249, cno_02=41, svid_03=25, elv_03=4.0, az_03=206, cno_03=25, svid_04=26, elv_04=10.0, az_04=290, cno_04=28, signalID=1)>
2026-07-18 11:03:03,884 - INFO - <NMEA(GPGSV, numMsg=3, msgNum=3, numSV=12, svid_01=29, elv_01=71.0, az_01=196, cno_01=45, svid_02=44, elv_02=42.0, az_02=210, cno_02=39, svid_03=46, elv_03=35.0, az_03=225, cno_03=41, svid_04=48, elv_04=38.0, az_04=220, cno_04=42, signalID=1)>
2026-07-18 11:03:03,884 - INFO - <NMEA(GPGSV, numMsg=3, msgNum=1, numSV=9, svid_01=5, elv_01=43.0, az_01=45, cno_01=40, svid_02=11, elv_02=1.0, az_02=101, cno_02=42, svid_03=15, elv_03=61.0, az_03=145, cno_03=35, svid_04=20, elv_04=51.0, az_04=84, cno_04=44, signalID=6)>
2026-07-18 11:03:03,885 - INFO - <NMEA(GPGSV, numMsg=3, msgNum=2, numSV=9, svid_01=21, elv_01=11.0, az_01=54, cno_01=37, svid_02=23, elv_02=34.0, az_02=249, cno_02=35, svid_03=25, elv_03=4.0, az_03=206, cno_03=19, svid_04=26, elv_04=10.0, az_04=290, cno_04=28, signalID=6)>
2026-07-18 11:03:03,885 - INFO - <NMEA(GPGSV, numMsg=3, msgNum=3, numSV=9, svid_01=29, elv_01=71.0, az_01=196, cno_01=38, signalID=6)>
2026-07-18 11:03:03,885 - INFO - <NMEA(GLGSV, numMsg=3, msgNum=1, numSV=10, svid_01=69, elv_01=3.0, az_01=26, cno_01=45, svid_02=70, elv_02=50.0, az_02=40, cno_02=50, svid_03=71, elv_03=60.0, az_03=181, cno_03=45, svid_04=72, elv_04=9.0, az_04=200, cno_04=28, signalID=1)>
2026-07-18 11:03:03,886 - INFO - <NMEA(GLGSV, numMsg=3, msgNum=2, numSV=10, svid_01=76, elv_01=5.0, az_01=266, cno_01=27, svid_02=77, elv_02=7.0, az_02=310, cno_02=27, svid_03=84, elv_03=10.0, az_03=115, cno_03=46, svid_04=85, elv_04=49.0, az_04=92, cno_04=45, signalID=1)>
2026-07-18 11:03:03,886 - INFO - <NMEA(GLGSV, numMsg=3, msgNum=3, numSV=10, svid_01=86, elv_01=48.0, az_01=334, cno_01=48, svid_02=87, elv_02=12.0, az_02=314, cno_02=28, signalID=1)>
2026-07-18 11:03:03,887 - INFO - <NMEA(GLGSV, numMsg=2, msgNum=1, numSV=8, svid_01=69, elv_01=3.0, az_01=26, cno_01=26, svid_02=70, elv_02=50.0, az_02=40, cno_02=39, svid_03=71, elv_03=60.0, az_03=181, cno_03=25, svid_04=72, elv_04=9.0, az_04=200, cno_04=21, signalID=3)>
2026-07-18 11:03:03,887 - INFO - <NMEA(GLGSV, numMsg=2, msgNum=2, numSV=8, svid_01=76, elv_01=5.0, az_01=266, cno_01=22, svid_02=84, elv_02=10.0, az_02=115, cno_02=35, svid_03=85, elv_03=49.0, az_03=92, cno_03=40, svid_04=86, elv_04=48.0, az_04=334, cno_04=43, signalID=3)>
2026-07-18 11:03:03,888 - INFO - <NMEA(GAGSV, numMsg=2, msgNum=1, numSV=8, svid_01=4, elv_01=45.0, az_01=124, cno_01=42, svid_02=9, elv_02=17.0, az_02=176, cno_02=31, svid_03=10, elv_03=59.0, az_03=50, cno_03=43, svid_04=16, elv_04=13.0, az_04=201, cno_04=31, signalID=2)>
2026-07-18 11:03:03,888 - INFO - <NMEA(GAGSV, numMsg=2, msgNum=2, numSV=8, svid_01=19, elv_01=29.0, az_01=55, cno_01=37, svid_02=25, elv_02=30.0, az_02=249, cno_02=38, svid_03=28, elv_03=42.0, az_03=88, cno_03=47, svid_04=36, elv_04=25.0, az_04=292, cno_04=43, signalID=2)>
2026-07-18 11:03:03,889 - INFO - <NMEA(GAGSV, numMsg=2, msgNum=1, numSV=8, svid_01=4, elv_01=45.0, az_01=124, cno_01=39, svid_02=9, elv_02=17.0, az_02=176, cno_02=28, svid_03=10, elv_03=59.0, az_03=50, cno_03=44, svid_04=16, elv_04=13.0, az_04=201, cno_04=32, signalID=7)>
2026-07-18 11:03:03,889 - INFO - <NMEA(GAGSV, numMsg=2, msgNum=2, numSV=8, svid_01=19, elv_01=29.0, az_01=55, cno_01=39, svid_02=25, elv_02=30.0, az_02=249, cno_02=34, svid_03=28, elv_03=42.0, az_03=88, cno_03=46, svid_04=36, elv_04=25.0, az_04=292, cno_04=39, signalID=7)>
2026-07-18 11:03:03,889 - INFO - <NMEA(GBGSV, numMsg=1, msgNum=1, numSV=0, signalID=0)>
2026-07-18 11:03:03,889 - INFO - <NMEA(GQGSV, numMsg=1, msgNum=1, numSV=0, signalID=0)>
2026-07-18 11:03:03,890 - INFO - <NMEA(GNGLL, lat=37.9008405, NS=N, lon=-97.6642276667, EW=W, time=16:03:03.800000, status=A, posMode=D)>
2026-07-18 11:03:03,890 - INFO - <UBX(NAV-RELPOSNED, version=1, reserved0=0, refStationID=0, iTOW=16:03:03.800000, relPosN=-114.99, relPosE=34.09, relPosD=-167.74, relPosLength=206.21, relPosHeading=163.48572, reserved1=0, accN=10.0, accE=10.0, accD=14.6, accLength=13.2, accHeading=0.47773, reserved2=0, gnssFixOK=1, diffSoln=1, relPosValid=1, carrSoln=2, isMoving=1, refPosMiss=0, refObsMiss=0, relPosHeadingValid=1, relPosNormalized=0)>
2026-07-18 11:03:03,891 - INFO - 2026-07-18 11:03:03 [3.4 OBSERVED] current_turn_radius: 5.77m
2026-07-18 11:03:03,891 - INFO - 2026-07-18 11:03:03 [3.4 OBSERVED] turn_direction: LEFT
2026-07-18 11:03:03,891 - INFO - 2026-07-18 11:03:03 [3.4 OBSERVED] estimated left/right wheel speeds: 0.321, 0.363 m/s
2026-07-18 11:03:03,893 - INFO - 2026-07-18 11:03:03 [STATE] Current state: FOLLOWING_PATH
2026-07-18 11:03:03,893 - INFO - 2026-07-18 11:03:03 [FOLLOW] ACQUIRE: progress=0.00m/40.7m seg=0 cross=5.41m alpha=-124.8° target=(0.14,1.99) R=1.00 LEFT v=1.07 dwell=0.0s
2026-07-18 11:03:03,893 - INFO - 2026-07-18 11:03:03 Turn: LEFT, R: 1.00m, v_L: 0.70 m/s, v_R: 1.44 m/s
2026-07-18 11:03:03,893 - INFO - 2026-07-18 11:03:03 left_actuator_position: 752 (counts) from v_L 0.696 m/s
2026-07-18 11:03:03,893 - INFO - 2026-07-18 11:03:03 right_actuator_position: 420 (counts) from v_R 1.445 m/s
2026-07-18 11:03:03,905 - INFO - Sent actuator positions to RoboClaw → M1 (left): 752, M2 (right): 420 (counts)
2026-07-18 11:03:03,906 - INFO - 2026-07-18 11:03:03 APPLY → left_pos: 752, right_pos: 420 (counts), v_L: 0.70 m/s, v_R: 1.44 m/s
2026-07-18 11:03:03,906 - INFO - 2026-07-18 11:03:03 Path tracking needs correction: heading_ok=False (alpha=124.8deg), distance_ok=False (cross=5.412m)
2026-07-18 11:03:03,907 - INFO - <UBX(RXM-RTCM, version=2, crcFailed=0, msgUsed=2, subType=0, refStation=0, msgType=4072)>
2026-07-18 11:03:04,048 - INFO - <UBX(RXM-RTCM, version=2, crcFailed=0, msgUsed=2, subType=0, refStation=0, msgType=1074)>
2026-07-18 11:03:04,050 - INFO - <UBX(RXM-RTCM, version=2, crcFailed=0, msgUsed=2, subType=0, refStation=0, msgType=1084)>
2026-07-18 11:03:04,057 - INFO - <UBX(RXM-RTCM, version=2, crcFailed=0, msgUsed=2, subType=0, refStation=0, msgType=1094)>
2026-07-18 11:03:04,057 - INFO - <UBX(RXM-RTCM, version=2, crcFailed=0, msgUsed=2, subType=0, refStation=0, msgType=1124)>
2026-07-18 11:03:04,057 - INFO - <UBX(RXM-RTCM, version=2, crcFailed=0, msgUsed=2, subType=0, refStation=0, msgType=1230)>
2026-07-18 11:03:04,080 - INFO - <UBX(NAV-PVT, iTOW=16:03:04, year=2026, month=7, day=18, hour=16, min=3, second=4, validDate=1, validTime=1, fullyResolved=1, validMag=0, tAcc=1001, nano=-96337, fixType=3, gnssFixOk=1, diffSoln=1, psmState=0, headVehValid=0, carrSoln=2, confirmedAvai=1, confirmedDate=1, confirmedTime=1, numSV=20, lon=-97.6642263, lat=37.9008413, height=411727, hMSL=437980, hAcc=275, vAcc=534, velN=326, velE=610, velD=61, gSpeed=691, headMot=61.87026, sAcc=63, headAcc=6.9411, pDOP=1.31, invalidLlh=0, lastCorrectionAge=1, reserved0=860630572, headVeh=0.0, magDec=0.0, magAcc=0.0)>
2026-07-18 11:03:04,081 - INFO - <NMEA(GNRMC, time=16:03:04, status=A, lat=37.9008413333, NS=N, lon=-97.6642263333, EW=W, spd=1.344, cog=61.87, date=2026-07-18, mv=, mvEW=, posMode=R, navStatus=V)>
2026-07-18 11:03:04,081 - INFO - <NMEA(GNVTG, cogt=61.87, cogtUnit=T, cogm=, cogmUnit=M, sogn=1.344, sognUnit=N, sogk=2.489, sogkUnit=K, posMode=D)>
2026-07-18 11:03:04,082 - INFO - <NMEA(GNGGA, time=16:03:04, lat=37.9008413333, NS=N, lon=-97.6642263333, EW=W, quality=4, numSV=12, HDOP=0.71, alt=438.0, altUnit=M, sep=-26.3, sepUnit=M, diffAge=0.2, diffStation=0)>
2026-07-18 11:03:04,082 - INFO - <NMEA(GNGSA, opMode=M, navMode=3, svid_01=5, svid_02=21, svid_03=26, svid_04=15, svid_05=29, svid_06=20, svid_07=44, svid_08=46, svid_09=48, svid_10=23, svid_11=, svid_12=, PDOP=1.31, HDOP=0.71, VDOP=1.1, systemId=1)>
2026-07-18 11:03:04,083 - INFO - <NMEA(GNGSA, opMode=M, navMode=3, svid_01=71, svid_02=70, svid_03=85, svid_04=86, svid_05=, svid_06=, svid_07=, svid_08=, svid_09=, svid_10=, svid_11=, svid_12=, PDOP=1.31, HDOP=0.71, VDOP=1.1, systemId=2)>
2026-07-18 11:03:04,083 - INFO - <NMEA(GNGSA, opMode=M, navMode=3, svid_01=4, svid_02=25, svid_03=9, svid_04=16, svid_05=36, svid_06=19, svid_07=, svid_08=, svid_09=, svid_10=, svid_11=, svid_12=, PDOP=1.31, HDOP=0.71, VDOP=1.1, systemId=3)>
2026-07-18 11:03:04,084 - INFO - <NMEA(GNGSA, opMode=M, navMode=3, svid_01=, svid_02=, svid_03=, svid_04=, svid_05=, svid_06=, svid_07=, svid_08=, svid_09=, svid_10=, svid_11=, svid_12=, PDOP=1.31, HDOP=0.71, VDOP=1.1, systemId=4)>
2026-07-18 11:03:04,084 - INFO - <NMEA(GNGSA, opMode=M, navMode=3, svid_01=, svid_02=, svid_03=, svid_04=, svid_05=, svid_06=, svid_07=, svid_08=, svid_09=, svid_10=, svid_11=, svid_12=, PDOP=1.31, HDOP=0.71, VDOP=1.1, systemId=5)>
